     2.10           OBSERVATION DATA    GPS                 RINEX VERSION / TYPE
Assistant 1.0                           20220623 121022 LCL PGM / RUN BY / DATE 
       G = GPS       R = GLONASS       C = COMPASS          COMMENT             
       S = SBAS      J = QZSS          E = GALILEO          COMMENT             
TPKL                                                        MARKER NAME         
1                                                           MARKER NUMBER       
                                                            OBSERVER / AGENCY   
MP81190100019       Stonex S9           G973-170405RU       REC # / TYPE / VERS 
0                   MP8SX001A                               ANT # / TYPE        
   937429.6846  4619604.6444  4285027.6572                  APPROX POSITION XYZ 
        0.0957        0.0000        0.0000                  ANTENNA: DELTA H/E/N
     8    C1    L1    D1    S1    P2    L2    D2    S2      # / TYPES OF OBSERV 
     1     1                                                WAVELENGTH FACT L1/2
     30.000                                                 INTERVAL            
  2022    06    17    03    46    0.0000000     GPS         TIME OF FIRST OBS   
  2022    06    20    02    15    0.0000000     GPS         TIME OF LAST OBS    
     0                                                      RCV CLOCK OFFS APPL 
    18                                                      LEAP SECONDS        
*** Above antenna height is from mark to PHASE CENTER.      COMMENT             
CARRIER PHASE MEASUREMENTS: PHASE SHIFTS REMOVED            COMMENT             
    19     4        0.0000        ANT MEASURE TYPE/HEIGT    COMMENT             
    0.0930    0.0680    0.0957    0.0867    0.0000          COMMENT             
                    BASE STATION                            COMMENT             
                                                            END OF HEADER                                      
 22  6 20  0  0  0.0000000  0  8G01G07G08G13G14G17G21G30             0.000000000
  23280513.602 6 122339926.709 6      3069.229 6        41.564    23280528.754 7
  95329881.663 7      2391.949 7        44.741                                  
  20484645.262 8 107647564.724 8     -1037.898 8        50.180    20484654.262 7
  83881235.201 7      -808.752 7        44.741                                  
  22159002.762 7 116446364.986 7     -2788.953 7        46.294    22159014.551 7
  90737449.971 7     -2172.990 7        44.741                                  
  22736303.113 7 119480088.869 7      1941.084 7        46.377    22736311.328 6
  93101400.881 6      1512.496 6        38.601                                  
  21171797.855 8 111258572.227 8      1557.217 8        49.177    21171808.344 7
  86695019.163 7      1213.375 7        44.741                                  
  22838777.820 7 120018592.753 7      3286.787 7        42.751    22838788.512 7
  93521016.866 7      2561.188 7        44.741                                  
  22754476.789 7 119575585.464 7       678.662 7        45.031    22754487.277 6
  93175810.025 6       528.551 6        39.553                                  
  20410065.895 8 107255655.391 8       657.393 8        53.189                  
         0.000 0         0.000 0         0.000                                  
 22  6 20  0  0 30.0000000  0  8G01G07G08G13G14G17G21G30             0.000000000
  23263016.469 6 122247979.742 6      3060.971 6        41.656    23263030.777 7
  95258234.743 7      2384.820 7        44.741                                  
  20490616.203 8 107678943.437 8     -1053.658 8        50.223    20490625.590 7
  83905686.107 7      -820.902 7        44.741                                  
  22174958.086 7 116530210.239 7     -2800.375 7        45.642    22174970.434 7
  90802783.896 7     -2182.035 7        44.741                                  
  22725273.734 7 119422128.300 7      1923.646 7        46.731    22725283.148 6
  93056236.784 6      1499.039 6        39.731                                  
  21162934.887 8 111211996.320 8      1548.529 8        49.703    21162945.461 7
  86658726.260 7      1206.344 7        44.741                                  
  22820040.938 7 119920131.901 7      3278.100 7        42.171    22820051.543 7
  93444294.147 7      2554.273 7        44.741                                  
  22750653.664 7 119555494.702 7       661.361 7        45.017    22750663.207 6
  93160154.838 6       515.289 6        38.993                                  
  20406356.957 8 107236165.746 8       642.533 8        52.886    20406368.418 7
  83560667.186 7       500.582 7        42.211                                  
 22  6 20  0  1  0.0000000  0  8G01G07G08G13G14G17G21G30             0.000000000
  23245570.363 6 122156299.209 6      3052.645 6        41.747    23245585.273 7
  95186795.368 7      2378.055 7        44.741                                  
  20496672.520 8 107710771.034 8     -1068.293 8        49.957    20496682.180 7
  83930486.799 7      -832.551 7        44.741                                  
  22190977.605 7 116614394.433 7     -2811.828 7        45.581    22190990.672 7
  90868381.909 7     -2191.045 7        44.741                                  
  22714342.895 7 119364684.467 7      1906.277 7        46.978    22714351.594 6
  93011475.380 6      1485.438 6        39.464                                  
  21154121.090 8 111165678.972 8      1539.773 8        49.741    21154131.020 7
  86622634.805 7      1199.852 7        44.741                                  
  22801352.656 7 119821922.879 7      3269.637 7        43.092    22801363.887 7
  93367767.631 7      2547.840 7        44.741                                  
  22746930.074 7 119535926.384 7       643.504 7        45.327    22746939.719 6
  93144906.754 6       501.258 6        39.489                                  
  20402732.387 8 107217119.286 8       627.625 8        52.543    20402743.805 7
  83545824.771 7       489.305 7        44.741                                  
 22  6 20  0  1 30.0000000  0  8G01G07G08G13G14G17G21G30             0.000000000
  23228175.621 6 122064888.947 6      3041.902 6        41.806    23228190.574 7
  95115566.614 7      2370.213 7        44.741                                  
  20502814.680 8 107743048.098 8     -1084.133 8        49.993    20502824.480 7
  83955639.728 7      -844.709 7        44.741                                  
  22207061.078 7 116698915.096 7     -2823.740 7        45.235    22207074.141 7
  90934242.123 7     -2200.217 7        44.741                                  
  22703509.773 7 119307760.136 7      1887.820 7        46.241    22703518.785 6
  92967118.750 6      1471.092 6        39.899                                  
  21145356.793 8 111119620.775 8      1530.164 8        50.240    21145366.438 7
  86586745.294 7      1192.479 7        44.741                                  
  22782712.727 7 119723968.009 7      3260.223 7        43.814    22782722.898 7
  93291439.179 7      2540.447 7        44.741                                  
  22743306.066 7 119516881.870 7       625.555 7        44.682    22743316.113 6
  93130066.816 6       487.322 6        39.079                                  
  20399192.805 8 107198517.751 8       612.078 8        52.852    20399204.453 7
  83531333.060 7       476.971 7        44.741                                  
 22  6 20  0  2  0.0000000  0  8G01G07G08G13G14G17G21G30             0.000000000
  23210833.297 7 121973752.060 7      3032.527 7        42.680    23210847.176 7
  95044550.883 7      2363.592 7        44.741                                  
  20509042.316 8 107775774.258 8     -1098.545 8        49.866    20509052.145 7
  83981140.592 7      -856.113 7        44.741                                  
  22223208.559 7 116783769.748 7     -2834.150 7        45.314    22223221.293 7
  91000362.563 7     -2208.164 7        44.741                                  
  22692776.863 7 119251356.694 7      1871.121 7        46.263    22692785.965 6
  92923168.021 6      1458.025 6        39.656                                  
  21136641.480 8 111073821.409 8      1522.215 8        50.282    21136651.770 7
  86551057.478 7      1185.994 7        44.741                                  
  22764121.066 7 119626269.161 7      3251.844 7        42.171    22764132.770 7
  93215310.221 7      2534.080 7        44.741                                  
  22739781.844 7 119498362.045 7       608.563 7        45.072    22739791.988 6
  93115635.806 6       474.236 6        39.570                                  
  20395737.551 8 107180362.008 8       597.664 8        52.570    20395749.285 7
  83517184.705 7       465.779 7        44.741                                  
 22  6 20  0  2 30.0000000  0  8G01G07G08G13G14G17G21G30             0.000000000
  23193543.598 7 121882892.267 7      3023.578 7        42.845    23193557.766 7
  94973751.053 7      2356.393 7        44.741                                  
  20515356.344 8 107808949.936 8     -1113.141 8        50.176    20515365.145 7
  84006990.714 7      -867.260 7        44.741                                  
  22239419.254 7 116868955.036 7     -2844.996 7        45.392    22239431.961 7
  91066740.654 7     -2216.813 7        44.741                                  
  22682143.086 7 119195476.371 7      1854.125 7        45.820    22682152.316 6
  92879624.893 6      1444.791 6        40.193                                  
  21127975.074 8 111028281.233 8      1513.949 8        49.830    21127985.105 7
  86515571.634 7      1179.713 7        44.741                                  
  22745578.883 7 119528828.044 7      3243.539 7        43.977    22745589.500 7
  93139382.070 7      2527.545 7        44.741                                  
  22736357.895 7 119480368.217 7       590.609 7        44.946    22736367.125 6
  93101614.623 6       460.299 6        38.826                                  
  20392368.121 8 107162653.615 8       583.031 8        52.999    20392379.625 7
  83503384.944 7       454.264 7        44.741                                  
 22  6 20  0  3  0.0000000  0  8G01G07G08G13G14G17G21G30             0.000000000
  23176306.656 7 121792313.050 7      3015.023 7        43.199    23176321.066 7
  94903169.910 7      2349.074 7        44.741                                  
  20521754.754 8 107842574.916 8     -1128.063 8        49.957                  
         0.000 0         0.000 0         0.000                                  
  22255691.293 7 116954468.706 7     -2855.150 7        45.248    22255704.633 7
  91133374.648 7     -2225.201 7        44.741                                  
  22671609.145 7 119140120.973 7      1837.172 7        46.325    22671618.387 6
  92836490.802 6      1431.574 6        40.208                                  
  21119358.563 8 110983000.376 8      1505.473 8        50.193    21119369.082 7
  86480287.831 7      1172.961 7        44.741                                  
  22727086.023 7 119431647.020 7      3235.434 7        43.739    22727096.613 7
  93063656.603 7      2521.516 7        44.741                                  
  22733033.785 7 119462901.423 7       573.949 7        44.786    22733043.559 6
  93088004.082 6       447.043 6        38.028                                  
  20389083.789 8 107145393.843 8       568.090 8        52.954    20389095.078 7
  83489936.737 7       442.707 7        44.741                                  
 22  6 20  0  3 30.0000000  0  8G01G07G08G13G14G17G21G30             0.000000000
  23159124.652 7 121702018.253 7      3005.730 7        42.891    23159137.516 7
  94832810.309 7      2341.939 7        44.741                                  
  20528238.434 8 107876650.188 8     -1143.115 8        49.172    20528248.078 7
  84059745.087 7      -890.695 7        44.741                                  
  22272026.566 7 117040308.281 7     -2866.279 7        45.353    22272039.461 7
  91200262.564 7     -2233.215 7        44.741                                  
  22661175.066 7 119085292.688 7      1819.268 7        45.154    22661186.039 6
  92793767.472 6      1417.525 6        40.743                                  
  21110791.262 8 110937979.184 8      1496.689 8        49.811    21110801.695 7
  86445206.370 7      1166.236 7        44.741                                  
  22708642.805 7 119334728.177 7      3226.590 7        43.795    22708652.523 7
  92988135.448 7      2514.342 7        44.741                                  
  22729810.965 7 119445962.806 7       556.553 7        45.366    22729819.680 6
  93074805.139 6       433.678 6        40.064                                  
  20385884.723 8 107128584.187 8       553.330 8        52.299    20385896.199 7
  83476837.284 7       431.119 7        44.741                                  
 22  6 20  0  4  0.0000000  0  8G01G07G08G13G14G17G21G30             0.000000000
  23141996.242 6 121612011.446 6      2994.857 6        41.978    23142009.992 7
  94762675.125 7      2334.027 7        44.741                                  
  20534808.625 8 107911176.026 8     -1158.363 8        49.289    20534818.297 7
  84086648.292 7      -902.555 7        44.741                                  
  22288423.023 7 117126470.849 7     -2877.387 7        45.666    22288436.043 7
  91267402.188 7     -2242.301 7        44.741                                  
  22650843.094 7 119030993.432 7      1801.322 7        45.924    22650852.926 6
  92751456.355 6      1403.656 6        40.572                                  
  21102273.410 8 110893217.934 8      1487.553 8        49.641    21102283.984 7
  86410327.469 7      1159.438 7        44.741                                  
  22690250.609 7 119238073.430 7      3217.396 7        44.559    22690260.613 7
  92912820.067 7      2507.016 7        44.741                                  
  22726688.680 7 119429553.772 7       539.018 7        45.182    22726697.813 6
  93062018.888 6       419.770 6        39.087                                  
  20382771.883 8 107112226.097 8       537.768 8        52.677    20382783.289 7
  83464089.707 7       418.930 7        44.741                                  
 22  6 20  0  4 30.0000000  0  8G01G07G08G13G14G17G21G30             0.000000000
  23124923.457 6 121522296.253 6      2985.479 6        41.717    23124937.863 7
  94692767.177 7      2326.492 7        44.741                                  
  20541464.340 8 107946152.403 8     -1173.486 8        49.423    20541474.387 7
  84113904.575 7      -914.213 7        44.741                                  
  22304879.965 7 117212953.922 7     -2888.076 7        45.738    22304892.711 7
  91334791.551 7     -2250.248 7        44.741                                  
  22640610.672 7 118977225.074 7      1783.564 7        45.208    22640621.418 6
  92709558.933 6      1389.734 6        40.913                                  
  21093805.313 8 110848716.877 8      1479.150 8        49.397    21093815.402 7
  86375651.313 7      1152.645 7        44.741                                  
  22671907.738 7 119141684.858 7      3208.760 7        44.433    22671916.652 7
  92837712.092 7      2500.398 7        44.741                                  
  22723666.949 7 119413675.543 7       520.576 7        44.682    22723677.250 6
  93049646.382 6       405.262 6        40.599                                  
  20379745.570 8 107096320.944 8       522.627 8        52.521    20379756.246 7
  83451694.051 7       407.332 7        44.741                                  
 22  6 20  0  5  0.0000000  0  8G01G07G08G13G14G17G21G30             0.000000000
  23107908.352 7 121432875.892 7      2975.830 7        42.959    23107921.328 7
  94623088.958 7      2319.125 7        44.741                                  
  20548206.359 8 107981578.620 8     -1188.076 8        49.871    20548215.414 7
  84141507.376 7      -925.521 7        44.741                                  
  22321397.305 7 117299754.430 7     -2897.977 7        45.431    22321410.414 7
  91402428.262 7     -2258.471 7        44.741                                  
  22630481.152 7 118923989.176 7      1766.357 7        45.901    22630490.852 6
  92668076.424 6      1376.412 6        40.804                                  
  21085386.453 8 110804475.848 8      1470.830 8        50.103    21085396.941 7
  86341177.800 7      1145.904 7        44.741                                  
  22653617.539 7 119045564.331 7      3200.166 7        45.912    22653627.387 7
  92762812.986 7      2493.832 7        44.741                                  
  22720745.680 7 119398328.685 7       503.975 7        43.644    22720756.957 6
  93037687.772 6       392.584 6        39.145                                  
  20376804.844 8 107080869.645 8       507.686 8        52.335    20376816.320 7
  83439656.059 7       395.768 7        44.741                                  
 22  6 20  0  5 30.0000000  0  8G01G07G08G13G14G17G21G30             0.000000000
  23090948.805 7 121343753.444 7      2965.488 7        42.483    23090962.215 7
  94553642.874 7      2310.820 7        44.741                                  
  20555032.984 8 108017454.586 8     -1203.537 8        49.866    20555042.941 7
  84169464.634 7      -937.678 7        44.741                                  
  22337975.215 7 117386869.578 7     -2909.025 7        45.494    22337987.922 7
  91470310.133 7     -2266.682 7        44.741                                  
  22620452.406 7 118871287.304 7      1747.832 7        46.178    22620462.266 6
  92627010.030 6      1361.934 6        41.431                                  
  21077017.148 8 110760494.513 8      1461.875 8        50.180    21077027.852 7
  86306906.633 7      1138.965 7        44.741                                  
  22635377.465 7 118949713.520 7      3190.566 7        45.773    22635387.512 7
  92688124.058 7      2486.309 7        44.741                                  
  22717926.910 7 119383513.864 7       484.043 7        44.543    22717937.527 6
  93026143.789 6       376.934 6        39.493                                  
  20373951.445 8 107065873.017 8       492.246 8        52.913    20373962.590 7
  83427971.370 7       383.516 7        44.741                                  
 22  6 20  0  6  0.0000000  0  8G01G07G08G13G14G17G21G30             0.000000000
  23074046.484 7 121254933.721 7      2955.486 7        42.090    23074060.492 7
  94484432.713 7      2303.146 7        44.741                                  
  20561946.309 8 108053781.860 8     -1218.555 8        49.839    20561955.609 7
  84197770.576 7      -949.840 7        44.741                                  
  22354612.211 7 117474297.468 7     -2919.395 7        45.379    22354625.117 7
  91538435.693 7     -2274.996 7        44.741                                  
  22610524.816 7 118819121.986 7      1729.744 7        45.678    22610536.090 6
  92586361.758 6      1347.814 6        41.605                                  
  21068697.051 8 110716774.334 8      1452.439 8        49.806    21068708.109 7
  86272838.936 7      1131.896 7        44.741                                  
  22617189.605 7 118854134.973 7      3181.346 7        46.178    22617199.680 7
  92613647.287 7      2478.752 7        44.741                                  
  22715210.008 7 119369233.234 7       467.049 7        45.456    22715219.680 6
  93015016.047 6       364.008 6        40.271                                  
  20371184.746 8 107051333.642 8       476.814 8        52.718                  
         0.000 0         0.000 0         0.000                                  
 22  6 20  0  6 30.0000000  0  8G01G07G08G13G14G17G21G30             0.000000000
  23057202.609 7 121166419.331 7      2945.361 7        42.144    23057216.703 7
  94415460.470 7      2295.010 7        44.741                                  
  20568943.980 8 108090559.558 8     -1233.996 8        49.558    20568954.199 7
  84226429.478 7      -961.357 7        44.741                                  
  22371307.652 7 117562034.590 7     -2929.816 7        45.003    22371321.117 7
  91606802.227 7     -2283.252 7        44.741                                  
  22600700.457 7 118767494.749 7      1711.553 7        46.241    22600710.129 6
  92546132.772 6      1333.701 6        41.485                                  
  21060427.672 8 110673314.458 8      1443.896 8        50.433    21060437.375 7
  86238974.082 7      1125.186 7        44.741                                  
  22599054.043 7 118758830.326 7      3172.139 7        46.304    22599064.000 7
  92539383.927 7      2471.455 7        44.741                                  
  22712594.047 7 119355486.803 7       449.266 7        45.878    22712604.207 6
  93004304.594 6       350.049 6        40.716                                  
  20368504.824 8 107037251.742 8       461.551 8        53.102    20368516.199 7
  83405668.033 7       359.697 7        44.741                                  
 22  6 20  0  7  0.0000000  0  8G01G07G08G13G14G17G21G30             0.000000000
  23040417.621 7 121078214.140 7      2935.752 7        42.251    23040431.984 7
  94346729.138 7      2287.438 7        44.741                                  
  20576028.297 8 108127787.982 8     -1247.979 8        49.493    20576038.430 7
  84255437.618 7      -972.758 7        42.617                                  
  22388061.691 7 117650078.510 7     -2939.443 7        44.219    22388075.441 7
  91675407.808 7     -2290.727 7        44.741                                  
  22590979.199 7 118716407.507 7      1694.033 7        46.167    22590988.344 6
  92506324.527 6      1320.016 6        41.147                                  
  21052207.020 8 110630115.548 8      1436.084 8        49.993    21052217.309 7
  86205312.590 7      1118.824 7        44.741                                  
  22580969.922 7 118663801.643 7      3163.525 7        45.866    22580979.508 7
  92465335.642 7      2464.801 7        44.741                                  
  22710079.902 7 119342276.175 7       431.592 7        45.100    22710090.230 6
  92994010.656 6       336.090 6        40.892                                  
  20365912.836 8 107023629.064 8       446.455 8        53.085    20365923.727 7
  83395053.930 7       348.063 7        44.741                                  
 22  6 20  0  7 30.0000000  0  8G01G07G08G13G14G17G21G30             0.000000000
  23023692.281 7 120990321.489 7      2924.574 7        42.508    23023706.434 7
  94278241.345 7      2278.764 7        44.741                                  
  20583199.027 8 108165466.724 8     -1263.395 8        49.774    20583208.484 7
  84284797.644 7      -984.635 7        44.741                                  
  22404874.238 7 117738426.666 7     -2949.605 7        45.340    22404887.344 7
  91744250.460 7     -2298.463 7        44.741                                  
  22581360.379 7 118665861.912 7      1675.824 7        45.405    22581370.770 6
  92466938.362 6      1305.854 6        41.118                                  
  21044036.004 8 110587177.425 8      1427.230 8        49.650    21044046.379 7
  86171854.295 7      1111.889 7        44.741                                  
  22562939.871 7 118569050.424 7      3153.949 7        46.124    22562949.242 7
  92391503.536 7      2457.689 7        44.741                                  
  22707667.621 7 119329602.050 7       413.246 7        44.974    22707678.121 6
  92984134.754 6       321.908 6        40.910                                  
  20363408.258 8 107010466.507 8       431.117 8        52.936    20363419.094 7
  83384797.375 7       335.814 7        44.741                                  
 22  6 20  0  8  0.0000000  0  8G01G07G08G13G14G17G21G30             0.000000000
  23007027.875 7 120902745.070 7      2913.768 7        43.242    23007042.285 7
  94209999.949 7      2270.656 7        44.741                                  
  20590454.867 8 108203596.242 8     -1278.576 8        50.401    20590464.281 7
  84314508.915 7      -996.162 7        44.741                                  
  22421743.566 7 117827076.062 7     -2959.650 7        44.236    22421756.488 7
  91813327.845 7     -2306.475 7        44.741                                  
  22571845.563 7 118615859.781 7      1657.791 7        46.241    22571855.004 6
  92427975.665 6      1291.809 6        41.257                                  
  21035915.188 8 110544500.510 8      1418.143 8        49.857    21035924.945 7
  86138599.531 7      1105.205 7        44.741                                  
  22544962.883 7 118474579.138 7      3144.373 7        46.796    22544972.598 7
  92317889.550 7      2450.031 7        44.741                                  
  22705358.336 7 119317465.413 7       395.955 7        46.036    22705369.242 6
  92974677.702 6       308.506 6        41.130                                  
  20360991.656 8 106997765.515 8       415.818 8        53.315    20361002.375 7
  83374900.472 7       323.877 7        44.741                                  
 22  6 20  0  8 30.0000000  0  8G01G07G08G13G14G17G21G30             0.000000000
  22990423.008 7 120815488.479 7      2903.350 7        43.026    22990437.332 7
  94142007.821 7      2262.100 7        44.741                                  
  20597797.004 8 108242176.754 8     -1293.428 8        50.785    20597806.348 7
  84344574.622 7     -1007.783 7        44.741                                  
  22438670.145 7 117916024.617 7     -2969.482 7        44.065    22438683.449 7
  91882638.325 7     -2313.895 7        44.741                                  
  22562434.211 7 118566402.840 7      1639.326 7        45.843    22562444.055 6
  92389437.806 6      1277.412 6        41.814                                  
  21027843.605 8 110502085.036 8      1409.893 8        49.361    21027853.793 7
  86105548.504 7      1098.369 7        44.741                                  
  22527038.707 7 118380389.814 7      3135.010 7        46.002    22527049.652 7
  92244495.274 7      2442.920 7        44.741                                  
  22703151.094 7 119305867.122 7       377.314 7        45.208    22703161.223 6
  92965640.114 6       294.131 6        41.465                                  
  20358662.215 8 106985527.429 8       400.400 8        52.651                  
         0.000 0         0.000 0         0.000                                  
 22  6 20  0  9  0.0000000  0  8G01G07G08G13G14G17G21G30             0.000000000
  22973880.648 7 120728555.265 7      2892.518 7        42.959    22973894.125 7
  94074267.604 7      2253.971 7        44.741                                  
  20605223.543 8 108281208.113 8     -1308.615 8        50.024    20605233.086 7
  84374985.642 7     -1019.621 7        44.741                                  
  22455652.648 7 118005269.497 7     -2979.805 7        44.065    22455665.941 7
  91952179.729 7     -2321.750 7        44.741                                  
  22553126.719 7 118517492.928 7      1621.209 7        45.353    22553136.621 6
  92351326.169 6      1263.248 6        40.991                                  
  21019821.797 8 110459931.232 8      1400.623 8        48.985    21019831.813 7
  86072701.371 7      1091.568 7        44.741                                  
  22509169.598 7 118286483.716 7      3125.213 7        46.778    22509179.043 7
  92171321.729 7      2435.592 7        44.741                                  
  22701046.133 7 119294808.336 7       359.764 7        45.086    22701057.324 6
  92957022.950 6       280.318 6        41.957                                  
  20356421.605 8 106973753.451 8       384.842 8        52.821    20356433.152 7
  83356191.728 7       299.791 7        44.741                                  
 22  6 20  0  9 30.0000000  0  8G01G07G08G13G14G17G21G30             0.000000000
  22957398.547 6 120641948.799 6      2880.895 6        41.175    22957413.844 7
  94006782.046 7      2245.328 7        44.741                                  
  20612737.098 8 108320689.995 8     -1323.305 8        50.294    20612746.457 7
  84405750.724 7     -1031.410 7        44.741                                  
  22472691.117 7 118094807.454 7     -2989.631 7        43.701    22472704.637 7
  92021949.498 7     -2329.281 7        44.741                                  
  22543924.133 7 118469131.601 7      1602.906 7        45.690    22543933.680 7
  92313642.018 7      1248.941 7        42.019                                  
  21011849.801 8 110418038.996 8      1392.008 8        48.996    21011860.203 7
  86040058.069 7      1084.762 7        44.741                                  
  22491353.738 7 118192863.513 7      3115.875 7        46.488    22491364.195 7
  92098370.905 7      2427.984 7        44.741                                  
  22699044.508 7 119284289.391 7       341.578 7        45.248    22699055.754 6
  92948826.418 6       266.402 6        41.678                                  
  20354269.730 8 106962444.566 8       369.273 8        52.673                  
         0.000 0         0.000 0         0.000                                  
 22  6 20  0 10  0.0000000  0  8G01G07G08G13G14G17G21G30             0.000000000
  22940980.250 6 120555672.49316      2870.252 6        40.356    22940995.746 7
  93939553.77517      2236.559 7        44.741                                  
  20620335.922 8 108360622.28818     -1338.711 8        49.844    20620345.566 7
  84436867.74517     -1042.971 7        44.741                                  
  22489784.805 7 118184635.969 7     -2999.473 7        43.547    22489797.969 7
  92091945.661 7     -2337.346 7        44.741                                  
  22534826.133 7 118421320.508 7      1584.297 7        44.960    22534835.938 6
  92276386.583 6      1234.488 6        41.822                                  
  21003927.875 8 110376408.52618      1383.125 8        48.554    21003937.777 7
  86007618.73417      1077.926 7        44.741                                  
  22473594.098 7 118099530.827 7      3106.326 7        47.204    22473603.184 7
  92025644.167 7      2420.289 7        44.741                                  
  22697145.746 7 119274311.22817       323.711 7        45.127    22697156.492 6
  92941051.27816       252.281 6        41.652                                  
  20352206.270 8 106951601.98718       353.594 8        51.950    20352217.875 7
  83338929.82117       275.465 7        44.741                                  
 22  6 20  0 10 30.0000000  0  8G01G07G08G13G14G17G21G30             0.000000000
  22924625.547 6 120469730.109 6      2858.908 6        40.103    22924641.344 7
  93872585.701 7      2227.781 7        44.741                                  
  20628020.520 8 108401005.097 8     -1353.670 8        49.428    20628029.992 7
  84468333.838 7     -1054.797 7        44.741                                  
  22506933.504 7 118274752.530 7     -3009.217 7        43.366    22506946.852 7
  92162166.280 7     -2344.465 7        44.741                                  
  22525832.512 7 118374061.122 7      1565.959 7        44.303    22525842.887 6
  92239561.092 6      1220.320 6        41.865                                  
  20996055.949 8 110335040.173 8      1374.357 8        48.548    20996066.094 7
  85975383.639 7      1071.199 7        44.741                                  
  22455887.320 7 118006487.668 7      3096.506 7        45.738    22455898.207 7
  91953143.000 7      2412.957 7        44.741                                  
  22695349.934 7 119264874.611 7       305.588 7        44.465    22695360.363 6
  92933698.093 6       238.348 6        41.672                                  
  20350232.023 8 106941227.006 8       338.186 8        52.179                  
         0.000 0         0.000 0         0.000                                  
 22  6 20  0 11  0.0000000  0  8G01G07G08G13G14G17G21G30             0.000000000
  22908336.598 6 120384125.256 6      2848.168 6        41.309    22908351.738 7
  93805880.615 7      2219.391 7        44.741                                  
  20635791.047 8 108441838.867 8     -1368.201 8        49.997    20635800.477 7
  84500152.336 7     -1066.137 7        44.741                                  
  22524136.648 7 118365154.998 7     -3017.381 7        43.527    22524150.355 7
  92232609.709 7     -2351.508 7        44.741                                  
  22516944.277 7 118327355.620 7      1548.480 7        44.202    22516954.980 6
  92203167.199 6      1206.695 6        41.267                                  
  20988233.746 8 110293934.191 8      1366.234 8        49.057    20988243.594 7
  85943353.004 7      1064.703 7        44.741                                  
  22438237.422 7 117913735.468 7      3087.094 7        45.889    22438246.910 7
  91880868.531 7      2405.816 7        44.741                                  
  22693657.363 7 119255980.708 7       288.148 7        44.605    22693667.492 6
  92926767.831 6       224.508 6        41.943                                  
  20348346.848 8 106931320.916 8       322.855 8        52.020    20348358.469 7
  83323126.354 7       251.617 7        44.741                                  
 22  6 20  0 11 30.0000000  0  8G01G07G08G13G14G17G21G30             0.000000000
  22892110.598 6 120298860.990 6      2836.357 6        40.634    22892126.250 7
  93739440.926 7      2210.152 7        44.741                                  
  20643646.988 8 108483122.863 8     -1383.975 8        49.866    20643656.590 7
  84532322.667 7     -1078.617 7        42.708                                  
  22541394.586 7 118455840.201 7     -3028.035 7        45.058    22541407.105 7
  92303273.421 7     -2359.535 7        44.741                                  
  22508162.918 7 118281205.549 7      1528.857 7        45.519    22508172.777 6
  92167206.123 6      1191.285 6        41.323                                  
  20980461.332 8 110253090.403 8      1356.689 8        48.905    20980471.449 7
  85911526.675 7      1057.281 7        44.741                                  
  22420641.891 7 117821276.497 7      3076.670 7        44.742    22420653.207 7
  91808822.681 7      2397.516 7        44.741                                  
  22692068.805 7 119247629.842 7       269.053 7        45.519    22692079.207 7
  92920260.696 7       209.801 7        42.043                                  
  20346551.098 8 106921884.476 8       306.357 8        51.981    20346562.773 7
  83315772.279 7       238.590 7        44.741                                  
 22  6 20  0 12  0.0000000  0  8G01G07G08G13G14G17G21G30             0.000000000
  22875951.395 6 120213941.072 6      2824.984 6        40.517    22875967.023 7
  93673269.575 7      2201.055 7        44.741                                  
  20651588.613 8 108524857.098 8     -1398.881 8        49.769    20651598.758 7
  84564844.810 7     -1089.900 7        44.741                                  
  22558704.156 7 118546804.987 7     -3037.240 7        44.048    22558717.176 7
  92374154.984 7     -2366.209 7        44.741                                  
  22499486.996 7 118235612.134 7      1510.375 7        45.750    22499495.809 6
  92131678.778 6      1176.877 6        41.394                                  
  20972738.828 8 110212509.158 8      1348.227 8        48.272    20972749.402 7
  85879904.911 7      1050.686 7        44.741                                  
  22403104.855 7 117729112.467 7      3067.191 7        46.438    22403115.230 7
  91737006.522 7      2389.883 7        44.741                                  
  22690583.109 7 119239823.044 7       251.078 7        45.340    22690593.527 7
  92914177.511 7       195.588 7        42.360                                  
  20344845.180 8 106912919.152 8       291.039 8        52.275    20344856.813 7
  83308788.297 7       226.779 7        44.741                                  
 22  6 20  0 12 30.0000000  0  8G01G07G08G13G14G17G21G30             0.000000000
  22859857.543 6 120129368.826 6      2813.375 6        40.517    22859873.367 7
  93607369.146 7      2192.156 7        44.741                                  
  20659616.195 8 108567041.292 8     -1413.479 8        49.746    20659626.211 7
  84597716.570 7     -1101.318 7        44.741                                  
  22576067.055 7 118638047.058 7     -3045.783 7        44.528    22576079.820 6
  92445252.635 6     -2373.525 6        41.536                                  
  22490916.484 7 118190577.051 7      1491.912 7        45.327    22490926.602 7
  92096586.480 7      1162.605 7        42.219                                  
  20965066.652 8 110172190.450 8      1339.803 8        48.609    20965076.883 7
  85848487.745 7      1043.914 7        44.741                                  
  22385622.867 7 117637244.975 7      3057.047 7        45.855    22385634.574 7
  91665421.445 7      2382.742 7        44.741                                  
  22689200.965 7 119232560.826 7       233.104 7        45.379    22689211.512 7
  92908518.678 7       181.434 7        42.066                                  
  20343228.508 8 106904425.671 8       275.389 8        51.953    20343240.430 7
  83302168.984 7       214.910 7        44.741                                  
 22  6 20  0 13  0.0000000  0  8G01G07G08G13G14G17G21G30             0.000000000
  22843831.063 6 120045147.992 6      2801.346 6        40.858    22843846.656 7
  93541742.523 7      2182.684 7        44.741                                  
  20667729.180 8 108609675.827 8     -1428.828 8        49.335    20667739.207 7
  84630936.261 7     -1113.547 7        44.741                                  
  22593482.156 7 118729564.082 7     -3055.293 7        43.959    22593494.922 6
  92516564.561 6     -2381.006 6        40.023                                  
  22482453.414 7 118146102.214 7      1472.889 7        45.100    22482463.199 7
  92061930.784 7      1147.684 7        42.082                                  
  20957444.387 8 110132134.753 8      1330.527 8        48.357    20957454.418 7
  85817275.513 7      1036.746 7        44.741                                  
  22368197.520 7 117545676.271 7      3046.932 7        45.456    22368207.895 7
  91594069.277 7      2374.266 7        44.741                                  
  22687923.109 7 119225844.158 7       214.688 7        45.481    22687932.883 7
  92903284.942 7       167.332 7        42.402                                  
  20341702.961 8 106896405.527 8       259.160 8        52.070                  
         0.000 0         0.000 0         0.000                                  
 22  6 20  0 13 30.0000000  0  8G01G07G08G13G14G17G21G30             0.000000000
  22827872.527 6 119961281.725 6      2789.711 6        41.374    22827887.836 7
  93476392.214 7      2173.922 7        44.741                                  
  20675927.852 8 108652760.266 8     -1443.395 8        49.262    20675937.496 7
  84664507.518 7     -1124.848 7        44.741                                  
  22610948.895 7 118821353.163 7     -3064.076 7        43.507    22610962.258 6
  92588088.415 6     -2387.250 6        39.863                                  
  22474097.496 7 118102188.622 7      1454.926 7        45.556    22474107.184 7
  92027712.383 7      1133.648 7        42.892                                  
  20949871.754 7 110092341.893 7      1322.270 7        47.870    20949882.473 7
  85786268.086 7      1030.309 7        44.741                                  
  22350829.242 7 117454408.007 7      3036.762 7        44.368    22350839.961 7
  91522951.089 7      2366.891 7        44.741                                  
  22686748.691 7 119219673.224 7       196.938 7        45.058    22686759.223 7
  92898476.460 7       153.355 7        42.627                                  
  20340267.113 8 106888859.501 8       243.988 8        51.598    20340278.734 7
  83290040.450 7       190.035 7        44.741                                  
 22  6 20  0 14  0.0000000  0  8G01G07G08G13G14G17G21G30             0.000000000
  22811980.727 7 119877774.001 7      2777.932 7        42.034    22811996.469 7
  93411321.310 7      2164.301 7        44.741                                  
  20684212.289 8 108696294.827 8     -1458.631 8        49.679    20684221.805 7
  84698430.503 7     -1136.500 7        44.741                                  
  22628467.055 7 118913411.818 7     -3072.889 7        44.621    22628480.547 6
  92659822.386 6     -2394.625 6        40.030                                  
  22465848.094 7 118058838.582 7      1435.568 7        45.785    22465857.480 7
  91993933.134 7      1118.559 7        42.612                                  
  20942349.402 8 110052812.628 8      1313.615 8        48.396    20942360.035 7
  85755466.065 7      1023.422 7        44.741                                  
  22333520.117 7 117363442.532 7      3027.268 7        45.678    22333531.094 7
  91452068.932 7      2358.695 7        44.741                                  
  22685677.922 7 119214049.351 7       178.342 7        45.519    22685688.184 7
  92894094.253 7       139.125 7        42.260                                  
  20338921.324 8 106881789.228 8       227.834 8        51.803    20338933.242 7
  83284531.130 7       177.758 7        44.741                                  
 22  6 20  0 14 30.0000000  0  8G01G07G08G13G14G17G21G30             0.000000000
  22796159.707 7 119794627.934 7      2765.602 7        42.632    22796174.789 7
  93346532.188 7      2154.547 7        44.741                                  
  20692582.246 8 108740279.011 8     -1473.520 8        49.503    20692591.633 7
  84732702.871 7     -1148.461 7        44.741                                  
  22646036.105 7 119005737.257 7     -3081.977 7        44.319    22646049.156 6
  92731764.203 6     -2401.488 6        39.414                                  
  22457706.102 7 118016052.865 7      1416.930 7        46.210    22457716.848 7
  91960593.634 7      1104.059 7        43.206                                  
  20934877.652 8 110013546.691 8      1304.215 8        48.718    20934887.926 7
  85724869.195 7      1016.461 7        44.741                                  
  22316267.176 7 117272781.051 7      3016.813 7        45.045    22316278.324 7
  91381423.599 7      2351.148 7        44.741                                  
  22684712.422 7 119208972.576 7       160.094 7        45.924    22684721.906 7
  92890138.357 7       124.840 7        42.277                                  
  20337666.918 8 106875195.409 8       211.910 8        52.410    20337678.352 7
  83279393.077 7       164.879 7        43.970                                  
 22  6 20  0 15  0.0000000  0  8G01G07G08G13G14G17G21G30             0.000000000
  22780406.555 7 119711846.990 7      2753.264 7        43.304    22780421.883 7
  93282027.593 7      2145.246 7        44.741                                  
  20701038.246 8 108784712.694 8     -1488.885 8        50.572    20701047.133 7
  84767326.488 7     -1160.184 7        44.741                                  
  22663655.137 7 119098326.899 7     -3090.877 7        44.168    22663668.590 6
  92803911.938 6     -2408.465 6        39.636                                  
  22449672.043 7 117973833.205 7      1397.424 7        46.102    22449681.789 7
  91927695.192 7      1088.918 7        42.917                                  
  20927455.598 8 109974544.249 8      1295.080 8        48.900    20927465.645 7
  85694477.686 7      1009.387 7        44.741                                  
  22299072.660 7 117182425.492 7      3006.350 7        44.202    22299083.078 7
  91311016.704 7      2342.629 7        44.741                                  
  22683850.844 7 119204443.764 7       141.682 7        46.113    22683860.590 7
  92886609.436 7       110.500 7        42.446                                  
  20336503.133 8 106869079.063 8       195.568 8        52.428    20336514.551 7
  83274628.065 7       152.316 7        44.741                                  
 22  6 20  0 15 30.0000000  0  8G01G07G08G13G14G17G21G30             0.000000000
  22764724.375 7 119629434.471 7      2740.873 7        43.048    22764738.527 7
  93217810.049 7      2135.580 7        44.741                                  
  20709578.523 8 108829595.260 8     -1503.697 8        49.935    20709588.410 7
  84802302.901 7     -1171.764 7        44.741                                  
  22681324.535 7 119191178.058 7     -3099.615 7        44.465    22681337.785 6
  92876263.411 6     -2415.318 6        39.876                                  
  22441745.730 7 117932180.854 7      1379.057 7        45.506    22441755.590 7
  91895238.813 7      1074.545 7        42.620                                  
  20920084.055 8 109935805.370 8      1286.693 8        48.996    20920093.512 7
  85664291.534 7      1002.670 7        44.741                                  
  22281937.238 7 117092377.801 7      2996.674 7        44.352    22281948.730 7
  91240849.667 7      2334.896 7        44.741                                  
  22683093.152 7 119200463.053 7       123.607 7        45.678    22683103.039 7
  92883507.605 7        96.498 7        42.369                                  
  20335430.352 8 106863441.145 8       179.779 8        52.796    20335441.840 7
  83270234.863 7       140.150 7        44.741                                  
 22  6 20  0 16  0.0000000  0  8G01G07G08G13G14G17G21G30             0.000000000
  22749112.586 7 119547394.042 7      2728.854 7        43.325    22749126.223 7
  93153882.449 7      2126.350 7        44.741                                  
  20718204.930 8 108874926.985 8     -1518.059 8        50.090    20718214.402 7
  84837625.286 7     -1182.986 7        44.741                                  
  22699043.148 7 119284287.985 7     -3107.395 7        45.275    22699055.227 6
  92948816.541 6     -2421.266 6        39.738                                  
  22433927.445 7 117891097.408 7      1360.340 7        45.878    22433938.234 7
  91863225.735 7      1060.002 7        43.065                                  
  20912762.727 8 109897330.388 8      1278.367 8        48.990    20912772.414 7
  85634311.015 7       996.174 7        44.741                                  
  22264861.047 7 117002639.737 7      2986.471 7        44.368    22264872.152 7
  91170923.902 7      2327.189 7        44.741                                  
  22682439.477 7 119197031.317 7       105.770 7        45.654    22682449.922 7
  92880833.578 7        82.580 7        42.097                                  
  20334448.422 8 106858282.879 8       164.188 8        52.746                  
         0.000 0         0.000 0         0.000                                  
 22  6 20  0 16 30.0000000  0  8G01G07G08G13G14G17G21G30             0.000000000
  22733572.176 7 119465729.010 7      2716.221 7        43.468    22733586.082 7
  93090247.366 7      2116.693 7        44.741                                  
  20726917.027 8 108920707.218 8     -1533.156 8        50.385                  
         0.000 0         0.000 0         0.000                                  
  22716809.672 7 119377653.906 7     -3115.773 7        44.831    22716823.238 6
  93021569.164 6     -2428.170 6        39.840                                  
  22426218.168 7 117850584.359 7      1341.182 7        45.222    22426228.398 7
  91831657.127 7      1045.209 7        43.020                                  
  20905491.453 8 109859119.396 8      1269.658 8        49.433    20905501.055 7
  85604536.194 7       989.447 7        44.741                                  
  22247842.926 7 116913212.884 7      2976.025 7        43.586    22247854.301 7
  91101240.647 7      2319.291 7        44.741                                  
  22681891.809 7 119194148.868 7        87.139 7        45.832    22681901.754 7
  92878587.517 7        67.826 7        42.146                                  
  20333558.480 8 106853605.145 8       148.506 8        52.359    20333570.383 7
  83262572.368 7       115.756 7        44.741                                  
 22  6 20  0 17  0.0000000  0  8G01G07G08G13G14G17G21G30             0.000000000
  22718102.984 7 119384443.076 7      2703.383 7        43.092    22718117.797 7
  93026907.729 7      2106.500 7        44.741                                  
  20735714.082 8 108966936.220 8     -1548.590 8        50.055    20735722.867 7
  84909319.715 7     -1206.781 7        44.741                                  
  22734625.238 7 119471273.671 7     -3125.014 7        44.667    22734638.117 6
  93094519.552 6     -2435.080 6        40.226                                  
  22418618.176 7 117810643.320 7      1321.410 7        46.178    22418627.918 7
  91800534.232 7      1029.703 7        43.359                                  
  20898270.082 8 109821172.865 8      1260.316 8        49.236    20898280.371 7
  85574967.458 7       982.047 7        44.741                                  
  22230885.578 7 116824099.325 7      2965.316 7        43.346    22230896.813 7
  91031801.513 7      2310.680 7        44.741                                  
  22681448.129 7 119191816.450 7        68.402 7        46.263    22681458.074 7
  92876770.089 7        53.258 7        42.444                                  
  20332760.219 8 106849409.331 8       131.566 8        52.568    20332771.879 7
  83259301.902 7       102.555 7        44.741                                  
 22  6 20  0 17 30.0000000  0  8G01G07G08G13G14G17G21G30             0.000000000
  22702708.453 7 119303539.218 7      2690.742 7        43.923    22702723.379 7
  92963865.773 7      2096.326 7        44.741                                  
  20744596.094 8 109013613.207 8     -1563.145 8        49.387    20744605.539 7
  84945692.349 7     -1218.051 7        44.741                                  
  22752487.699 7 119565143.869 7     -3133.066 7        44.134    22752501.578 6
  93167665.095 6     -2441.215 6        40.632                                  
  22411126.465 7 117771275.252 7      1302.773 7        46.113    22411136.168 7
  91769857.829 7      1015.193 7        42.980                                  
  20891099.613 8 109783490.411 8      1251.641 8        49.533    20891109.801 7
  85545604.504 7       975.330 7        44.741                                  
  22213986.863 7 116735300.446 7      2954.570 7        43.304    22213999.141 7
  90962607.621 7      2302.557 7        44.741                                  
  22681109.012 7 119190034.253 7        50.449 7        45.702    22681119.102 7
  92875381.384 7        39.354 7        42.503                                  
  20332053.070 8 106845695.852 8       115.938 8        52.001    20332065.016 7
  83256407.270 7        90.252 7        44.741                                  
 22  6 20  0 18  0.0000000  0  8G01G07G08G13G14G17G21G30             0.000000000
  22687386.758 7 119223020.953 7      2677.467 7        44.012    22687400.895 7
  92901124.272 7      2086.072 7        44.741                                  
  20753564.109 8 109060738.092 8     -1578.510 8        49.669    20753573.625 7
  84982414.989 7     -1230.080 7        44.741                                  
  22770398.242 7 119659262.453 7     -3141.537 7        43.701    22770411.965 6
  93241004.190 6     -2447.775 6        40.247                                  
  22403743.938 7 117732481.569 7      1283.170 7        45.617    22403754.055 7
  91739628.998 7       999.881 7        42.601                                  
  20883979.375 8 109746072.413 8      1242.662 8        48.962    20883989.234 7
  85516447.611 7       968.416 7        44.741                                  
  22197151.113 7 116646818.240 7      2944.146 7        44.667    22197160.473 7
  90893660.466 7      2294.098 7        44.741                                  
  22680874.355 7 119188802.913 7        31.607 7        45.114    22680884.129 7
  92874421.904 7        24.666 7        42.181                                  
  20331438.504 8 106842465.866 8        99.439 8        51.899    20331450.422 7
  83253891.372 7        77.518 7        44.741                                  
 22  6 20  0 18 30.0000000  0  8G01G07G08G13G14G17G21G30             0.000000000
  22672138.980 7 119142891.568 7      2664.672 7        44.742    22672151.871 7
  92838685.785 7      2076.623 7        44.741                                  
  20762616.773 8 109108310.181 8     -1592.885 8        50.125    20762626.402 7
  85019484.106 7     -1241.266 7        44.741                                  
  22788353.945 7 119753626.552 7     -3149.525 7        43.026    22788368.383 6
  93314534.601 6     -2453.883 6        40.294                                  
  22396471.246 7 117694263.090 7      1264.516 7        46.220    22396480.191 7
  91709848.365 7       985.434 7        42.241                                  
  20876908.727 8 109708918.813 8      1234.418 8        49.236    20876918.945 7
  85487496.765 7       961.781 7        44.741                                  
  22180372.824 7 116558654.102 7      2933.734 7        43.026    22180383.973 7
  90824961.119 7      2286.096 7        44.741                                  
  22680744.383 7 119188122.486 7        13.656 7        45.058    22680754.859 6
  92873891.725 6        10.609 6        41.629                                  
  20330916.172 8 106839720.135 8        83.754 8        52.222    20330928.137 7
  83251751.822 7        65.063 7        44.741                                  
 22  6 20  0 19  0.0000000  0  8G01G07G08G13G14G17G21G30             0.000000000
  22656964.844 7 119063154.878 7      2651.057 7        44.253    22656978.781 7
  92776553.306 7      2065.559 7        44.741                                  
  20771754.246 8 109156329.720 8     -1608.318 8        49.669    20771764.105 7
  85056900.878 7     -1253.055 7        44.741                                  
  22806357.535 7 119848233.983 7     -3157.674 7        43.644    22806372.242 6
  93388254.618 6     -2460.418 6        40.327                                  
  22389308.258 7 117656622.095 7      1245.061 7        45.666    22389318.230 7
  91680517.707 7       970.148 7        42.357                                  
  20869889.117 8 109672030.320 8      1224.943 8        49.289    20869899.648 7
  85458752.467 7       954.621 7        44.741                                  
  22163657.020 7 116470810.106 7      2922.404 7        44.757    22163668.137 7
  90756511.276 7      2277.590 7        44.741                                  
  22680719.680 7 119187993.975 7        -4.959 7        44.528    22680730.238 6
  92873791.584 6        -3.836 6        41.680                                  
  20330486.375 8 106837460.115 8        67.268 8        52.441                  
         0.000 0         0.000 0         0.000                                  
 22  6 20  0 19 30.0000000  0  8G01G07G08G13G14G17G21G30             0.000000000
  22641866.629 7 118983814.147 7      2638.283 7        44.253    22641881.523 7
  92714729.377 7      2055.762 7        44.741                                  
  20780977.219 8 109204796.238 8     -1622.674 8        49.746    20780987.063 7
  85094667.957 7     -1264.766 7        44.741                                  
  22824406.848 7 119943081.944 7     -3165.525 7        43.905    22824421.844 6
  93462162.041 6     -2466.346 6        39.863                                  
  22382255.238 7 117619559.427 7      1226.057 7        45.275    22382265.973 7
  91651637.698 7       955.371 7        42.281                                  
  20862919.949 8 109635406.932 8      1216.564 8        49.528    20862930.527 7
  85430214.763 7       947.949 7        44.741                                  
  22147002.391 7 116383287.901 7      2912.131 7        44.697    22147013.223 7
  90688312.157 7      2269.141 7        44.741                                  
  22680800.793 7 119188417.628 7       -23.045 7        45.314    22680810.969 6
  92874121.692 6       -17.988 6        41.853                                  
  20330148.660 8 106835686.604 8        51.135 8        52.341    20330160.449 7
  83248607.748 7        39.844 7        44.741                                  
 22  6 20  0 20  0.0000000  0  8G01G07G08G13G14G17G21G30             0.000000000
  22626844.492 7 118904873.213 7      2624.934 7        43.850    22626859.102 7
  92653216.961 7      2045.293 7        44.741                                  
  20790285.430 8 109253710.015 8     -1637.527 8        49.315                  
         0.000 0         0.000 0         0.000                                  
  22842501.617 7 120038168.475 7     -3173.133 7        43.026    22842516.215 6
  93536255.369 6     -2472.771 6        39.938                                  
  22375313.648 7 117583076.930 7      1206.945 7        45.761    22375322.734 7
  91623209.756 7       940.508 7        42.798                                  
  20856001.824 8 109599049.239 8      1207.805 8        49.473    20856011.770 7
  85401884.086 7       941.191 7        44.741                                  
  22130408.676 7 116296089.102 7      2901.730 7        44.512    22130418.676 7
  90620365.075 7      2261.035 7        44.741                                  
  22680986.898 7 119189394.206 7       -41.258 7        45.556    22680997.473 7
  92874882.672 7       -32.205 7        42.325                                  
  20329903.770 8 106834400.888 8        35.148 8        51.806    20329915.988 7
  83247607.873 7        27.443 7        44.741                                  
 22  6 20  0 20 30.0000000  0  8G01G07G08G13G14G17G21G30             0.000000000
  22611898.918 7 118826334.716 7      2611.258 7        43.869    22611913.840 7
  92592018.176 7      2034.512 7        44.741                                  
  20799678.504 8 109303069.983 8     -1652.844 8        49.764    20799688.105 7
  85171245.769 7     -1287.559 7        44.741                                  
  22860640.898 7 120133489.813 7     -3181.379 7        43.758    22860654.895 6
  93610531.646 6     -2479.063 6        39.341                                  
  22368481.672 7 117547174.887 7      1186.785 7        46.047    22368491.344 7
  91595234.123 7       924.746 7        42.483                                  
  20849133.504 8 109562956.684 8      1198.641 8        49.533    20849143.938 7
  85373760.003 7       933.945 7        44.741                                  
  22113877.930 7 116209216.094 7      2890.203 7        46.167    22113888.703 7
  90552671.821 7      2252.363 7        44.741                                  
  22681277.750 7 119190923.158 7       -60.012 7        45.275    22681287.926 6
  92876074.063 6       -46.797 6        41.761                                  
  20329751.898 8 106833603.283 8        18.406 8        52.090                  
         0.000 0         0.000 0         0.000                                  
 22  6 20  0 21  0.0000000  0  8G01G07G08G13G14G17G21G30             0.000000000
  22597030.703 7 118748202.232 7      2597.449 7        44.202    22597045.113 7
  92531135.748 7      2023.865 7        44.741                                  
  20809156.094 8 109352875.799 8     -1667.783 8        50.002    20809165.840 7
  85210056.443 7     -1299.336 7        44.741                                  
  22878824.488 7 120229043.813 7     -3188.857 7        44.481    22878837.781 6
  93684989.238 6     -2484.805 6        39.784                                  
  22361760.969 7 117511854.976 7      1167.039 7        47.110    22361770.270 7
  91567712.115 7       909.354 7        42.786                                  
  20842315.645 8 109527129.673 8      1190.066 8        49.962    20842325.918 7
  85345842.838 7       927.166 7        44.741                                  
  22097408.805 7 116122670.182 7      2879.305 7        46.778    22097418.449 7
  90485233.471 7      2243.748 7        44.741                                  
  22681673.582 7 119193004.873 7       -78.975 7        45.469    22681684.172 7
  92877696.169 7       -61.623 7        42.015                                  
  20329693.699 8 106833294.830 8         1.924 8        52.551    20329705.402 7
  83246744.965 7         1.678 7        44.741                                  
 22  6 20  0 21 30.0000000  0  8G01G07G08G13G14G17G21G30             0.000000000
  22582240.695 7 118670478.999 7      2583.879 7        44.030    22582255.230 7
  92470572.196 7      2013.520 7        44.741                                  
  20818718.324 8 109403127.007 8     -1682.510 8        48.597    20818728.313 7
  85249213.183 7     -1310.816 7        44.741                                  
  22897051.793 7 120324827.347 7     -3196.553 7        44.303    22897064.586 6
  93759625.683 6     -2491.051 6        39.619                                  
  22355150.238 7 117477118.318 7      1147.590 7        45.878    22355159.137 7
  91540644.592 7       894.340 7        42.129                                  
  20835548.367 8 109491568.264 8      1180.754 8        49.177    20835558.813 7
  85318132.629 7       920.336 7        44.741                                  
  22081001.855 7 116036452.500 7      2867.727 7        45.556    22081012.285 7
  90418050.853 7      2235.023 7        44.741                                  
  22682175.520 7 119195639.684 7       -97.449 7        45.100    22682185.363 6
  92879749.263 6       -75.914 6        41.693                                  
  20329728.012 8 106833476.247 8       -14.246 8        52.249    20329740.160 7
  83246888.318 7       -11.051 7        44.741                                  
 22  6 20  0 22  0.0000000  0  8G01G07G08G13G14G17G21G30             0.000000000
  22567529.582 7 118593168.631 7      2570.330 7        45.366    22567543.750 7
  92410330.381 7      2002.799 7        44.741                                  
  20828365.324 8 109453823.370 8     -1697.090 8        49.304    20828375.969 7
  85288718.784 7     -1322.396 7        44.741                                  
  22915322.082 7 120420838.495 7     -3203.691 7        44.590    22915334.863 6
  93834439.482 6     -2496.283 6        39.009                                  
  22348651.742 7 117442966.176 7      1128.885 7        46.557    22348660.758 7
  91514032.523 7       879.518 7        42.181                                  
  20828831.945 8 109456272.888 8      1172.186 8        50.129    20828842.293 7
  85290629.736 7       913.521 7        44.741                                  
  22064658.352 7 115950565.271 7      2857.537 7        46.252    22064668.781 7
  90351125.756 7      2226.529 7        44.741                                  
  22682781.969 7 119198828.420 7      -115.393 7        45.288    22682792.359 6
  92882233.986 6       -89.838 6        41.501                                  
  20329856.105 8 106834148.726 8       -30.432 8        52.739    20329868.082 7
  83247411.314 7       -23.842 7        44.741                                  
 22  6 20  0 22 30.0000000  0  8G01G07G08G13G14G17G21G30             0.000000000
  22552896.988 7 118516274.46817      2555.891 7        44.012    22552911.996 7
  92350412.87817      1991.420 7        44.741                                  
  20838097.418 8 109504964.68918     -1712.369 8        48.652    20838107.977 7
  85328569.11717     -1334.398 7        44.741                                  
  22933635.113 7 120517074.826 7     -3212.311 7        43.777    22933648.020 6
  93909428.754 6     -2502.738 6        38.822                                  
  22342263.531 7 117409399.549 7      1108.645 7        45.690    22342272.934 6
  91487876.691 6       863.842 6        41.589                                  
  20822165.992 8 109421243.78718      1162.746 8        49.674    20822176.609 7
  85263334.33417       906.166 7        44.741                                  
  22048378.051 7 115865010.158 7      2846.047 7        46.478    22048387.250 7
  90284459.453 7      2217.689 7        44.741                                  
  22683493.551 7 119202570.88917      -134.441 7        44.202    22683504.695 6
  92885150.18616      -104.752 6        41.054                                  
  20330077.738 8 106835313.07918       -47.273 8        52.348    20330089.516 7
  83248318.57817       -36.666 7        44.741                                  
 22  6 20  0 23  0.0000000  0  8G01G07G08G13G14G17G21G30             0.000000000
  22538343.168 7 118439799.771 7      2542.826 7        42.704    22538358.535 7
  92290822.260 7      1981.242 7        44.741                                  
  20847913.727 7 109556550.266 7     -1726.510 7        47.812    20847924.473 7
  85368766.611 7     -1345.438 7        44.741                                  
  22951991.004 7 120613533.762 7     -3218.873 7        44.605    22952004.070 6
  93984591.497 6     -2508.250 6        39.577                                  
  22335987.723 7 117376419.896 7      1090.170 7        44.831    22335998.168 7
  91462178.266 7       849.602 7        42.052                                  
  20815551.484 8 109386481.046 8      1154.467 8        49.468    20815561.441 7
  85236246.467 7       899.777 7        44.741                                  
  22032160.070 7 115779788.557 7      2835.561 7        45.617    22032169.773 7
  90218053.028 7      2209.230 7        44.741                                  
  22684311.094 7 119206867.313 7      -152.174 7        43.959    22684322.152 6
  92888498.069 6      -118.563 6        39.989                                  
  20330393.027 8 106836970.159 8       -63.209 8        51.650    20330405.020 7
  83249609.781 7       -49.188 7        44.741                                  
 22  6 20  0 23 30.0000000  0  8G01G07G08G13G14G17G21G30             0.000000000
  22523871.879 7 118363747.636 7      2528.012 7        44.168    22523885.742 7
  92231560.899 7      1969.961 7        44.741                                  
  20857814.711 8 109608579.495 8     -1741.635 8        48.622    20857825.344 7
  85409308.812 7     -1357.090 7        44.741                                  
  22970388.074 7 120710212.369 7     -3226.186 7        44.651    22970400.953 6
  94059925.415 6     -2513.984 6        38.908                                  
  22329823.063 7 117344027.994 7      1069.713 7        45.235    22329834.340 6
  91436937.816 6       833.594 6        41.789                                  
  20808986.883 8 109351984.442 8      1145.318 8        50.037    20808997.500 7
  85209366.004 7       892.500 7        44.741                                  
  22016006.879 7 115694902.038 7      2823.910 7        46.897    22016017.570 7
  90151907.694 7      2200.430 7        44.741                                  
  22685234.063 7 119211717.673 7      -170.873 7        45.045    22685244.965 6
  92892277.566 6      -133.145 6        40.536                                  
  20330802.012 8 106839120.509 8       -79.818 8        52.341    20330814.133 7
  83251284.371 7       -62.285 7        44.741                                  
 22  6 20  0 24  0.0000000  0  8G01G07G08G13G14G17G21G30             0.000000000
  22509480.645 7 118288121.472 7      2514.100 7        43.977    22509494.598 7
  92172631.448 7      1958.859 7        44.741                                  
  20867800.188 8 109661051.949 8     -1756.076 8        48.144    20867810.336 7
  85450196.376 7     -1368.445 7        44.741                                  
  22988827.137 7 120807108.082 7     -3232.951 7        44.682    22988839.813 6
  94135428.492 6     -2519.303 6        39.095                                  
  22323772.227 7 117312225.048 7      1050.779 7        44.989    22323781.715 6
  91412156.270 6       818.840 6        41.655                                  
  20802472.715 8 109317754.396 8      1136.814 8        49.346    20802482.934 7
  85182693.243 7       885.988 7        44.741                                  
  21999918.004 7 115610352.628 7      2813.045 7        46.740    21999926.961 7
  90086025.042 7      2192.023 7        44.741                                  
  22686262.699 7 119217122.389 7      -189.143 7        44.772    22686273.219 6
  92896489.023 6      -147.488 6        40.804                                  
  20331305.359 8 106841765.005 8       -95.939 8        51.803    20331317.695 7
  83253346.981 7       -74.832 7        44.741                                  
 22  6 20  0 24 30.0000000  0  9G01G07G08G13G14G15G17G21G30          0.000000000
  22495170.125 7 118212924.830 7      2499.311 7        42.775    22495185.664 7
  92114036.723 7      1947.002 7        44.741                                  
  20877869.816 8 109713967.548 8     -1771.686 8        48.485    20877880.074 7
  85491429.227 7     -1380.225 7        44.741                                  
  23007306.848 7 120904218.689 7     -3240.807 7        44.682    23007319.152 6
  94211099.026 6     -2525.420 6        38.618                                  
  22317832.156 7 117281012.210 7      1029.975 7        44.742    22317842.805 6
  91387834.579 6       802.607 6        41.360                                  
  20796009.930 8 109283791.480 8      1127.201 8        49.848    20796020.719 7
  85156228.619 7       878.486 7        44.741                                  
  24571915.133 6 129126286.195 6      1859.408 6        36.824    24571928.523 5
 100617936.829 5      1448.916 5        30.292                                  
  21983892.242 7 115526141.879 7      2800.736 7        46.587    21983903.191 7
  90020406.287 7      2182.705 7        44.741                                  
  22687396.379 7 119223081.796 7      -207.662 7        43.739    22687407.613 6
  92901132.716 6      -161.787 6        39.774                                  
  20331903.301 8 106844904.832 8      -113.170 8        52.402    20331915.320 7
  83255793.582 7       -88.193 7        44.741                                  
 22  6 20  0 25  0.0000000  0  9G01G07G08G13G14G15G17G21G30          0.000000000
  22480944.172 7 118138160.816 7      2485.260 7        43.869    22480958.051 7
  92055779.063 7      1936.531 7        44.741                                  
  20888023.145 7 109767325.365 7     -1785.521 7        47.730    20888034.008 7
  85533006.691 7     -1391.301 7        44.741                                  
  23025826.906 7 121001541.496 7     -3247.203 7        45.443    23025839.152 6
  94286934.923 6     -2530.072 6        38.166                                  
  22312005.840 7 117250390.400 7      1011.373 7        45.556    22312014.914 6
  91363973.416 6       788.016 6        41.426                                  
  20789597.512 8 109250095.445 8      1118.951 8        49.236    20789608.684 7
  85129971.968 7       871.902 7        44.741                                  
  24561354.188 5 129070783.977 5      1843.092 5        35.785    24561365.465 4
 100574688.355 4      1436.121 4        27.595                                  
  21967933.156 7 115442271.200 7      2790.396 7        47.483    21967944.363 7
  89955052.506 7      2174.266 7        44.741                                  
  22688635.941 7 119229595.897 7      -226.303 7        43.586    22688647.375 6
  92906208.609 6      -176.320 6        39.461                                  
  20332595.109 8 106848540.410 8      -129.174 8        52.315    20332606.715 7
  83258625.479 7      -100.871 7        44.741                                  
 22  6 20  0 25 30.0000000  0  9G01G07G08G13G14G15G17G21G30          0.000000000
  22466798.902 7 118063832.883 7      2469.697 7        42.062    22466814.355 7
  91997861.227 7      1924.295 7        44.741                                  
  20898261.027 7 109821125.391 7     -1801.299 7        47.530    20898271.773 7
  85574928.717 7     -1403.459 7        44.741                                  
  23044386.441 7 121099074.150 7     -3255.186 7        44.860    23044400.121 6
  94362934.354 6     -2536.760 6        37.698                                  
  22306290.402 7 117220360.677 7       990.498 7        44.352    22306301.008 6
  91340573.636 6       771.814 6        40.746                                  
  20783236.441 8 109216666.831 8      1109.072 8        49.177    20783247.016 7
  85103923.677 7       864.373 7        44.741                                  
  24550887.672 6 129015781.013 6      1824.443 6        36.915    24550899.020 4
 100531828.888 4      1421.639 4        29.553                                  
  21952038.305 7 115358742.679 7      2777.900 7        47.049    21952049.039 7
  89889965.372 7      2164.627 7        44.741                                  
  22689981.234 7 119236664.644 7      -245.654 7        44.185    22689992.207 6
  92911716.723 6      -191.428 6        39.954                                  
  20333381.340 8 106852672.809 8      -146.729 8        51.967    20333393.445 7
  83261847.497 7      -114.377 7        44.741                                  
 22  6 20  0 26  0.0000000  0  9G01G07G08G13G14G15G17G21G30          0.000000000
  22452738.363 7 117989943.856 7      2455.602 7        42.090    22452753.445 7
  91940285.451 7      1913.547 7        44.741                                  
  20908583.066 8 109875366.461 8     -1815.529 8        48.265    20908593.285 7
  85617194.440 7     -1414.635 7        44.741                                  
  23062985.203 7 121196813.614 7     -3261.525 7        43.887    23062999.570 6
  94439094.907 6     -2541.510 6        37.751                                  
  22300688.746 7 117190923.744 7       971.365 7        44.590    22300698.777 6
  91317635.742 6       756.945 6        40.536                                  
  20776926.051 8 109183505.412 8      1100.975 8        49.568    20776936.625 7
  85078083.608 7       857.902 7        44.741                                  
  24540516.758 6 128961278.645 6      1807.652 6        37.662    24540527.922 5
 100489359.455 5      1408.625 5        30.494                                  
  21936208.578 7 115275557.386 7      2766.813 7        46.448    21936218.254 7
  89825145.678 7      2156.105 7        44.741                                  
  22691432.004 7 119244287.890 7      -262.971 7        44.030    22691443.293 6
  92917656.889 6      -204.930 6        40.327                                  
  20334262.316 8 106857302.390 8      -162.775 8        52.338    20334274.465 7
  83265454.921 7      -126.570 7        44.741                                  
 22  6 20  0 26 30.0000000  0  9G01G07G08G13G14G15G17G21G30          0.000000000
  22438762.262 7 117916497.282 7      2440.742 7        43.026    22438776.887 7
  91883054.390 7      1901.727 7        44.741                                  
  20918988.969 8 109930048.510 8     -1830.391 8        48.585    20918999.070 7
  85659803.764 7     -1426.164 7        44.741                                  
  23081624.328 7 121294757.320 7     -3268.027 7        44.417    23081637.363 6
  94515414.594 6     -2546.633 6        38.298                                  
  22295200.281 7 117162081.103 7       951.406 7        44.772    22295209.984 6
  91295160.947 6       741.316 6        40.524                                  
  20770666.750 8 109150611.544 8      1091.797 8        49.315    20770677.195 7
  85052452.019 7       850.672 7        44.741                                  
  24530239.582 6 128907278.794 6      1791.016 6        37.263    24530252.688 4
 100447281.663 4      1395.594 4        29.758                                  
  21920445.113 7 115192716.962 7      2755.508 7        46.356    21920453.887 7
  89760594.688 7      2147.215 7        44.741                                  
  22692988.672 7 119252465.971 7      -282.051 7        44.303    22692999.230 6
  92924029.379 6      -219.758 6        40.265                                  
  20335238.176 8 106862430.062 8      -179.414 8        51.978                  
         0.000 0         0.000 0         0.000                                  
 22  6 20  0 27  0.0000000  0  9G01G07G08G13G14G15G17G21G30          0.000000000
  22424870.160 6 117843496.138 6      2426.350 6        41.626    22424885.145 7
  91826170.398 7      1890.576 7        44.741                                  
  20929478.301 7 109985170.477 7     -1844.217 7        47.797    20929488.703 7
  85702755.877 7     -1436.805 7        44.741                                  
  23100300.094 7 121392902.814 7     -3274.158 7        43.682    23100313.957 6
  94591891.524 6     -2551.219 6        37.783                                  
  22289825.730 7 117133833.067 7       931.994 7        45.418    22289835.891 6
  91273149.457 6       726.201 6        41.534                                  
  20764457.688 8 109117985.153 8      1083.400 8        48.517    20764468.359 7
  85027028.837 7       844.326 7        44.741                                  
  24520059.574 6 128853782.897 6      1775.314 6        38.676    24520072.480 5
 100405596.535 5      1383.428 5        31.474                                  
  21904745.477 7 115110222.873 7      2744.611 7        45.058    21904756.367 7
  89696313.607 7      2138.662 7        44.741                                  
  22694650.090 7 119261198.589 7      -299.334 7        43.941    22694660.707 6
  92930834.011 6      -233.232 6        40.199                                  
  20336308.484 8 106868056.349 8      -195.291 8        51.480    20336320.816 7
  83273833.580 7      -152.119 7        44.741                                  
 22  6 20  0 27 30.0000000  0  9G01G07G08G13G14G15G17G21G30          0.000000000
  22411064.281 7 117770944.316 7      2410.352 7        42.583    22411079.418 7
  91769636.541 7      1878.330 7        44.741                                  
  20940051.133 7 110040732.692 7     -1859.744 7        47.826    20940061.723 7
  85746051.059 7     -1449.129 7        44.741                                  
  23119013.852 7 121491248.700 7     -3282.166 7        42.382    23119028.074 6
  94668524.622 6     -2557.566 6        36.356                                  
  22284563.578 7 117106181.113 7       911.660 7        44.874    22284572.723 6
  91251602.463 6       710.480 6        40.948                                  
  20758300.926 8 109085627.136 8      1073.945 8        48.951    20758310.582 7
  85001814.787 7       836.711 7        44.741                                  
  24509975.797 6 128800793.288 6      1758.418 6        38.165    24509986.730 5
 100364305.937 5      1370.225 5        31.519                                  
  21889114.457 7 115028077.262 7      2731.992 7        45.832    21889123.758 7
  89632304.046 7      2128.799 7        44.741                                  
  22696417.477 7 119270486.072 7      -319.277 7        42.775    22696428.406 6
  92938070.977 6      -248.777 6        40.350                                  
  20337474.023 8 106874182.634 8      -212.891 8        51.172    20337486.629 7
  83278608.300 7      -166.023 7        44.328                                  
 22  6 20  0 28  0.0000000  0  9G01G07G08G13G14G15G17G21G30          0.000000000
  22397345.039 7 117698844.475 7      2395.893 7        42.913    22397359.719 7
  91713454.817 7      1867.330 7        44.741                                  
  20950707.887 8 110096733.844 8     -1873.619 8        48.390    20950718.047 7
  85789688.235 7     -1459.779 7        44.741                                  
  23137765.746 7 121589790.881 7     -3287.896 7        42.483    23137780.270 5
  94745310.652 5     -2561.535 5        35.728                                  
  22279414.402 7 117079125.714 7       891.986 7        44.512    22279424.945 6
  91230520.311 6       694.986 6        40.708                                  
  20752194.176 8 109053537.098 8      1065.385 8        49.273    20752204.707 7
  84976809.534 7       830.494 7        44.741                                  
  24499989.254 6 128748310.707 6      1742.025 6        39.024    24500000.672 5
 100323410.486 5      1357.408 5        33.059                                  
  21873548.902 7 114946280.773 7      2720.756 7        46.740    21873558.848 7
  89568566.544 7      2120.201 7        44.741                                  
  22698290.676 7 119280328.236 7      -336.979 7        44.168    22698300.906 6
  92945740.159 6      -262.553 6        40.422                                  
  20338735.219 8 106880808.945 8      -228.834 8        51.699    20338747.379 7
  83283769.637 7      -178.256 7        44.741                                  
 22  6 20  0 28 30.0000000  0  9G01G07G08G13G14G15G17G21G30          0.000000000
  22383709.086 6 117627199.705 6      2380.779 6        38.968    22383725.898 7
  91657627.798 7      1855.055 7        44.741                                  
  20961448.074 8 110153173.349 8     -1888.652 8        48.646    20961458.375 7
  85833667.038 7     -1471.645 7        44.741                                  
  23156555.281 7 121688527.735 7     -3294.160 7        42.751    23156571.035 6
  94822248.398 6     -2567.014 6        37.234                                  
  22274379.273 7 117052667.846 7       872.207 7        44.253    22274389.375 6
  91209903.764 6       679.684 6        40.150                                  
  20746138.660 8 109021715.167 8      1056.270 8        49.330    20746148.445 7
  84952013.222 7       823.102 7        44.741                                  
  24490099.016 6 128696337.330 6      1724.707 6        39.188    24490109.891 5
 100282911.785 5      1343.160 5        34.518                                  
  21858050.750 7 114864835.441 7      2709.139 7        47.499    21858060.840 7
  89505102.647 7      2110.992 7        44.741                                  
  22700269.199 7 119290724.672 7      -355.703 7        44.575    22700279.230 6
  92953841.268 6      -277.230 6        40.756                                  
  20340091.434 8 106887935.986 8      -245.820 8        51.448    20340103.453 7
  83289323.150 7      -191.625 7        44.741                                  
 22  6 20  0 29  0.0000000  0  9G01G07G08G13G14G15G17G21G30          0.000000000
  22370164.293 7 117556013.390 7      2364.996 7        42.304    22370179.488 7
  91602157.997 7      1843.008 7        44.741                                  
  20972271.691 8 110210050.816 8     -1903.322 8        49.079    20972282.238 7
  85877987.085 7     -1483.145 7        44.741                                  
  23175381.316 7 121787456.595 7     -3300.588 7        42.821    23175395.883 6
  94899335.729 6     -2572.070 6        37.363                                  
  22269457.484 7 117026808.461 7       851.736 7        42.656    22269469.320 6
  91189753.590 6       663.613 6        39.915                                  
  20740134.383 8 108990161.656 8      1047.225 8        48.807    20740144.070 7
  84927426.060 7       816.094 7        44.741                                  
  24480305.809 6 128644874.777 6      1708.104 6        38.491    24480317.758 5
 100242811.112 5      1329.785 5        33.404                                  
  21842618.863 7 114783742.563 7      2696.910 7        45.901    21842629.250 7
  89441913.399 7      2101.855 7        44.741                                  
  22702353.336 7 119301675.659 7      -374.553 7        44.543    22702363.277 6
  92962374.483 6      -291.855 6        41.110                                  
  20341543.105 8 106895564.466 8      -262.814 8        51.397    20341555.223 7
  83295268.384 7      -204.766 7        44.741                                  
 22  6 20  0 29 30.0000000  0  9G01G07G08G13G14G15G17G21G30          0.000000000
  22356706.195 7 117485288.818 7      2349.854 7        42.868    22356720.246 7
  91547047.950 7      1831.205 7        44.741                                  
  20983178.426 8 110267365.612 8     -1917.666 8        49.172    20983188.785 7
  85922647.898 7     -1494.283 7        44.741                                  
  23194242.672 7 121886574.810 7     -3306.941 7        42.508    23194257.195 6
  94976570.623 6     -2576.627 6        37.186                                  
  22264652.012 7 117001548.527 7       832.314 7        44.575    22264661.516 6
  91170070.508 6       648.607 6        39.824                                  
  20734181.023 8 108958876.846 8      1038.604 8        49.101    20734191.871 7
  84903048.282 7       809.135 7        44.741                                  
  24470610.598 6 128593924.674 6      1690.205 6        38.027    24470621.957 5
 100203109.786 5      1316.830 5        32.964                                  
  21827255.352 7 114703003.832 7      2685.381 7        47.403    21827265.539 7
  89379000.125 7      2092.436 7        44.741                                  
  22704542.480 7 119313181.485 7      -392.529 7        44.417    22704552.867 6
  92971340.058 6      -305.865 6        40.981                                  
  20343090.484 8 106903695.213 8      -279.150 8        51.508                  
         0.000 0         0.000 0         0.000                                  
 22  6 20  0 30  0.0000000  0  9G01G07G08G13G14G15G17G21G30          0.000000000
  22343334.609 6 117415028.885 6      2334.414 6        41.656    22343350.094 7
  91492299.995 7      1819.061 7        44.741                                  
  20994168.383 8 110325116.825 8     -1932.010 8        49.533    20994178.285 7
  85967648.771 7     -1505.488 7        44.741                                  
  23213139.605 7 121985879.731 7     -3313.084 7        42.433    23213154.371 6
  95053950.999 6     -2581.465 6        37.386                                  
  22259959.238 7 116976888.408 7       812.092 7        44.496    22259969.715 6
  91150854.808 6       632.830 6        40.095                                  
  20728278.551 8 108927860.705 8      1029.631 8        48.517    20728289.000 7
  84878879.833 7       802.439 7        44.741                                  
  24461012.633 6 128543488.551 6      1673.439 6        38.298    24461023.551 5
 100163808.904 5      1303.572 5        32.082                                  
  21811958.895 7 114622620.914 7      2673.613 7        46.178    21811967.609 7
  89316364.071 7      2083.631 7        44.741                                  
  22706837.316 7 119325241.195 7      -410.760 7        44.989    22706847.117 6
  92980737.233 6      -320.100 6        40.843                                  
  20344733.820 8 106912328.604 8      -295.936 8        51.881    20344745.910 7
  83308333.288 7      -230.783 7        44.741                                  
 22  6 20  0 30 30.0000000  0  9G01G07G08G13G14G15G17G21G30          0.000000000
  22330054.941 7 117345236.645 7      2318.826 7        43.488    22330069.207 7
  91437916.455 7      1806.697 7        44.741                                  
  21005241.527 8 110383303.563 8     -1946.623 8        49.921    21005251.086 7
  86012989.030 7     -1516.953 7        44.741                                  
  23232072.645 7 122085369.359 7     -3319.512 7        43.625    23232087.227 6
  95131475.270 6     -2586.055 6        37.866                                  
  22255381.133 7 116952828.706 7       792.225 7        45.275    22255391.051 6
  91132106.970 6       617.344 6        40.798                                  
  20722427.645 8 108897113.286 8      1020.877 8        48.364    20722438.203 7
  84854920.801 7       795.156 7        44.741                                  
  24451512.020 6 128493567.567 6      1656.092 6        37.737    24451524.828 5
 100124909.522 5      1290.020 5        32.818                                  
  21796729.883 7 114542594.781 7      2661.854 7        45.855    21796739.242 7
  89254006.077 7      2074.197 7        44.741                                  
  22709237.945 7 119337854.883 7      -429.240 7        45.481    22709247.016 6
  92990566.065 6      -334.453 6        40.621                                  
  20346472.219 8 106921465.137 8      -312.697 8        51.473    20346484.656 7
  83315452.641 7      -243.926 7        44.741                                  
 22  6 20  0 31  0.0000000  0  9G01G07G08G13G14G15G17G21G30          0.000000000
  22316863.578 7 117275915.549 7      2302.803 7        42.330    22316879.047 7
  91383900.062 7      1794.361 7        44.741                                  
  21016396.254 8 110441925.388 8     -1961.336 8        49.607    21016406.301 7
  86058668.284 7     -1528.158 7        44.741                                  
  23251039.477 7 122185040.789 7     -3325.438 7        43.488    23251053.543 6
  95209141.247 6     -2591.225 6        38.247                                  
  22250916.805 7 116929370.521 7       771.906 7        45.248    22250928.406 6
  91113827.846 6       601.471 6        40.951                                  
  20716627.691 8 108866635.159 8      1011.340 8        48.383    20716638.238 7
  84831171.593 7       788.131 7        44.741                                  
  24442112.023 6 128444163.685 6      1638.975 6        38.616    24442122.684 5
 100086412.978 5      1276.295 5        31.383                                  
  21781568.859 7 114462926.976 7      2649.775 7        44.727    21781579.805 7
  89191927.300 7      2064.361 7        44.741                                  
  22711743.336 7 119351022.704 7      -448.406 7        44.742    22711752.395 6
  93000826.676 6      -349.311 6        40.309                                  
  20348306.652 8 106931105.710 8      -329.734 8        51.546                  
         0.000 0         0.000 0         0.000                                  
 22  6 20  0 31 30.0000000  0  9G01G07G08G13G14G15G17G21G30          0.000000000
  22303761.098 6 117207068.642 6      2286.951 6        41.747    22303777.164 7
  91330253.145 7      1782.662 7        44.741                                  
  21027634.570 8 110500981.973 8     -1975.646 8        49.885    21027644.758 7
  86104686.359 7     -1539.428 7        44.741                                  
  23270040.957 7 122284891.714 7     -3330.549 7        43.977    23270055.063 6
  95286947.089 6     -2595.697 6        38.855                                  
  22246567.113 7 116906514.678 7       751.834 7        44.559    22246578.117 6
  91096018.085 6       585.807 6        40.442                                  
  20710878.992 8 108836426.362 8      1003.514 8        48.331    20710889.426 7
  84807632.281 7       781.451 7        44.741                                  
  24432808.344 6 128395278.188 6      1621.326 6        37.346    24432821.051 5
 100048320.465 5      1263.365 5        32.062                                  
  21766477.543 7 114383619.433 7      2637.850 7        45.654    21766487.805 7
  89130129.211 7      2055.709 7        44.741                                  
  22714354.781 7 119364744.126 7      -466.291 7        44.449    22714363.809 6
  93011518.701 6      -363.471 6        40.312                                  
  20350237.266 8 106941250.820 8      -346.428 8        51.514    20350249.543 7
  83330870.002 7      -269.916 7        44.741                                  
 22  6 20  0 32  0.0000000  0  9G01G07G08G13G14G15G17G21G30          0.000000000
  22290752.227 7 117138699.070 7      2270.393 7        43.720    22290766.824 7
  91276978.196 7      1769.346 7        44.741                                  
  21038955.762 8 110560472.559 8     -1990.467 8        50.336    21038965.219 7
  86151042.602 7     -1550.928 7        44.741                                  
  23289075.660 7 122384919.851 7     -3337.283 7        43.720    23289090.188 6
  95364891.006 6     -2600.693 6        38.989                                  
  22242332.781 7 116884261.836 7       731.350 7        44.417    22242343.699 6
  91078678.192 6       569.814 6        40.300                                  
  20705181.977 8 108806487.198 8       993.244 8        48.473    20705191.664 7
  84784303.040 7       774.014 7        44.741                                  
  24423605.293 6 128346912.917 6      1602.658 6        39.448    24423616.453 5
 100010633.284 5      1248.975 5        32.254                                  
  21751454.801 7 114304673.155 7      2625.352 7        46.458    21751464.688 7
  89068612.627 7      2045.771 7        44.741                                  
  22717070.711 7 119379019.029 7      -485.467 7        44.559    22717081.000 6
  93022641.997 6      -378.193 6        41.081                                  
  20352263.781 8 106951901.056 8      -363.768 8        51.604    20352276.188 7
  83339167.864 7      -283.428 7        44.741                                  
 22  6 20  0 32 30.0000000  0  9G01G07G08G13G14G15G17G21G30          0.000000000
  22277833.191 7 117070809.392 7      2254.920 7        44.012    22277847.844 7
  91224077.186 7      1756.879 7        44.741                                  
  21050358.063 8 110620395.699 8     -2004.887 8        49.698    21050368.063 7
  86197735.879 7     -1562.107 7        44.741                                  
  23308143.680 7 122485121.865 7     -3343.363 7        44.065    23308157.832 6
  95442970.389 6     -2604.920 6        39.293                                  
  22238213.188 7 116862611.950 7       711.775 7        45.418    22238223.258 6
  91061808.146 6       554.672 6        40.420                                  
  20699535.734 8 108776817.265 8       984.666 8        48.144    20699546.480 7
  84761183.591 7       767.230 7        44.741                                  
  24414501.375 6 128299068.626 6      1586.287 6        40.103    24414512.391 5
  99973352.103 5      1235.961 5        33.856                                  
  21736500.855 7 114226089.671 7      2613.006 7        45.726    21736510.727 7
  89007378.708 7      2036.527 7        44.741                                  
  22719892.359 7 119393846.728 7      -503.361 7        44.831    22719901.992 6
  93034196.047 6      -392.225 6        41.226                                  
  20354386.855 8 106963056.431 8      -380.041 8        51.508                  
         0.000 0         0.000 0         0.000                                  
 22  6 20  0 33  0.0000000  0 10G01G07G08G13G14G15G17G19G21G30       0.000000000
  22265006.023 7 117003402.868 7      2238.846 7        43.304    22265021.074 7
  91171552.657 7      1744.678 7        44.741                                  
  21061844.211 8 110680750.841 8     -2018.830 8        50.497    21061853.199 7
  86244765.789 7     -1573.018 7        44.741                                  
  23327243.895 7 122585495.856 7     -3348.557 7        44.286    23327258.535 6
  95521183.797 6     -2609.482 6        39.184                                  
  22234209.063 7 116841566.090 7       691.639 7        45.773    22234219.852 6
  91045408.741 6       538.975 6        41.034                                  
  20693941.145 8 108747416.958 8       975.896 8        48.062    20693951.645 7
  84738274.267 7       760.381 7        44.741                                  
  24405496.188 6 128251747.070 6      1568.006 6        40.858    24405507.363 5
  99936478.217 5      1221.982 5        33.447                                  
  21721616.594 7 114147870.216 7      2601.229 7        46.199    21721625.910 7
  88946428.482 7      2027.549 7        44.741                                  
  24233530.605 6 127348067.466 6      3737.186 6        40.556    24233540.836 6
  99232298.871 6      2912.139 6        36.507                                  
  22722819.609 7 119409227.197 7      -521.682 7        44.917    22722828.785 6
  93046180.815 6      -406.553 6        40.558                                  
  20356606.086 8 106974717.673 8      -396.936 8        51.659    20356617.734 7
  83356946.997 7      -309.248 7        44.741                                  
 22  6 20  0 33 30.0000000  0 10G01G07G08G13G14G15G17G19G21G30       0.000000000
  22252271.992 7 116936482.727 7      2223.174 7        44.496    22252286.785 7
  91119407.139 7      1731.766 7        44.741                                  
  21073411.051 8 110741537.143 8     -2033.115 8        49.518    21073420.684 7
  86292131.682 7     -1584.211 7        44.741                                  
  23346377.152 7 122686039.848 7     -3354.365 7        43.959    23346391.316 6
  95599529.690 6     -2613.586 6        38.908                                  
  22230318.543 7 116821124.918 7       671.377 7        44.946    22230328.973 6
  91029480.552 6       523.133 6        40.804                                  
  20688397.910 7 108718286.646 7       966.611 7        47.899    20688408.000 7
  84715575.295 7       753.289 7        44.741                                  
  24396590.727 6 128204949.351 6      1552.354 6        41.107    24396601.473 5
  99900012.474 5      1208.836 5        33.390                                  
  21706801.148 7 114070016.194 7      2589.092 7        45.958    21706811.266 7
  88885763.009 7      2017.508 7        44.741                                  
  24212208.629 6 127236019.413 6      3733.193 6        41.107    24212218.672 6
  99144988.712 6      2908.953 6        39.507                                  
  22725851.449 7 119425160.316 7      -540.322 7        45.275    22725860.762 6
  93058596.221 6      -420.930 6        41.233                                  
  20358921.461 8 106986885.400 8      -413.955 8        51.601    20358933.684 7
  83366429.316 7      -322.434 7        44.741                                  
 22  6 20  0 34  0.0000000  0 10G01G07G08G13G14G15G17G19G21G30       0.000000000
  22239630.480 7 116870052.135 7      2206.244 7        44.874    22239645.449 7
  91067643.066 7      1719.166 7        44.741                                  
  21085060.398 8 110802754.352 8     -2047.309 8        49.750    21085070.316 7
  86339833.350 7     -1595.383 7        44.741                                  
  23365541.828 7 122786751.067 7     -3359.926 7        44.185    23365556.453 6
  95678005.860 6     -2617.980 6        38.772                                  
  22226543.297 7 116801288.961 7       651.070 7        44.874    22226554.770 6
  91014023.938 6       507.350 6        40.822                                  
  20682905.988 8 108689426.594 8       957.223 8        48.441    20682916.523 7
  84693086.928 7       746.256 7        44.741                                  
  24387785.227 6 128158677.664 6      1533.139 6        39.926    24387796.656 5
  99863956.653 5      1194.928 5        33.418                                  
  21692056.188 7 113992529.501 7      2576.928 7        47.127    21692066.207 7
  88825383.798 7      2007.682 7        44.741                                  
  24190908.770 6 127124088.989 6      3728.861 6        38.298    24190919.660 6
  99057770.254 6      2905.611 6        37.305                                  
  22728988.973 7 119441645.594 7      -558.695 7        45.878    22728998.000 6
  93071441.887 6      -435.268 6        41.937                                  
  20361333.367 8 106999560.298 8      -430.727 8        51.650    20361345.531 7
  83376305.833 7      -335.736 7        44.741                                  
 22  6 20  0 34 30.0000000  0 10G01G07G08G13G14G15G17G19G21G30       0.000000000
  22227082.566 7 116804114.235 7      2189.928 7        44.528    22227097.160 7
  91016262.943 7      1706.311 7        44.741                                  
  21096791.461 8 110864401.641 8     -2061.928 8        49.548    21096801.707 7
  86387870.126 7     -1606.639 7        44.741                                  
  23384738.141 7 122887627.252 7     -3365.580 7        44.168    23384752.379 6
  95756610.576 6     -2622.203 6        37.994                                  
  22222885.680 7 116782059.120 7       630.963 7        46.664    22222895.555 6
  90999039.626 6       491.662 6        41.657                                  
  20677465.734 8 108660837.155 8       948.697 8        48.535    20677476.066 7
  84670809.444 7       739.045 7        44.741                                  
  24379080.043 6 128112933.085 6      1516.334 6        40.315    24379092.133 5
  99828311.526 5      1181.643 5        35.013                                  
  21677381.066 7 113915411.511 7      2564.400 7        45.946    21677391.570 7
  88765291.838 7      1998.381 7        44.741                                  
  24169631.531 6 127012278.193 6      3725.377 6        38.911    24169642.305 5
  98970645.027 5      2902.795 5        35.511                                  
  22732230.676 7 119458682.948 7      -577.123 7        45.878    22732240.449 6
  93084717.742 6      -449.666 6        41.989                                  
  20363842.012 8 107012742.901 8      -447.553 8        51.647                  
         0.000 0         0.000 0         0.000                                  
 22  6 20  0 35  0.0000000  0 10G01G07G08G13G14G15G17G19G21G30       0.000000000
  22214629.730 7 116738672.10617      2173.396 7        44.816    22214644.125 7
  90965269.10317      1693.346 7        44.741                                  
  21108604.152 8 110926478.48918     -2076.738 8        48.871    21108614.473 7
  86436241.63917     -1618.002 7        44.741                                  
  23403964.711 7 122988665.758 7     -3370.605 7        43.199    23403978.992 6
  95835341.806 6     -2626.674 6        37.167                                  
  22219341.461 7 116763436.097 7       610.273 7        46.518    22219351.176 6
  90984528.146 6       475.494 6        41.304                                  
  20672077.348 8 108632518.562 8       939.180 8        49.161    20672087.121 7
  84648742.985 7       732.115 7        44.741                                  
  24370475.379 6 128067717.63716      1497.773 6        39.079    24370487.152 5
  99793078.70615      1167.271 5        32.980                                  
  21662776.559 7 113838663.311 7      2551.502 7        46.231    21662785.617 7
  88705488.058 7      1988.521 7        44.741                                  
  24148377.539 6 126900589.25416      3720.818 6        38.795    24148387.500 6
  98883614.67316      2899.301 6        36.282                                  
  22735578.336 7 119476272.11817      -595.977 7        45.924    22735587.867 7
  93098423.60617      -464.428 7        42.273                                  
  20366447.313 8 107026433.72718      -465.059 8        51.546                  
         0.000 0         0.000 0         0.000                                  
 22  6 20  0 35 30.0000000  0 10G01G07G08G13G14G15G17G19G21G30       0.000000000
  22202271.086 7 116673728.411 7      2156.387 7        44.845    22202286.012 7
  90914663.643 7      1679.902 7        44.741                                  
  21120497.875 8 110988983.448 8     -2091.055 8        48.338    21120508.578 7
  86484946.752 7     -1629.219 7        44.741                                  
  23423221.656 7 123089864.160 7     -3376.309 7        42.798    23423235.691 6
  95914197.600 6     -2630.684 6        36.363                                  
  22215912.613 7 116745419.836 7       589.883 7        46.508    22215922.715 6
  90970489.479 6       459.629 6        41.330                                  
  20666739.652 8 108604470.666 8       929.961 8        49.007    20666750.129 7
  84626887.488 7       724.648 7        44.741                                  
  24361972.633 6 128023032.243 6      1479.785 6        39.645    24361984.293 5
  99758258.850 5      1153.398 5        34.133                                  
  21648242.348 7 113762286.096 7      2539.473 7        45.761    21648253.207 7
  88645973.340 7      1978.535 7        44.741                                  
  24127147.629 6 126789023.434 6      3716.172 6        40.189    24127158.016 6
  98796680.290 6      2895.643 6        36.761                                  
  22739029.777 7 119494412.290 7      -614.121 7        45.556    22739040.551 7
  93112558.808 7      -478.477 7        42.514                                  
  20369148.949 8 107040632.877 8      -481.992 8        51.638                  
         0.000 0         0.000 0         0.000                                  
 22  6 20  0 36  0.0000000  0 10G01G07G08G13G14G15G17G19G21G30       0.000000000
  22190007.676 7 116609286.294 7      2139.756 7        44.303    22190022.500 7
  90864449.038 7      1667.486 7        44.741                                  
  21132474.375 8 111051916.078 8     -2104.600 8        49.320    21132484.078 7
  86533985.117 7     -1639.643 7        44.741                                  
  23442509.867 7 123191220.133 7     -3380.811 7        43.663    23442523.934 6
  95993176.208 6     -2634.664 6        36.577                                  
  22212600.602 7 116728011.026 7       570.381 7        47.067    22212611.891 7
  90956924.157 7       444.439 7        42.123                                  
  20661453.832 8 108576693.877 8       921.631 8        48.905    20661464.363 7
  84605243.236 7       718.014 7        44.741                                  
  24353570.555 6 127978877.716 6      1463.311 6        40.315    24353582.188 7
  99723852.686 7      1140.084 7        43.828                                  
  21633779.180 7 113686281.688 7      2527.412 7        46.124    21633788.969 7
  88586749.149 7      1969.518 7        44.741                                  
  24105941.113 6 126677583.114 6      3712.725 6        39.971    24105951.660 6
  98709843.715 6      2893.092 6        36.905                                  
  22742586.465 7 119513103.684 7      -631.904 7        45.605    22742597.340 7
  93127123.530 7      -492.396 7        42.236                                  
  20371948.254 8 107055341.006 8      -498.604 8        51.992                  
         0.000 0         0.000 0         0.000                                  
 22  6 20  0 36 30.0000000  0 10G01G07G08G13G14G15G17G19G21G30       0.000000000
  22177841.027 7 116545348.705 7      2122.338 7        45.154    22177855.609 7
  90814627.559 7      1654.023 7        44.741                                  
  21144530.758 8 111115275.329 8     -2119.264 8        48.801    21144541.090 7
  86583355.922 7     -1651.365 7        44.741                                  
  23461827.023 7 123292731.703 7     -3386.197 7        43.488    23461840.199 5
  96072276.026 5     -2639.002 5        35.966                                  
  22209402.238 7 116711210.125 7       549.701 7        45.726    22209411.668 6
  90943832.521 6       428.361 6        40.442                                  
  20656219.703 8 108549188.301 8       911.967 8        49.085    20656229.848 7
  84583810.309 7       710.822 7        44.741                                  
  24345270.109 6 127935255.736 6      1445.541 6        39.834    24345281.055 7
  99689861.530 7      1126.035 7        44.741                                  
  21619386.738 7 113610651.400 7      2514.545 7        46.478    21619396.754 7
  88527816.472 7      1959.297 7        44.741                                  
  24084759.246 6 126566270.237 6      3706.771 6        39.548    24084769.375 5
  98623106.425 5      2888.379 5        35.861                                  
  22746248.504 7 119532345.132 7      -650.865 7        46.596    22746258.074 7
  93142116.886 7      -507.225 7        42.379                                  
  20374843.891 8 107070558.398 8      -515.943 8        51.803    20374855.922 7
  83431629.847 7      -401.971 7        44.741                                  
 22  6 20  0 37  0.0000000  0 10G01G07G08G13G14G15G17G19G21G30       0.000000000
  22165770.500 7 116481918.751 7      2105.760 7        44.772    22165785.309 7
  90765201.627 7      1640.803 7        44.741                                  
  21156669.094 8 111179060.465 8     -2133.498 8        48.634    21156679.426 7
  86633058.564 7     -1662.359 7        44.741                                  
  23481173.039 7 123394395.928 7     -3391.018 7        44.269    23481186.590 6
  96151494.841 6     -2642.359 6        36.626                                  
  22206322.176 7 116695017.751 7       529.764 7        47.554    22206331.848 6
  90931215.044 6       412.795 6        41.861                                  
  20651037.188 8 108521954.317 8       902.986 8        49.558    20651047.664 7
  84562589.019 7       703.713 7        44.741                                  
  24337070.504 6 127892167.650 6      1427.225 6        39.926    24337082.379 7
  99656286.449 7      1111.408 7        44.741                                  
  21605066.090 7 113535396.363 7      2502.010 7        47.005    21605076.637 7
  88469176.182 7      1949.533 7        44.741                                  
  24063600.660 6 126455086.438 6      3703.297 6        37.956    24063611.953 5
  98536469.727 5      2885.803 5        34.973                                  
  22750013.957 7 119552136.578 7      -668.811 7        45.248    22750024.617 7
  93157538.787 7      -521.246 7        42.307                                  
  20377836.504 8 107086285.659 8      -532.893 8        51.791    20377848.797 7
  83443884.825 7      -415.191 7        44.741                                  
 22  6 20  0 37 30.0000000  0 10G01G07G08G13G14G15G17G19G21G30       0.000000000
  22153797.492 7 116418999.283 7      2088.574 7        44.512    22153812.258 7
  90716173.499 7      1627.346 7        44.741                                  
  21168887.637 8 111243270.524 8     -2148.008 8        48.325    21168897.797 7
  86683092.335 7     -1673.867 7        44.741                                  
  23500547.324 7 123496210.729 7     -3396.641 7        43.448    23500561.590 5
  96230830.943 5     -2646.816 5        35.958                                  
  22203355.520 7 116679434.211 7       509.121 7        46.025    22203367.469 6
  90919072.027 6       396.682 6        41.927                                  
  20645906.980 8 108494992.057 8       893.867 8        49.746    20645917.027 7
  84541579.452 7       696.506 7        44.741                                  
  24328971.996 6 127849615.060 6      1409.141 6        39.498    24328984.102 7
  99623128.571 7      1097.912 7        44.741                                  
  21590817.063 7 113460517.874 7      2489.375 7        47.110    21590827.480 7
  88410829.311 7      1939.553 7        44.741                                  
  24042467.629 6 126344034.069 6      3698.770 6        37.346    24042478.516 5
  98449935.457 5      2882.131 5        35.160                                  
  22753884.805 7 119572477.676 7      -687.324 7        45.154    22753895.551 7
  93173388.989 7      -535.566 7        42.045                                  
  20380926.641 8 107102523.108 8      -550.098 8        51.835                  
         0.000 0         0.000 0         0.000                                  
 22  6 20  0 38  0.0000000  0 10G01G07G08G13G14G15G17G19G21G30       0.000000000
  22141922.527 7 116356592.821 7      2072.094 7        44.465    22141936.766 7
  90667545.081 7      1614.744 7        44.741                                  
  21181186.906 8 111307904.185 8     -2161.324 8        48.151    21181197.496 7
  86733456.191 7     -1684.143 7        44.741                                  
  23519950.535 7 123598173.374 7     -3400.268 7        43.605    23519963.156 5
  96310282.253 5     -2650.412 5        34.671                                  
  22200507.078 7 116664459.739 7       489.203 7        47.419    22200517.051 7
  90907403.565 7       381.268 7        42.241                                  
  20640827.453 8 108468301.263 8       885.492 8        49.871    20640837.813 7
  84520781.422 7       689.998 7        44.741                                  
  24320977.539 6 127807598.522 6      1391.957 6        40.748    24320989.391 7
  99590388.412 7      1084.217 7        44.741                                  
  21576640.750 7 113386017.199 7      2477.641 7        47.378    21576651.340 7
  88352776.813 7      1930.545 7        44.741                                  
  24021361.660 6 126233114.746 6      3695.395 6        40.146    24021372.090 6
  98363504.890 6      2879.490 6        36.639                                  
  22757860.273 7 119593367.372 7      -705.191 7        45.418    22757870.047 6
  93189666.676 6      -549.455 6        41.700                                  
  20384113.820 8 107119270.611 8      -566.344 8        52.291    20384125.723 7
  83469587.305 7      -441.291 7        44.741                                  
 22  6 20  0 38 30.0000000  0 10G01G07G08G13G14G15G17G19G21G30       0.000000000
  22130144.105 7 116294702.593 7      2053.795 7        44.185    22130159.430 7
  90619318.960 7      1600.742 7        44.741                                  
  21193566.980 8 111372961.115 8     -2176.105 8        48.364    21193577.441 7
  86784149.858 7     -1695.740 7        44.741                                  
  23539381.180 7 123700281.716 7     -3406.320 7        43.905    23539392.926 5
  96389847.106 5     -2654.217 5        34.034                                  
  22197773.211 7 116650094.515 7       468.170 7        46.796    22197784.473 7
  90896209.862 7       364.844 7        42.297                                  
  20635800.535 8 108441882.613 8       875.475 8        50.138    20635810.426 7
  84500195.431 7       682.578 7        44.741                                  
  24313084.207 6 127766119.696 6      1373.346 6        40.356    24313096.313 7
  99558067.224 7      1070.254 7        44.741                                  
  21562535.512 7 113311895.547 7      2464.010 7        47.906    21562546.816 7
  88295019.736 7      1919.844 7        44.741                                  
  24000280.547 6 126122330.705 6      3690.025 6        41.776    24000290.160 6
  98277179.645 6      2875.391 6        36.820                                  
  22761939.871 7 119614805.467 7      -724.309 7        45.443    22761949.629 6
  93206371.699 6      -564.414 6        41.680                                  
  20387398.113 8 107136528.974 8      -584.252 8        52.366    20387409.887 7
  83483036.351 7      -455.039 7        44.741                                  
 22  6 20  0 39  0.0000000  0 10G01G07G08G13G14G15G17G19G21G30       0.000000000
  22118465.867 7 116233331.619 7      2036.598 7        44.401    22118480.262 7
  90571497.445 7      1586.846 7        44.741                                  
  21206027.348 7 111438440.378 7     -2190.023 7        47.760    21206038.168 7
  86835172.605 7     -1706.494 7        44.741                                  
  23558838.742 7 123802533.418 7     -3411.391 7        43.567    23558852.277 5
  96469523.680 5     -2658.037 5        32.632                                  
  22195155.984 7 116636339.234 7       448.219 7        47.978    22195165.371 7
  90885491.482 7       349.229 7        42.217                                  
  20630824.582 8 108415736.308 8       866.598 8        49.778    20630835.469 7
  84479821.699 7       675.225 7        44.741                                  
  24305293.207 6 127725179.885 6      1355.074 6        40.517    24305305.324 7
  99526166.099 7      1056.162 7        44.741                                  
  21548502.984 7 113238154.484 7      2451.246 7        47.255    21548512.113 7
  88237559.145 7      1910.225 7        44.741                                  
  23979224.633 6 126011683.708 6      3685.504 6        38.968    23979233.965 5
  98190961.178 5      2871.885 5        32.948                                  
  22766123.516 7 119636791.394 7      -742.074 7        45.568    22766133.563 6
  93223503.597 6      -578.213 6        41.746                                  
  20390779.297 8 107154298.530 8      -601.059 8        52.341    20390791.215 7
  83496880.730 7      -468.486 7        44.741                                  
 22  6 20  0 39 30.0000000  0 10G01G07G08G13G14G15G17G19G21G30       0.000000000
  22106886.832 7 116172482.520 7      2019.313 7        44.757    22106901.371 7
  90524082.546 7      1573.670 7        44.741                                  
  21218567.316 7 111504340.810 7     -2203.969 7        47.569    21218578.621 7
  86886523.519 7     -1717.521 7        44.741                                  
  23578323.531 7 123904926.459 7     -3416.156 7        43.567    23578337.797 5
  96549310.385 5     -2661.057 5        32.310                                  
  22192653.270 7 116623193.916 7       427.555 7        46.124    22192663.855 6
  90875248.339 6       333.162 6        41.523                                  
  20625901.180 8 108389862.319 8       857.652 8        49.926    20625911.066 7
  84459660.141 7       668.221 7        44.741                                  
  24297604.984 6 127684779.892 6      1337.262 6        40.397    24297617.375 7
  99494685.600 7      1042.088 7        44.741                                  
  21534542.898 7 113164794.680 7      2438.707 7        47.530    21534553.301 7
  88180395.686 7      1900.174 7        44.741                                  
  23958195.238 6 125901175.496 6      3680.582 6        39.079    23958204.695 5
  98104850.909 5      2867.967 5        33.895                                  
  22770411.230 7 119659324.428 7      -760.668 7        45.617    22770420.930 6
  93241061.831 6      -592.814 6        41.353                                  
  20394257.969 8 107172579.368 8      -618.148 8        52.420    20394270.086 6
  83511126.525 6      -481.682 6        41.713                                  
 22  6 20  0 40  0.0000000  0 10G01G07G08G13G14G15G17G19G21G30       0.000000000
  22095407.828 7 116112158.065 7      2002.266 7        45.248    22095422.238 7
  90477076.505 7      1560.176 7        44.741                                  
  21231188.141 8 111570661.417 8     -2217.539 8        48.517    21231198.844 7
  86938201.865 7     -1727.928 7        44.741                                  
  23597834.520 7 124007457.737 7     -3420.059 7        42.330    23597848.973 5
  96629204.807 5     -2664.803 5        31.337                                  
  22190269.477 7 116610659.165 7       407.676 7        47.877    22190280.465 7
  90865480.990 7       317.617 7        42.951                                  
  20621029.590 8 108364260.793 8       849.141 8        49.816    20621039.965 7
  84439710.897 7       661.387 7        44.741                                  
  24290020.227 6 127644920.970 6      1319.336 6        40.710    24290032.289 7
  99463626.696 7      1028.379 7        44.741                                  
  21520656.375 8 113091817.891 8      2426.465 8        48.504    21520665.902 7
  88123530.679 7      1890.508 7        44.741                                  
  23937194.039 6 125790807.854 6      3675.859 6        41.595    23937203.227 6
  98018850.179 6      2864.258 6        36.707                                  
  22774803.125 7 119682403.921 7      -778.574 7        45.617    22774812.754 6
  93259045.872 6      -606.658 6        41.358                                  
  20397833.668 8 107191371.763 8      -634.824 8        51.989    20397846.660 7
  83525772.929 7      -494.764 7        44.741                                  
 22  6 20  0 40 30.0000000  0 10G01G07G08G13G14G15G17G19G21G30       0.000000000
  22084028.285 7 116052361.054 7      1984.082 7        44.303    22084043.410 7
  90430481.448 7      1546.268 7        44.741                                  
  21243888.535 8 111637401.329 8     -2232.109 8        48.096    21243899.109 7
  86990206.932 7     -1738.811 7        44.741                                  
  23617371.414 7 124110125.539 7     -3424.238 7        42.198    23617385.809 5
  96709205.601 5     -2668.496 5        30.605                                  
  22188000.020 7 116598734.807 7       387.129 7        46.987    22188009.609 7
  90856189.256 7       301.600 7        42.052                                  
  20616209.523 8 108338931.909 8       839.688 8        49.839    20616219.785 7
  84419974.082 7       654.197 7        44.741                                  
  24282539.367 6 127605604.313 6      1301.094 6        40.397    24282550.227 7
  99432990.343 7      1014.158 7        44.741                                  
  21506842.266 8 113019225.252 8      2413.262 8        48.460    21506852.781 7
  88066964.992 7      1880.584 7        44.741                                  
  23916218.609 6 125680582.757 6      3671.855 6        40.822    23916228.039 6
  97932960.490 6      2861.189 6        36.626                                  
  22779299.344 7 119706029.342 7      -796.660 7        45.235    22779309.188 6
  93277455.276 6      -620.686 6        41.585                                  
  20401507.391 8 107210675.872 8      -652.090 8        51.723                  
         0.000 0         0.000 0         0.000                                  
 22  6 20  0 41  0.0000000  0 10G01G07G08G13G14G15G17G19G21G30       0.000000000
  22072750.219 7 115993094.713 7      1966.684 7        44.082    22072764.957 7
  90384299.893 7      1532.352 7        44.741                                  
  21256668.367 7 111704559.716 7     -2245.602 7        47.985    21256678.398 7
  87042538.103 7     -1749.699 7        44.741                                  
  23636933.949 7 124212927.599 7     -3429.059 7        42.483    23636948.574 5
  96789311.029 5     -2671.652 5        30.767                                  
  22185846.637 7 116587421.240 7       366.957 7        46.833    22185854.980 6
  90847373.477 6       285.965 6        41.159                                  
  20611441.566 8 108313876.284 8       830.707 8        49.802    20611451.898 7
  84400450.213 7       647.039 7        44.741                                  
  24275160.980 6 127566831.462 6      1283.129 6        41.175    24275172.371 7
  99402777.751 7       999.852 7        44.741                                  
  21493101.871 8 112947017.992 8      2400.199 8        48.402    21493111.516 7
  88010699.597 7      1870.398 7        44.741                                  
  23895270.531 6 125570502.801 6      3666.957 6        41.002    23895281.078 6
  97847183.942 6      2857.313 6        36.177                                  
  22783898.180 7 119730200.044 7      -814.820 7        44.960    22783908.672 6
  93296289.594 6      -634.973 6        41.410                                  
  20405278.586 8 107230492.345 8      -669.039 8        52.015                  
         0.000 0         0.000 0         0.000                                  
 22  6 20  0 41 30.0000000  0 10G01G07G08G13G14G15G17G19G21G30       0.000000000
  22061573.555 7 115934361.498 7      1948.932 7        44.117    22061588.652 7
  90338533.771 7      1518.572 7        44.741                                  
  21269528.000 8 111772135.262 8     -2259.564 8        48.441    21269537.273 7
  87095194.340 7     -1760.568 7        44.741                                  
  23656521.621 7 124315861.284 7     -3432.553 7        42.583    23656537.445 5
  96869519.016 5     -2675.393 5        31.290                                  
  22183810.117 7 116576718.481 7       346.471 7        47.338    22183821.723 7
  90839033.614 7       270.018 7        43.636                                  
  20606725.789 8 108289093.815 8       821.588 8        49.889    20606736.020 7
  84381139.179 7       640.193 7        44.741                                  
  24267886.293 7 127528602.999 7      1264.752 7        42.558    24267897.496 7
  99372989.330 7       985.877 7        44.741                                  
  21479434.980 8 112875197.223 8      2387.525 8        48.609    21479444.379 7
  87954735.386 7      1860.252 7        44.741                                  
  23874351.027 6 125460569.207 6      3662.213 6        41.309    23874360.801 6
  97761521.394 6      2853.689 6        37.252                                  
  22788601.004 7 119754915.620 7      -832.846 7        44.449    22788612.105 6
  93315548.479 6      -648.986 6        40.804                                  
  20409147.184 8 107250821.132 8      -686.166 8        52.236                  
         0.000 0         0.000 0         0.000                                  
 22  6 20  0 42  0.0000000  0 10G01G07G08G13G14G15G17G19G21G30       0.000000000
  22050499.500 7 115876164.688 7      1931.342 7        44.845    22050513.652 7
  90293185.638 7      1504.516 7        44.741                                  
  21282466.203 7 111840127.523 7     -2273.561 7        47.646    21282476.488 7
  87148175.271 7     -1771.479 7        44.741                                  
  23676133.770 7 124418924.464 7     -3437.525 7        42.704    23676148.840 5
  96949827.890 5     -2678.354 5        31.451                                  
  22181889.652 7 116566627.510 7       326.029 7        46.897    22181900.754 7
  90831170.480 7       254.107 7        42.906                                  
  20602061.824 8 108264585.213 8       812.221 8        49.468    20602071.969 7
  84362041.541 7       633.072 7        44.741                                  
  24260714.785 6 127490920.554 6      1247.104 6        41.438    24260727.090 7
  99343626.418 7       971.666 7        44.741                                  
  21465841.219 7 112803764.607 7      2374.604 7        47.812    21465850.406 7
  87899073.616 7      1850.297 7        44.741                                  
  23853460.004 6 125350784.507 6      3656.928 6        41.864    23853469.320 6
  97675974.901 6      2849.477 6        38.014                                  
  22793409.434 7 119780175.430 7      -851.041 7        45.855    22793418.879 6
  93335231.451 6      -663.178 6        41.401                                  
  20413113.090 8 107271662.973 8      -703.346 8        52.286    20413125.180 7
  83588335.408 7      -548.139 7        44.741                                  
 22  6 20  0 42 30.0000000  0 10G01G07G08G13G14G15G17G19G21G30       0.000000000
  22039527.758 7 115818506.703 7      1912.455 7        44.651    22039542.082 7
  90248257.308 7      1489.992 7        44.741                                  
  21295484.105 8 111908534.915 8     -2287.719 8        48.245    21295494.781 7
  87201479.686 7     -1782.898 7        44.741                                  
  23695771.109 7 124522114.801 7     -3442.680 7        43.026    23695785.387 5
  97030235.918 5     -2682.469 5        33.012                                  
  22180085.953 7 116557147.924 7       305.582 7        46.824    22180095.309 7
  90823783.793 7       238.117 7        42.239                                  
  20597450.230 8 108240350.235 8       802.689 8        49.443    20597459.977 7
  84343157.137 7       625.559 7        44.741                                  
  24253648.305 6 127453784.717 6      1227.611 6        40.931    24253660.441 7
  99314689.388 7       956.926 7        44.741                                  
  21452322.297 8 112732721.151 8      2361.049 8        48.096    21452332.297 7
  87843715.093 7      1839.738 7        44.741                                  
  23832597.320 6 125241150.398 6      3650.873 6        41.242    23832607.352 6
  97590545.742 6      2844.836 6        39.199                                  
  22798319.035 7 119805978.652 7      -869.613 7        45.678    22798328.578 6
  93355337.855 6      -677.664 6        41.732                                  
  20417176.590 8 107293017.607 8      -720.863 8        51.803    20417189.238 7
  83604976.357 7      -561.629 7        44.741                                  
 22  6 20  0 43  0.0000000  0 10G01G07G08G13G14G15G17G19G21G30       0.000000000
  22028658.527 7 115761389.785 7      1895.137 7        44.335    22028672.852 7
  90203750.624 7      1476.852 7        44.741                                  
  21308580.484 8 111977356.254 8     -2300.801 8        48.351    21308590.285 7
  87255106.646 7     -1792.795 7        44.741                                  
  23715430.109 6 124625429.733 6     -3446.328 6        41.107    23715445.922 5
  97110740.955 5     -2684.943 5        33.212                                  
  22178398.930 7 116548279.522 7       285.566 7        47.569    22178407.344 7
  90816873.333 7       222.479 7        42.810                                  
  20592890.211 8 108216388.778 8       794.121 8        48.974    20592900.715 7
  84324485.849 7       618.904 7        44.741                                  
  24246685.914 6 127417196.203 6      1210.508 6        40.785    24246697.418 7
  99286178.878 7       942.984 7        44.741                                  
  21438877.555 7 112662067.514 7      2348.652 7        47.834    21438887.500 7
  87788660.318 7      1830.328 7        44.741                                  
  23811763.313 6 125131668.092 6      3647.127 6        40.556    23811773.371 6
  97505234.873 6      2841.949 6        38.331                                  
  22803332.152 7 119832324.100 7      -886.777 7        44.889    22803342.254 6
  93375866.754 6      -690.920 6        41.447                                  
  20421337.879 8 107314884.846 8      -737.461 8        51.823                  
         0.000 0         0.000 0         0.000                                  
 22  6 20  0 43 30.0000000  0 10G01G07G08G13G14G15G17G19G21G30       0.000000000
  22017893.336 7 115704817.023 7      1877.057 7        44.636    22017908.090 7
  90159667.989 7      1462.551 7        44.741                                  
  21321754.855 7 112046590.786 7     -2314.682 7        47.752    21321765.219 7
  87309055.575 7     -1803.563 7        44.741                                  
  23735114.164 6 124728866.908 6     -3449.721 6        40.895    23735131.223 5
  97191341.241 5     -2687.996 5        33.461                                  
  22176827.109 7 116540022.510 7       265.436 7        47.005    22176837.770 7
  90810439.290 7       206.848 7        42.943                                  
  20588382.430 8 108192701.303 8       785.279 8        48.836    20588393.090 7
  84306028.073 7       611.848 7        44.741                                  
  24239827.418 6 127381156.581 6      1192.369 6        40.231    24239839.824 7
  99258096.015 7       929.406 7        44.741                                  
  21425507.090 8 112591804.927 8      2335.787 8        48.573    21425516.176 7
  87733910.279 7      1820.305 7        44.741                                  
  23790958.508 6 125022339.929 6      3642.428 6        40.822    23790968.895 6
  97420044.149 6      2838.156 6        38.822                                  
  22808449.734 7 119859211.293 7      -904.955 7        45.773    22808459.477 6
  93396817.790 6      -705.125 6        41.849                                  
  20425596.910 8 107337265.222 8      -754.369 8        51.499    20425608.973 7
  83639454.965 7      -588.055 7        44.741                                  
 22  6 20  0 44  0.0000000  0 10G01G07G08G13G14G15G17G19G21G30       0.000000000
  22007232.242 7 115648791.178 7      1858.414 7        44.621    22007246.250 7
  90116011.474 7      1448.125 7        44.741                                  
  21335008.715 8 112116237.552 8     -2328.109 8        48.830    21335018.316 7
  87363325.743 7     -1813.965 7        44.741                                  
  23754821.184 7 124832424.320 7     -3453.129 7        42.198    23754836.996 5
  97272035.200 5     -2690.881 5        34.145                                  
  22175372.691 7 116532377.201 7       244.762 7        47.403    22175382.164 7
  90804481.872 7       190.605 7        43.082                                  
  20583927.086 8 108169288.112 8       776.012 8        49.225    20583937.375 7
  84287784.016 7       604.453 7        44.741                                  
  24233075.023 6 127345666.877 6      1173.336 6        40.858    24233087.285 7
  99230441.675 7       914.805 7        44.741                                  
  21412210.957 8 112521934.484 8      2322.633 8        48.318    21412220.730 7
  87679465.769 7      1809.980 7        44.741                                  
  23770184.676 7 124913167.858 7      3636.285 7        42.981    23770194.363 6
  97334974.994 6      2833.496 6        39.584                                  
  22813668.266 7 119886639.392 7      -923.266 7        45.866    22813678.598 7
  93418190.315 7      -719.414 7        42.234                                  
  20429953.313 8 107360158.834 8      -771.645 8        51.899    20429965.547 7
  83657294.121 7      -601.426 7        44.741                                  
 22  6 20  0 44 30.0000000  0 10G01G07G08G13G14G15G17G19G21G30       0.000000000
  21996674.555 7 115593314.817 7      1839.957 7        44.512    21996689.980 7
  90072783.180 7      1433.781 7        44.741                                  
  21348340.227 8 112186295.325 8     -2342.189 8        48.041    21348349.613 7
  87417916.152 7     -1824.986 7        44.741                                  
  23774550.047 6 124936099.973 6     -3457.795 6        41.950    23774566.199 5
  97352821.337 5     -2694.400 5        34.439                                  
  22174034.129 7 116525343.364 7       224.371 7        47.546    22174044.191 7
  90799000.948 7       174.877 7        43.291                                  
  20579524.070 8 108146149.401 8       766.852 8        49.412    20579534.918 7
  84269753.826 7       597.453 7        44.741                                  
  24226426.750 6 127310728.007 6      1155.367 6        41.656    24226437.324 7
  99203216.609 7       900.988 7        44.741                                  
  21398990.043 8 112452457.706 8      2309.352 8        48.742    21398999.457 7
  87625328.039 7      1799.348 7        44.741                                  
  23749439.703 7 124804153.883 7      3631.773 7        42.433    23749449.875 6
  97250029.047 6      2829.992 6        39.580                                  
  22818990.488 7 119914607.765 7      -941.352 7        45.418    22819000.895 6
  93439983.845 6      -733.443 6        41.713                                  
  20434407.398 8 107383565.830 8      -788.793 8        51.811    20434419.945 6
  83675533.294 6      -614.693 6        40.676                                  
 22  6 20  0 45  0.0000000  0 10G01G07G08G13G14G15G17G19G21G30       0.000000000
  21986222.848 7 115538390.881 7      1821.166 7        44.303    21986237.832 7
  90029985.316 7      1419.395 7        44.741                                  
  21361749.668 8 112256763.146 8     -2356.059 8        48.172    21361759.070 7
  87472826.103 7     -1835.898 7        44.741                                  
  23794301.754 7 125039891.161 7     -3462.191 7        42.583    23794316.477 5
  97433697.513 5     -2697.852 5        34.335                                  
  22172812.426 7 116518921.459 7       203.393 7        47.848    22172822.398 7
  90793996.860 7       158.457 7        43.336                                  
  20575173.375 8 108123285.575 8       757.533 8        49.145    20575183.922 7
  84251937.838 7       590.020 7        44.741                                  
  24219882.027 6 127276340.771 6      1136.400 6        40.315    24219893.402 7
  99176421.367 7       885.684 7        44.741                                  
  21385844.059 8 112383375.782 8      2295.951 8        48.013    21385853.219 7
  87571497.962 7      1788.828 7        44.741                                  
  23728726.160 7 124695300.083 7      3625.326 7        42.751    23728735.230 6
  97165207.945 6      2824.902 6        40.362                                  
  22824415.262 7 119943115.935 7      -959.752 7        44.528    22824425.895 6
  93462197.972 6      -747.930 6        41.334                                  
  20438959.594 8 107407486.523 8      -805.943 8        51.549    20438972.172 7
  83694173.752 7      -628.145 7        44.741                                  
 22  6 20  0 45 30.0000000  0 10G01G07G08G13G14G15G17G19G21G30       0.000000000
  21975877.320 7 115484021.648 7      1802.582 7        44.946    21975891.418 7
  89987619.707 7      1404.877 7        44.741                                  
  21375237.246 8 112327639.780 8     -2369.545 8        48.566    21375246.590 7
  87528054.582 7     -1846.236 7        44.741                                  
  23814074.070 6 125143796.062 6     -3465.678 6        41.978    23814088.566 5
  97514662.251 5     -2700.279 5        33.447                                  
  22171706.629 7 116513110.926 7       183.443 7        47.049    22171716.988 7
  90789469.127 7       142.846 7        43.907                                  
  20570874.770 8 108100696.572 8       748.109 8        48.917    20570885.371 7
  84234336.003 7       582.904 7        44.741                                  
  24213444.195 6 127242505.891 6      1118.344 6        40.634    24213455.785 7
  99150056.534 7       871.361 7        44.741                                  
  21372774.633 8 112314689.442 8      2282.758 8        49.035    21372783.547 7
  87517976.140 7      1778.861 7        44.741                                  
  23708042.098 7 124586607.714 7      3619.770 7        42.117    23708051.227 6
  97080512.613 6      2820.541 6        38.122                                  
  22829942.637 7 119972162.296 7      -977.104 7        44.384    22829952.895 6
  93484831.491 6      -761.354 6        40.910                                  
  20443609.527 8 107431920.726 8      -823.275 8        51.717    20443621.762 7
  83713214.347 7      -641.510 7        44.741                                  
 22  6 20  0 46  0.0000000  0 10G01G07G08G13G14G15G17G19G21G30       0.000000000
  21965637.168 7 115430209.877 7      1783.988 7        45.072    21965650.988 7
  89945688.447 7      1390.211 7        44.741                                  
  21388802.293 8 112398923.995 8     -2383.238 8        48.688    21388811.867 7
  87583600.678 7     -1856.959 7        44.741                                  
  23833866.621 7 125247811.805 7     -3469.273 7        42.144    23833882.391 5
  97595713.374 5     -2702.740 5        33.476                                  
  22170717.512 8 116507911.964 8       162.855 8        48.110    22170727.383 7
  90785417.975 7       126.813 7        43.772                                  
  20566628.879 8 108078382.623 8       738.793 8        49.523    20566639.410 7
  84216948.488 7       575.875 7        44.741                                  
  24207109.594 6 127209224.447 6      1099.125 6        40.477    24207122.012 7
  99124122.947 7       857.027 7        44.741                                  
  21359778.816 8 112246400.008 8      2269.242 8        48.103    21359788.316 7
  87464763.604 7      1768.141 7        44.741                                  
  23687389.285 6 124478078.655 6      3614.711 6        41.037    23687397.699 5
  96995944.491 5      2816.695 5        35.942                                  
  22835572.520 7 120001746.311 7      -995.465 7        45.353    22835582.051 6
  93507883.955 6      -775.707 6        41.190                                  
  20448356.535 8 107456868.507 8      -840.152 8        51.800                  
         0.000 0         0.000 0         0.000                                  
 22  6 20  0 46 30.0000000  0 10G01G07G08G13G14G15G17G19G21G30       0.000000000
  21955503.582 7 115376957.856 7      1766.385 7        45.003    21955517.375 7
  89904193.379 7      1376.486 7        44.741                                  
  21402444.289 8 112470614.735 8     -2395.646 8        48.325    21402454.074 7
  87639463.537 7     -1866.680 7        44.741                                  
  23853681.457 6 125351936.740 6     -3471.799 6        40.931    23853697.398 5
  97676849.646 5     -2705.215 5        33.167                                  
  22169844.121 7 116503324.247 7       143.533 7        47.280    22169853.063 7
  90781843.082 7       111.855 7        42.821                                  
  20562434.609 8 108056343.792 8       730.721 8        49.320    20562445.254 7
  84199775.389 7       569.238 7        44.741                                  
  24200882.129 6 127176497.209 6      1082.674 6        40.858    24200893.637 7
  99098621.277 7       842.949 7        44.741                                  
  21346859.371 8 112178508.146 8      2257.127 8        48.396    21346868.117 7
  87411860.845 7      1758.947 7        44.741                                  
  23666768.207 7 124369715.258 7      3610.174 7        42.278    23666777.754 6
  96911505.478 6      2813.166 6        37.001                                  
  22841303.535 7 120031866.825 7     -1012.658 7        43.887    22841313.938 6
  93531354.465 6      -789.199 6        40.265                                  
  20453202.098 8 107482329.834 8      -856.740 8        51.806    20453214.176 7
  83752492.099 7      -667.852 7        44.741                                  
 22  6 20  0 47  0.0000000  0 10G01G07G08G13G14G15G17G19G21G30       0.000000000
  21945477.328 7 115324268.766 7      1746.473 7        45.208    21945491.910 7
  89863136.975 7      1360.813 7        44.741                                  
  21416163.855 8 112542711.073 8     -2410.225 8        48.185    21416173.512 7
  87695642.455 7     -1877.838 7        44.741                                  
  23873516.344 6 125456168.416 6     -3475.967 6        41.242    23873531.070 5
  97758069.014 5     -2708.951 5        32.916                                  
  22169087.363 7 116499348.344 7       122.000 7        47.443    22169097.094 7
  90778744.964 7        95.109 7        42.813                                  
  20558293.441 8 108034580.824 8       720.828 8        49.128    20558303.930 7
  84182817.206 7       561.652 7        44.741                                  
  24194760.715 6 127144325.450 6      1063.094 6        41.595    24194771.832 7
  99073552.346 7       828.703 7        44.741                                  
  21334015.641 8 112111015.649 8      2243.152 8        48.285    21334025.828 7
  87359269.291 7      1747.824 7        44.741                                  
  23646180.199 7 124261519.809 7      3603.895 7        42.959    23646189.527 6
  96827197.332 6      2808.313 6        39.768                                  
  22847136.875 7 120062523.567 7     -1030.969 7        44.286    22847148.082 6
  93555242.818 6      -803.307 6        40.163                                  
  20458145.406 8 107508305.197 8      -874.641 8        51.910    20458156.984 7
  83772732.604 7      -681.432 7        44.741                                  
 22  6 20  0 47 30.0000000  0 10G01G07G08G13G14G15G17G19G21G30       0.000000000
  21935557.910 7 115272144.75017      1727.877 7        44.974    21935572.691 7
  89822520.88417      1346.256 7        44.741                                  
  21429959.777 7 112615211.41617     -2423.412 7        47.935    21429969.980 7
  87752136.17117     -1888.412 7        44.741                                  
  23893370.633 6 125560504.362 6     -3479.545 6        41.438    23893386.219 5
  97839369.652 5     -2711.008 5        32.751                                  
  22168447.453 7 116495983.844 7       101.529 7        47.530    22168457.570 7
  90776123.245 7        79.127 7        43.139                                  
  20554204.730 8 108013093.564 8       711.354 8        49.538    20554215.234 7
  84166073.865 7       554.576 7        44.741                                  
  24188744.844 6 127112709.61616      1043.873 6        41.687    24188755.391 7
  99048916.65717       814.049 7        44.741                                  
  21321248.121 7 112043922.990 7      2229.574 7        47.870    21321258.480 7
  87306989.301 7      1737.428 7        44.741                                  
  23625623.184 7 124153493.81817      3597.543 7        43.507    23625632.598 6
  96743021.28416      2803.189 6        40.027                                  
  22853073.047 7 120093714.98017     -1048.373 7        44.236    22853083.434 6
  93579547.77616      -816.830 6        39.976                                  
  20463185.535 8 107534794.27118      -891.400 8        51.665    20463197.840 7
  83793374.41017      -694.643 7        44.741                                  
 22  6 20  0 48  0.0000000  0 10G01G07G08G13G14G15G17G19G21G30       0.000000000
  21925746.879 7 115220588.494 7      1708.967 7        44.559    21925762.031 7
  89782347.183 7      1331.592 7        44.741                                  
  21443833.605 8 112688115.052 8     -2436.871 8        48.628    21443843.363 7
  87808944.144 7     -1899.033 7        44.741                                  
  23913244.164 6 125664942.563 6     -3482.301 6        40.273    23913260.234 5
  97920749.952 5     -2713.779 5        32.900                                  
  22167923.375 7 116493230.355 7        81.525 7        47.855    22167933.820 7
  90773977.646 7        63.506 7        44.018                                  
  20550168.176 8 107991882.332 8       702.736 8        49.166    20550178.949 7
  84149545.636 7       547.412 7        44.741                                  
  24182834.355 6 127081650.804 6      1025.822 6        41.209    24182845.516 7
  99024714.975 7       799.717 7        44.741                                  
  21308557.508 8 111977231.077 8      2216.369 8        48.409    21308567.121 7
  87255021.567 7      1727.119 7        44.741                                  
  23605099.004 7 124045638.692 7      3592.326 7        43.070    23605107.875 6
  96658978.336 6      2799.229 6        38.618                                  
  22859109.871 7 120125440.639 7     -1066.402 7        43.199    22859120.461 6
  93604269.047 6      -830.889 6        39.359                                  
  20468324.176 8 107561797.145 8      -908.570 8        52.112    20468336.293 7
  83814415.586 7      -707.920 7        44.741                                  
 22  6 20  0 48 30.0000000  0 10G01G07G08G13G14G15G17G19G21G30       0.000000000
  21916044.734 7 115169602.407 7      1690.264 7        44.786    21916059.586 7
  89742617.793 7      1316.873 7        44.741                                  
  21457782.691 7 112761420.331 7     -2450.242 7        47.677    21457792.867 7
  87866065.079 7     -1909.436 7        44.741                                  
  23933138.578 6 125769481.135 6     -3485.887 6        38.854    23933153.059 5
  98002208.467 5     -2716.232 5        32.474                                  
  22167515.906 7 116491087.864 7        61.457 7        47.145    22167525.121 7
  90772308.142 7        47.850 7        43.105                                  
  20546184.410 8 107970947.440 8       693.018 8        49.123    20546194.770 7
  84133232.724 7       540.271 7        44.741                                  
  24177029.172 6 127051149.576 6      1007.861 6        40.059    24177041.266 7
  99000947.861 7       785.057 7        44.741                                  
  21295943.152 8 111910941.657 8      2202.861 8        48.219    21295952.469 7
  87203367.502 7      1716.678 7        44.741                                  
  23584607.727 7 123937956.591 7      3586.416 7        42.959    23584616.711 6
  96575070.209 6      2794.625 6        38.455                                  
  22865248.719 7 120157699.239 7     -1084.305 7        43.488    22865258.906 6
  93629405.588 6      -845.021 6        38.662                                  
  20473560.680 8 107589313.833 8      -925.848 8        51.286    20473572.516 7
  83835856.146 7      -721.428 7        44.741                                  
 22  6 20  0 49  0.0000000  0 10G01G07G08G13G14G15G17G19G21G30       0.000000000
  21906452.059 7 115119188.885 7      1670.740 7        45.832    21906465.496 7
  89703334.507 7      1301.988 7        44.741                                  
  21471808.199 8 112835126.251 8     -2463.732 8        48.027    21471819.145 7
  87923498.218 7     -1919.711 7        44.741                                  
  23953049.742 6 125874117.736 6     -3488.652 6        39.880    23953065.496 5
  98083743.411 5     -2718.988 5        31.693                                  
  22167224.352 7 116489555.915 7        40.916 7        47.530    22167234.039 7
  90771114.376 7        31.930 7        42.675                                  
  20542253.168 8 107950288.740 8       683.963 8        48.990    20542263.828 7
  84117135.009 7       533.023 7        44.741                                  
  24171331.891 6 127021206.586 6       988.943 6        40.822    24171343.566 7
  98977615.674 7       770.348 7        44.741                                  
  21283404.645 8 111845054.882 8      2189.295 8        48.279    21283415.293 7
  87152027.190 7      1706.129 7        44.741                                  
  23564149.223 6 123830449.269 6      3579.959 6        41.835    23564159.023 6
  96491298.241 6      2789.586 6        37.198                                  
  22871488.590 7 120190489.779 7     -1102.033 7        42.821    22871498.949 6
  93654956.626 6      -858.773 6        38.294                                  
  20478894.355 8 107617344.037 8      -943.205 8        51.574                  
         0.000 0         0.000 0         0.000                                  
 22  6 20  0 49 30.0000000  0 10G01G07G08G13G14G15G17G19G21G30       0.000000000
  21896967.609 7 115069350.599 7      1652.139 7        44.831    21896981.977 7
  89664499.479 7      1287.350 7        44.741                                  
  21485910.023 7 112909231.917 7     -2476.277 7        47.797    21485920.426 7
  87981242.830 7     -1929.604 7        44.741                                  
  23972979.559 6 125978850.336 6     -3492.156 6        39.188    23972995.367 5
  98165353.095 5     -2720.990 5        30.437                                  
  22167049.180 7 116488634.652 7        20.869 7        47.459    22167058.609 7
  90770396.509 7        16.314 7        42.929                                  
  20538374.633 8 107929906.859 8       675.322 8        49.283    20538385.109 7
  84101253.019 7       526.354 7        44.741                                  
  24165739.973 6 126991822.829 6       970.830 6        41.776    24165752.293 7
  98954719.254 7       756.314 7        44.741                                  
  21270944.172 8 111779572.479 8      2176.553 8        48.409    21270954.320 7
  87101001.947 7      1696.002 7        44.741                                  
  23543724.824 6 123723118.981 6      3575.186 6        41.747    23543734.957 6
  96407664.272 6      2785.787 6        37.649                                  
  22877829.969 7 120223811.515 7     -1118.992 7        43.221    22877839.754 6
  93680921.588 6      -871.928 6        38.459                                  
  20484326.094 8 107645888.001 8      -959.441 8        51.262    20484338.473 7
  83879941.811 7      -747.572 7        44.741                                  
 22  6 20  0 50  0.0000000  0 10G01G07G08G13G14G15G17G19G21G30       0.000000000
  21887593.828 7 115020089.813 7      1632.408 7        45.531    21887607.938 7
  89626114.433 7      1272.408 7        44.741                                  
  21500088.742 8 112983735.505 8     -2489.465 8        49.018    21500098.473 7
  88039297.519 7     -1940.248 7        44.741                                  
  23992926.883 6 126083676.128 6     -3495.773 6        40.231    23992942.492 5
  98247035.441 5     -2724.154 5        31.337                                  
  22166988.961 7 116488323.646 7         0.182 7        46.014    22167000.539 7
  90770154.138 7         0.201 7        42.696                                  
  20534548.953 8 107909801.795 8       666.021 8        49.209    20534559.527 7
  84085586.722 7       519.029 7        44.741                                  
  24160254.141 6 126962998.579 6       952.174 6        40.595    24160266.730 7
  98932258.806 7       742.018 7        44.741                                  
  21258560.453 8 111714494.857 8      2163.033 8        48.622    21258569.852 7
  87050292.129 7      1685.357 7        44.741                                  
  23523334.969 7 123615967.043 7      3569.010 7        43.048    23523344.340 6
  96324169.284 6      2781.080 6        38.579                                  
  22884271.418 7 120257663.509 7     -1136.830 7        43.427    22884281.207 6
  93707299.722 6      -885.775 6        38.657                                  
  20489855.480 8 107674945.443 8      -976.654 8        51.620    20489867.898 7
  83902583.941 7      -760.873 7        44.741                                  
 22  6 20  0 50 30.0000000  0 10G01G07G08G13G14G15G17G19G21G30       0.000000000
  21878330.266 7 114971409.343 7      1612.889 7        45.222    21878344.633 7
  89588181.615 7      1256.693 7        44.741                                  
  21514341.047 8 113058636.354 8     -2503.049 8        48.298    21514351.691 7
  88097661.744 7     -1950.436 7        44.741                                  
  24012891.848 6 126188593.850 6     -3498.459 6        37.179    24012908.203 4
  98328789.370 4     -2726.588 4        28.486                                  
  22167046.262 7 116488622.716 7       -20.100 7        47.058    22167056.910 7
  90770387.156 7       -15.592 7        42.535                                  
  20530775.684 8 107889974.182 8       656.248 8        49.392    20530786.574 7
  84070136.631 7       511.283 7        44.741                                  
  24154875.664 6 126934735.080 6       932.947 6        39.024    24154888.930 7
  98910235.314 7       726.771 7        44.741                                  
  21246253.324 8 111649823.674 8      2148.982 8        48.272    21246264.039 7
  86999899.004 7      1674.369 7        44.741                                  
  23502978.918 6 123508995.862 6      3563.201 6        41.978    23502987.547 6
  96240815.114 6      2776.576 6        36.177                                  
  22890813.219 7 120292044.425 7     -1154.572 7        42.913    22890823.676 6
  93734090.041 6      -899.596 6        37.958                                  
  20495482.918 8 107704516.766 8      -994.475 8        51.708    20495494.852 7
  83925624.509 7      -774.850 7        44.741                                  
 22  6 20  0 51  0.0000000  0 10G01G07G08G13G14G15G17G19G21G30       0.000000000
  21869177.391 7 114923310.986 7      1593.258 7        45.568    21869191.969 7
  89550702.384 7      1241.387 7        44.741                                  
  21528669.555 8 113133932.434 8     -2517.035 8        48.110    21528679.773 7
  88156333.963 7     -1961.172 7        44.741                                  
  24032874.777 6 126293600.357 6     -3502.248 6        38.554    24032890.430 4
  98410612.559 4     -2728.809 4        27.539                                  
  22167219.547 7 116489531.190 7       -40.805 7        46.852    22167230.422 7
  90771095.020 7       -31.797 7        42.741                                  
  20527055.578 8 107870423.663 8       646.676 8        49.346    20527065.754 7
  84054902.447 7       504.004 7        44.741                                  
  24149605.160 6 126907032.811 6       913.688 6        41.209    24149616.637 7
  98888649.115 7       712.012 7        44.741                                  
  21234024.398 8 111585558.948 8      2134.977 8        48.688    21234034.359 7
  86949822.604 7      1663.652 7        44.741                                  
  23482657.574 7 123402206.771 7      3556.109 7        42.704    23482666.418 6
  96157602.826 6      2770.957 6        37.192                                  
  22897456.973 7 120326952.860 7     -1172.465 7        43.777    22897467.363 6
  93761291.403 6      -913.691 6        38.588                                  
  20501207.598 8 107734601.190 8     -1011.898 8        51.387    20501219.875 7
  83949068.902 7      -788.242 7        44.741                                  
 22  6 20  0 51 30.0000000  0 10G01G07G08G13G14G15G17G19G21G30       0.000000000
  21860135.652 7 114875797.168 7      1573.693 7        45.086    21860150.020 7
  89513678.624 7      1226.572 7        44.741                                  
  21543073.000 8 113209622.533 8     -2529.744 8        48.048    21543083.602 7
  88215313.209 7     -1971.064 7        44.741                                  
  24052873.402 6 126398693.928 6     -3504.197 6        37.812    24052888.969 4
  98492503.538 4     -2730.889 4        29.986                                  
  22167507.402 7 116491048.589 7       -60.760 7        46.210    22167518.520 7
  90772277.401 7       -47.373 7        42.629                                  
  20523387.945 8 107851150.354 8       637.697 8        49.068    20523398.418 7
  84039884.277 7       496.982 7        44.741                                  
  24144440.496 6 126879891.948 6       894.826 6        41.209    24144451.816 7
  98867500.413 7       697.334 7        44.741                                  
  21221873.133 8 111521701.797 8      2121.662 8        48.473    21221883.363 7
  86900063.779 7      1652.998 7        44.741                                  
  23462371.102 6 123295601.808 6      3550.393 6        41.374    23462381.504 6
  96074534.019 6      2766.611 6        38.662                                  
  22904199.992 7 120362387.691 7     -1190.096 7        43.427    22904210.410 6
  93788902.929 6      -927.314 6        39.315                                  
  20507029.820 8 107765198.498 8     -1028.357 8        51.016    20507042.184 7
  83972909.941 7      -801.318 7        44.741                                  
 22  6 20  0 52  0.0000000  0 10G01G07G08G13G14G15G17G19G21G30       0.000000000
  21851206.047 7 114828870.710 7      1554.471 7        45.808    21851220.500 7
  89477112.559 7      1211.240 7        44.741                                  
  21557550.945 7 113285706.000 7     -2542.678 7        47.662    21557561.063 7
  88274598.986 7     -1981.045 7        44.741                                  
  24072887.859 6 126503872.880 6     -3507.188 6        38.736    24072903.242 5
  98574461.075 5     -2732.881 5        30.321                                  
  22167912.832 7 116493175.511 7       -80.920 7        46.654    22167923.332 7
  90773934.694 7       -63.018 7        43.226                                  
  20519773.492 8 107832155.267 8       628.436 8        49.478    20519783.707 7
  84025082.899 7       489.775 7        44.741                                  
  24139383.105 6 126853314.004 6       876.639 6        41.687    24139394.680 7
  98846790.324 7       683.076 7        44.741                                  
  21209798.512 7 111458253.841 7      2108.221 7        47.136    21209809.316 7
  86850623.840 7      1642.549 7        44.741                                  
  23442118.492 6 123189183.121 6      3544.041 6        37.585    23442130.496 5
  95991610.431 5      2761.572 5        34.022                                  
  22911043.125 7 120398348.953 7     -1207.678 7        43.682    22911053.273 6
  93816924.657 6      -941.123 6        39.814                                  
  20512950.297 8 107796309.289 8     -1045.471 8        51.299    20512962.645 7
  83997152.084 7      -814.697 7        44.741                                  
 22  6 20  0 52 30.0000000  0 10G01G07G08G13G14G15G17G19G21G30       0.000000000
  21842388.238 7 114782533.039 7      1534.582 7        45.519    21842402.590 7
  89441005.302 7      1195.582 7        44.741                                  
  21572103.770 7 113362180.745 7     -2556.063 7        47.179    21572114.258 7
  88334189.627 7     -1991.664 7        44.741                                  
  24092919.672 6 126609134.233 6     -3510.418 6        39.926    24092933.492 5
  98656482.809 5     -2735.375 5        30.660                                  
  22168433.055 7 116495910.453 7      -101.766 7        46.417    22168443.387 7
  90776065.802 7       -79.281 7        42.943                                  
  20516211.160 8 107813437.565 8       618.996 8        48.836    20516221.680 7
  84010497.685 7       482.262 7        44.741                                  
  24134433.215 6 126827298.701 6       857.824 6        41.072    24134444.219 7
  98826518.644 7       668.219 7        44.741                                  
  21197803.203 8 111395215.019 8      2093.938 8        48.178    21197813.176 7
  86801502.691 7      1631.695 7        44.741                                  
  23421905.559 7 123082951.492 7      3537.100 7        42.632    23421913.914 6
  95908832.574 6      2756.168 6        36.639                                  
  22917986.176 7 120434833.944 7     -1225.262 7        43.758    22917996.621 6
  93845354.484 6      -954.633 6        39.931                                  
  20518967.969 8 107827932.366 8     -1062.938 8        51.464    20518980.332 7
  84021794.415 7      -828.207 7        44.741                                  
 22  6 20  0 53  0.0000000  0 10G01G07G08G13G14G15G17G19G21G30       0.000000000
  21833682.688 7 114736787.110 7      1514.781 7        44.667    21833697.738 7
  89405359.110 7      1180.393 7        44.741                                  
  21586730.926 7 113439046.175 7     -2568.832 7        46.888    21586741.316 7
  88394084.717 7     -2001.600 7        44.741                                  
  24112965.004 6 126714476.269 6     -3512.797 6        37.885    24112979.500 4
  98738567.392 4     -2737.049 4        28.993                                  
  22169069.832 7 116499253.572 7      -121.586 7        46.587    22169079.090 7
  90778670.800 7       -94.686 7        42.665                                  
  20512702.277 8 107794998.161 8       609.957 8        49.166    20512713.066 7
  83996129.315 7       475.100 7        44.741                                  
  24129588.852 6 126801846.717 6       839.059 6        40.477    24129600.516 7
  98806685.939 7       653.713 7        44.741                                  
  21185885.664 8 111332586.701 8      2080.602 8        48.305    21185895.496 7
  86752701.408 7      1621.584 7        44.741                                  
  23401726.895 6 122976909.736 6      3531.070 6        41.893    23401735.680 6
  95826202.597 6      2751.447 6        38.098                                  
  22925029.320 7 120471842.559 7     -1242.289 7        43.832    22925039.496 6
  93874192.359 6      -968.045 6        40.052                                  
  20525083.594 8 107860068.225 8     -1079.789 8        51.458    20525095.328 7
  84046834.309 7      -841.443 7        44.741                                  
 22  6 20  0 53 30.0000000  0 10G01G07G08G13G14G15G17G19G21G30       0.000000000
  21825091.535 7 114691635.570 7      1494.949 7        46.058    21825105.629 7
  89370176.097 7      1165.029 7        44.741                                  
  21601432.422 7 113516301.011 7     -2581.320 7        47.892    21601442.684 7
  88454283.223 7     -2011.377 7        44.741                                  
  24133026.438 6 126819897.425 6     -3514.814 6        39.241    24133040.277 4
  98820713.615 4     -2738.271 4        28.396                                  
  22169821.441 7 116503204.745 7      -141.945 7        46.731    22169831.586 7
  90781749.626 7      -110.576 7        42.413                                  
  20509246.840 8 107776837.694 8       600.711 8        49.473    20509256.770 7
  83981978.279 7       468.291 7        44.741                                  
  24124852.742 6 126776959.485 6       820.047 6        39.834    24124864.848 7
  98787293.292 7       639.229 7        44.741                                  
  21174046.043 8 111270370.110 8      2067.332 8        48.523    21174055.859 7
  86704220.977 7      1610.596 7        44.741                                  
  23381582.645 6 122871059.982 6      3525.848 6        39.024    23381592.977 5
  95743722.316 5      2747.471 5        33.882                                  
  22932170.555 7 120509373.510 7     -1259.680 7        43.547    22932182.273 6
  93903437.229 6      -981.572 6        40.649                                  
  20531296.305 8 107892716.998 8     -1096.477 8        51.552    20531308.566 7
  84072276.898 7      -854.502 7        44.741                                  
 22  6 20  0 54  0.0000000  0 10G01G07G08G13G14G15G17G19G21G30       0.000000000
  21816612.254 7 114647079.964 7      1475.611 7        45.353    21816627.035 7
  89335457.445 7      1149.758 7        44.741                                  
  21616207.012 7 113593943.303 7     -2594.467 7        46.664    21616217.313 7
  88514783.650 7     -2021.531 7        44.741                                  
  24153101.723 6 126925395.038 6     -3517.963 6        38.165    24153116.203 4
  98902919.471 4     -2740.926 4        29.446                                  
  22170688.637 7 116507762.746 7      -161.830 7        45.506    22170698.137 6
  90785301.277 6      -126.082 6        41.700                                  
  20505843.746 8 107758955.654 8       591.607 8        49.407    20505854.320 7
  83968044.222 7       460.988 7        44.741                                  
  24120224.637 6 126752636.507 6       801.021 6        40.477    24120236.215 7
  98768340.321 7       624.523 7        44.741                                  
  21162284.949 8 111208565.362 8      2053.678 8        48.117    21162294.277 7
  86656061.436 7      1599.854 7        44.741                                  
  23361477.434 6 122765402.834 6      3518.561 6        40.895    23361486.777 5
  95661392.126 5      2741.787 5        35.795                                  
  22939411.066 7 120547425.191 7     -1276.947 7        42.959    22939423.371 6
  93933087.881 6      -995.008 6        40.315                                  
  20537606.574 8 107925877.793 8     -1113.803 8        51.454    20537618.695 7
  84098114.431 7      -867.762 7        44.741                                  
 22  6 20  0 54 30.0000000  0 10G01G07G08G13G14G15G17G19G21G30       0.000000000
  21808247.336 7 114603123.015 7      1455.182 7        45.262    21808262.445 7
  89301205.293 7      1133.750 7        44.741                                  
  21631056.035 7 113671972.138 7     -2607.689 7        47.971    21631066.066 7
  88575585.284 7     -2032.029 7        44.741                                  
  24173191.777 6 127030967.075 6     -3520.324 6        40.231    24173205.512 5
  98985183.319 5     -2743.396 5        31.195                                  
  22171671.195 7 116512927.654 7      -182.611 7        45.797    22171682.016 6
  90789325.852 6      -142.227 6        41.912                                  
  20502493.766 8 107741352.757 8       581.568 8        48.996    20502504.500 7
  83954327.663 7       453.203 7        44.741                                  
  24115703.738 6 126728878.893 6       781.939 6        39.024    24115715.613 7
  98749827.934 7       609.648 7        44.741                                  
  21150602.727 8 111147174.129 8      2039.010 8        48.801    21150612.188 7
  86608224.106 7      1589.063 7        44.741                                  
  23341408.594 6 122659941.219 6      3511.822 6        41.209    23341418.453 6
  95579214.235 6      2736.406 6        36.245                                  
  22946751.484 7 120585996.921 7     -1294.584 7        44.772    22946762.219 6
  93963143.729 6     -1008.748 6        40.971                                  
  20544014.465 8 107959550.846 8     -1131.498 8        51.644    20544026.340 7
  84124354.137 7      -881.699 7        44.741                                  
 22  6 20  0 55  0.0000000  0 10G01G07G08G13G14G15G17G19G21G30       0.000000000
  21799996.688 7 114559766.781 7      1434.697 7        45.379    21800011.453 7
  89267421.191 7      1118.340 7        44.741                                  
  21645977.406 7 113750386.079 7     -2620.264 7        47.906    21645987.852 7
  88636687.006 7     -2041.736 7        44.741                                  
  24193296.082 6 127136611.281 6     -3522.666 6        41.309    24193309.488 5
  99067503.375 5     -2745.135 5        31.715                                  
  22172770.746 7 116518698.725 7      -202.490 7        47.346    22172780.934 7
  90793822.773 7      -157.793 7        43.461                                  
  20499197.535 8 107724029.148 8       572.627 8        49.806    20499207.508 7
  83940828.755 7       446.211 7        44.741                                  
  24111289.813 6 126705686.964 6       763.877 6        38.364    24111302.047 7
  98731756.294 7       594.707 7        44.028                                  
  21138999.008 8 111086196.914 8      2025.732 8        49.068    21139009.809 7
  86560709.424 7      1578.340 7        44.741                                  
  23321376.758 6 122554676.976 6      3504.912 6        40.556    23321387.590 5
  95497190.159 5      2731.152 5        35.861                                  
  22954190.582 7 120625087.568 7     -1311.924 7        45.443    22954201.199 6
  93993603.948 6     -1022.285 6        40.936                                  
  20550519.313 8 107993735.741 8     -1148.057 8        51.714    20550531.805 7
  84150992.671 7      -894.512 7        44.741                                  
 22  6 20  0 55 30.0000000  0 10G01G07G08G13G14G15G17G19G21G30       0.000000000
  21791861.332 7 114517012.805 7      1415.369 7        45.750    21791876.301 7
  89234106.416 7      1103.254 7        44.741                                  
  21660972.719 7 113829183.266 7     -2632.717 7        47.906    21660982.449 7
  88698087.336 7     -2051.258 7        44.741                                  
  24213411.363 6 127242325.579 6     -3524.240 6        40.231    24213426.348 5
  99149878.080 5     -2746.395 5        32.121                                  
  22173984.016 7 116525074.789 7      -222.189 7        47.685    22173994.594 7
  90798791.102 7      -173.094 7        44.572                                  
  20495954.207 8 107706984.366 8       564.314 8        49.792    20495964.254 7
  83927547.107 7       439.523 7        44.741                                  
  24106984.457 6 126683060.541 6       745.389 6        39.645    24106996.379 7
  98714125.261 7       581.164 7        44.741                                  
  21127474.379 8 111025633.748 8      2012.303 8        49.257    21127483.063 7
  86513517.336 7      1568.352 7        44.741                                  
  23301383.805 6 122449610.971 6      3499.234 6        40.595    23301393.965 6
  95415320.599 6      2726.770 6        37.595                                  
  22961727.512 7 120664694.550 7     -1328.322 7        45.456    22961738.102 6
  94024466.505 6     -1035.008 6        41.655                                  
  20557121.855 8 108028431.604 8     -1164.631 8        51.589    20557134.418 7
  84178028.390 7      -907.391 7        44.741                                  
 22  6 20  0 56  0.0000000  0 10G01G07G08G13G14G15G17G19G21G30       0.000000000
  21783840.406 7 114474864.006 7      1394.578 7        45.072    21783854.801 7
  89201263.204 7      1086.891 7        44.741                                  
  21676040.387 8 113908362.818 8     -2645.793 8        48.076    21676049.805 7
  88759785.651 7     -2061.703 7        44.741                                  
  24233540.770 6 127348108.370 6     -3528.059 6        40.015    24233557.094 5
  99232306.085 5     -2748.910 5        30.687                                  
  22175312.430 8 116532056.180 8      -242.980 8        48.013    22175322.563 7
  90804231.123 7      -189.418 7        44.741                                  
  20492763.918 8 107690219.476 8       553.895 8        49.587    20492773.707 7
  83914483.544 7       431.813 7        44.741                                  
  24102786.805 6 126661000.809 6       725.867 6        39.971    24102798.207 7
  98696935.885 7       565.777 7        44.741                                  
  21116028.547 8 110965486.303 8      1997.840 8        49.209    21116038.148 7
  86466649.223 7      1556.559 7        44.741                                  
  23281429.871 7 122344745.801 7      3492.039 7        42.278    23281439.801 6
  95333607.509 6      2721.109 6        39.482                                  
  22969363.133 7 120704817.930 7     -1345.910 7        45.017    22969373.777 6
  94055731.448 6     -1048.754 6        41.585                                  
  20563821.793 8 108063638.924 8     -1182.355 8        51.492    20563834.145 7
  84205462.622 7      -921.293 7        44.741                                  
 22  6 20  0 56 30.0000000  0 10G01G07G08G13G14G15G17G19G21G30       0.000000000
  21775935.879 7 114433322.477 7      1374.561 7        46.263    21775949.742 7
  89168893.164 7      1071.283 7        44.741                                  
  21691179.813 8 113987923.337 8     -2658.387 8        48.034    21691189.457 7
  88821780.824 7     -2071.178 7        44.741                                  
  24253683.543 6 127453957.636 6     -3529.227 6        40.146    24253699.914 5
  99314785.931 5     -2750.436 5        33.043                                  
  22176754.809 7 116539642.142 7      -262.822 7        45.980    22176766.270 7
  90810142.232 7      -204.830 7        43.020                                  
  20489627.215 8 107673734.622 8       544.697 8        50.002    20489636.961 7
  83901638.199 7       424.525 7        44.741                                  
  24098696.535 6 126639508.112 6       706.729 6        40.059    24098708.727 7
  98680188.336 7       550.775 7        44.741                                  
  21104662.336 8 110905755.551 8      1983.740 8        49.788    21104671.980 7
  86420105.789 7      1545.932 7        44.741                                  
  23261512.633 7 122240082.691 7      3485.322 7        42.382    23261522.379 6
  95252051.857 6      2715.854 6        38.993                                  
  22977095.688 7 120745456.034 7     -1363.270 7        44.946    22977107.078 6
  94087397.485 6     -1062.291 6        41.341                                  
  20570618.387 8 108099357.289 8     -1199.012 8        51.735    20570631.066 7
  84233296.092 7      -934.400 7        44.741                                  
 22  6 20  0 57  0.0000000  0 10G01G07G08G13G14G15G17G19G21G30       0.000000000
  21768145.945 7 114392390.562 7      1353.725 7        45.301    21768160.926 7
  89136998.156 7      1054.973 7        44.741                                  
  21706391.191 7 114067863.622 7     -2671.334 7        47.255    21706402.039 7
  88884071.905 7     -2081.689 7        44.741                                  
  24273838.895 6 127559871.457 6     -3531.922 6        39.597    24273854.648 5
  99397316.031 5     -2752.021 5        31.629                                  
  22178312.645 7 116547832.306 7      -283.092 7        44.974    22178324.605 6
  90816524.167 6      -220.672 6        41.570                                  
  20486542.859 8 107657530.264 8       535.170 8        49.236    20486553.148 7
  83889011.425 7       417.082 7        44.741                                  
  24094715.566 6 126618583.359 6       687.592 6        40.315    24094727.387 7
  98663883.328 7       536.066 7        44.741                                  
  21093375.813 8 110846442.521 8      1969.896 8        49.862    21093384.582 7
  86373887.864 7      1535.070 7        44.741                                  
  23241633.867 6 122135624.470 6      3478.295 6        41.037    23241645.086 6
  95170655.894 6      2710.324 6        38.544                                  
  22984926.816 7 120786607.998 7     -1380.709 7        44.543    22984938.121 6
  94119463.924 6     -1075.830 6        41.607                                  
  20577513.262 8 108135586.611 8     -1216.490 8        51.950                  
         0.000 0         0.000 0         0.000                                  
 22  6 20  0 57 30.0000000  0 10G01G07G08G13G14G15G17G19G21G30       0.000000000
  21760472.801 7 114352069.479 7      1333.369 7        44.757    21760488.082 7
  89105579.152 7      1038.955 7        44.741                                  
  21721675.574 7 114148181.446 7     -2684.053 7        47.075    21721685.773 7
  88946657.160 7     -2091.438 7        44.741                                  
  24294005.285 6 127665846.802 6     -3534.756 6        40.397    24294020.395 5
  99479894.120 5     -2753.820 5        32.684                                  
  22179986.262 7 116556625.429 7      -303.721 7        44.401    22179996.969 6
  90823375.913 6      -236.709 6        41.309                                  
  20483512.762 8 107641606.003 8       525.615 8        49.582    20483523.066 7
  83876602.887 7       409.600 7        44.741                                  
  24090841.512 6 126598225.770 6       669.072 6        40.556    24090853.316 7
  98648020.287 7       521.182 7        44.588                                  
  21082168.012 8 110787546.855 8      1955.811 8        48.754    21082177.152 7
  86327995.158 7      1523.682 7        44.741                                  
  23221796.051 7 122031371.973 7      3471.572 7        42.225    23221805.965 6
  95089420.235 6      2705.166 6        39.507                                  
  22992855.125 7 120828271.575 7     -1397.783 7        43.869    22992865.730 6
  94151929.026 6     -1089.230 6        40.522                                  
  20584504.180 8 108172325.749 8     -1233.584 8        51.598    20584516.629 7
  84290153.547 7      -961.145 7        44.741                                  
 22  6 20  0 58  0.0000000  0 10G01G07G08G13G14G15G17G19G21G30       0.000000000
  21752917.199 7 114312361.827 7      1313.422 7        45.275    21752931.781 7
  89074638.114 7      1023.578 7        44.741                                  
  21737031.277 7 114228875.850 7     -2696.072 7        47.084    21737041.508 7
  89009535.865 7     -2100.738 7        44.741                                  
  24314184.043 6 127771882.314 6     -3534.959 6        41.342    24314198.656 5
  99562519.135 5     -2754.918 5        32.801                                  
  22181775.566 7 116566020.902 7      -323.182 7        45.506    22181784.566 6
  90830697.045 6      -251.754 6        41.598                                  
  20480535.961 8 107625962.401 8       517.092 8        49.002    20480546.348 7
  83864413.064 7       402.758 7        44.741                                  
  24087074.414 6 126578436.291 6       650.041 6        37.956    24087086.504 7
  98632599.871 7       506.449 7        42.950                                  
  21071039.977 8 110729069.768 8      1942.504 8        49.177    21071049.133 7
  86282428.596 7      1513.715 7        44.741                                  
  23201997.504 7 121927327.425 7      3464.711 7        43.284    23202007.621 6
  95008346.586 6      2699.887 6        40.996                                  
  23000880.090 7 120870446.236 7     -1414.314 7        43.448    23000890.434 6
  94184792.391 6     -1102.105 6        40.253                                  
  20591592.750 8 108209574.879 8     -1249.959 8        51.814    20591604.898 7
  84319179.820 7      -974.039 7        44.741                                  
 22  6 20  0 58 30.0000000  0 10G01G07G08G13G14G15G17G19G21G30       0.000000000
  21745478.473 7 114273269.511 7      1292.916 7        45.617    21745492.555 7
  89044176.548 7      1007.736 7        44.741                                  
  21752458.355 7 114309945.235 7     -2708.258 7        47.263    21752468.672 7
  89072706.764 7     -2110.428 7        44.741                                  
  24334373.219 6 127877976.067 6     -3536.637 6        41.806    24334387.730 5
  99645189.459 5     -2756.170 5        33.843                                  
  22183677.879 7 116576018.162 7      -343.021 7        46.478    22183686.996 7
  90838487.106 7      -267.342 7        42.870                                  
  20477612.641 8 107610599.639 8       507.506 8        49.024    20477622.973 7
  83852442.057 7       395.451 7        44.741                                  
  24083417.035 6 126559214.826 6       631.686 6        38.027    24083429.168 7
  98617622.118 7       492.268 7        42.117                                  
  21059992.328 8 110671012.116 8      1928.463 8        49.607    21060002.145 7
  86237188.871 7      1502.736 7        44.741                                  
  23182237.559 7 121823492.005 7      3457.389 7        42.407    23182248.707 6
  94927435.922 6      2694.125 6        40.848                                  
  23009003.324 7 120913130.251 7     -1431.029 7        44.236    23009013.070 6
  94218052.639 6     -1115.096 6        40.123                                  
  20598777.586 8 108247333.413 8     -1267.064 8        51.586    20598789.938 7
  84348602.021 7      -987.225 7        44.741                                  
 22  6 20  0 59  0.0000000  0 10G01G07G08G13G14G15G17G19G21G30       0.000000000
  21738156.906 7 114234794.383 7      1272.637 7        45.222    21738170.699 7
  89014195.931 7       991.270 7        44.741                                  
  21767956.516 7 114391388.200 7     -2721.504 7        46.960    21767967.031 7
  89136168.756 7     -2120.410 7        44.741                                  
  24354573.238 6 127984125.857 6     -3540.469 6        41.309    24354587.906 5
  99727903.419 5     -2757.793 5        33.817                                  
  22185695.207 7 116586616.268 7      -363.516 7        47.213    22185704.594 7
  90846745.354 7      -283.262 7        43.553                                  
  20474742.664 8 107595517.859 8       497.891 8        49.107    20474752.680 7
  83840690.006 7       387.695 7        44.741                                  
  24079867.801 6 126540561.848 6       611.074 6        38.096    24079879.445 7
  98603087.297 7       476.719 7        42.320                                  
  21049024.063 8 110613374.399 8      1914.082 8        49.708    21049033.523 7
  86192276.385 7      1491.484 7        44.741                                  
  23162519.082 7 121719868.069 7      3450.393 7        42.936    23162528.426 6
  94846690.068 6      2688.555 6        39.734                                  
  23017222.973 7 120956322.142 7     -1448.164 7        44.757    23017232.086 6
  94251708.624 6     -1128.398 6        39.944                                  
  20606060.270 8 108285600.839 8     -1284.336 8        51.351    20606072.301 7
  84378420.754 7     -1000.781 7        44.741                                  
 22  6 20  0 59 30.0000000  0 10G01G07G08G13G14G15G17G19G21G30       0.000000000
  21730953.438 7 114196938.466 7      1251.365 7        45.353    21730967.547 7
  88984697.783 7       975.223 7        44.741                                  
  21783525.555 7 114473203.075 7     -2733.342 7        47.313    21783535.441 7
  89199920.564 7     -2129.838 7        44.741                                  
  24374782.320 6 128090329.445 6     -3540.939 6        40.146    24374798.215 5
  99810659.388 5     -2759.506 5        31.360                                  
  22187825.625 7 116597814.401 7      -383.127 7        47.093    22187836.188 7
  90855471.158 7      -298.469 7        43.681                                  
  20471926.250 8 107580717.308 8       488.943 8        49.473    20471936.426 7
  83829157.090 7       380.828 7        44.741                                  
  24076426.648 6 126522477.398 6       593.982 6        38.854    24076438.895 7
  98588995.515 7       462.391 7        43.947                                  
  21038136.266 8 110556157.332 8      1900.506 8        49.975    21038145.453 7
  86147691.652 7      1480.965 7        44.741                                  
  23142841.289 7 121616457.251 7      3443.631 7        44.319    23142849.102 6
  94766110.195 6      2683.328 6        40.172                                  
  23025538.250 7 121000020.312 7     -1465.275 7        45.456    23025547.938 6
  94285759.125 6     -1141.693 6        41.205                                  
  20613438.582 8 108324376.740 8     -1300.666 8        51.236    20613450.887 7
  84408634.711 7     -1013.490 7        44.741                                  
 22  6 20  1  0  0.0000000  0 10G01G07G08G13G14G15G17G19G21G30       0.000000000
  21723867.520 7 114159703.63717      1230.977 7        44.917    21723881.402 7
  88955683.63517       959.447 7        44.741                                  
  21799164.352 7 114555388.32917     -2745.215 7        47.005    21799174.453 7
  89263960.99117     -2139.010 7        44.741                                  
  24395001.773 6 128196584.946 6     -3542.695 6        40.477    24395017.629 5
  99893455.713 5     -2760.084 5        34.518                                  
  22190070.305 7 116609611.910 7      -402.832 7        46.273    22190080.734 7
  90864663.997 7      -313.912 7        42.872                                  
  20469163.285 8 107566198.240 8       479.453 8        49.433    20469173.574 7
  83817843.510 7       373.744 7        44.741                                  
  24073093.887 6 126504961.74916       574.668 6        39.741    24073105.777 7
  98575346.98017       447.670 7        44.293                                  
  21027327.813 8 110499361.635 8      1886.621 8        48.957    21027337.887 7
  86103435.285 7      1469.760 7        44.741                                  
  23123203.922 7 121513261.16117      3436.211 7        43.850    23123213.652 7
  94685697.65617      2677.494 7        42.460                                  
  23033949.617 7 121044223.30417     -1481.406 7        44.932    23033959.477 6
  94320202.99516     -1154.361 6        40.388                                  
  20620913.844 8 108363660.71318     -1317.676 8        50.837    20620926.520 7
  84439246.56317     -1026.764 7        44.741                                  
 22  6 20  1  0 30.0000000  0 10G01G07G08G13G14G15G17G19G21G30       0.000000000
  21716900.434 7 114123092.182 7      1210.078 7        45.750    21716914.441 7
  88927155.240 7       942.838 7        44.741                                  
  21814874.184 7 114637942.798 7     -2757.734 7        47.483    21814885.203 7
  89328289.108 7     -2149.135 7        44.741                                  
  24415231.738 6 128302890.799 6     -3544.590 6        41.564    24415247.078 5
  99976291.306 5     -2761.596 5        35.082                                  
  22192429.375 7 116622008.454 7      -423.086 7        46.596    22192439.707 7
  90874323.614 7      -329.604 7        42.685                                  
  20466454.039 8 107551961.163 8       470.059 8        49.935    20466464.613 7
  83806749.662 7       366.451 7        44.741                                  
  24069869.227 6 126488015.534 6       555.430 6        39.498    24069880.129 7
  98562142.146 7       433.092 7        43.491                                  
  21016600.840 8 110442988.051 8      1872.129 8        49.885    21016610.656 7
  86059506.825 7      1459.010 7        44.741                                  
  23103605.395 7 121410281.456 7      3429.805 7        42.062    23103617.172 6
  94605453.818 6      2672.584 6        40.793                                  
  23042457.207 7 121088930.385 7     -1498.418 7        45.481    23042467.066 6
  94355039.661 6     -1167.572 6        40.608                                  
  20628486.039 8 108403452.542 8     -1334.531 8        51.348    20628498.758 7
  84470254.148 7     -1039.975 7        44.741                                  
 22  6 20  1  1  0.0000000  0 10G01G07G08G13G14G15G17G19G21G30       0.000000000
  21710052.637 7 114087105.563 7      1189.469 7        45.642    21710066.488 7
  88899113.682 7       926.629 7        44.741                                  
  21830653.371 7 114720864.524 7     -2769.613 7        46.366    21830664.691 7
  89392903.364 7     -2158.527 7        44.741                                  
  24435471.102 6 128409244.809 6     -3545.102 6        41.309    24435485.453 5
 100059164.462 5     -2762.787 5        35.503                                  
  22194901.012 7 116635002.253 7      -443.168 7        45.017    22194913.117 6
  90884448.600 6      -345.344 6        41.929                                  
  20463798.840 8 107538006.013 8       460.621 8        49.866    20463809.113 7
  83795875.518 7       358.797 7        44.741                                  
  24066752.410 6 126471638.513 6       536.227 6        39.971    24066764.328 7
  98549380.803 7       417.918 7        43.484                                  
  21005952.809 8 110387036.974 8      1858.160 8        48.554    21005963.070 7
  86015908.588 7      1447.684 7        44.741                                  
  23084052.180 7 121307520.176 7      3421.715 7        44.253    23084061.137 6
  94525380.110 6      2666.219 6        41.323                                  
  23051060.191 7 121134139.551 7     -1515.141 7        44.303    23051070.266 6
  94390267.558 6     -1180.637 6        39.784                                  
  20636155.063 8 108443751.378 8     -1351.566 8        51.192    20636167.137 7
  84501653.808 7     -1053.391 7        44.741                                  
 22  6 20  1  1 30.0000000  0 10G01G07G08G13G14G15G17G19G21G30       0.000000000
  21703323.348 7 114051746.091 7      1167.840 7        45.481    21703338.371 7
  88871560.878 7       909.877 7        44.741                                  
  21846502.844 7 114804152.599 7     -2782.533 7        47.127    21846513.102 7
  89457803.103 7     -2168.346 7        44.741                                  
  24455718.215 6 128515645.382 6     -3548.158 6        41.533    24455733.414 5
 100142073.864 5     -2764.186 5        34.584                                  
  22197488.438 7 116648593.134 7      -463.176 7        46.047    22197497.727 6
  90895038.848 6      -360.924 6        41.882                                  
  20461196.605 8 107524333.481 8       450.379 8        49.971    20461207.625 7
  83785221.580 7       350.912 7        44.741                                  
  24063744.227 6 126455831.263 6       517.352 6        40.189    24063754.957 7
  98537063.471 7       402.787 7        43.832                                  
  20995386.512 8 110331509.514 8      1843.387 8        49.007    20995396.813 7
  85972640.455 7      1436.537 7        44.741                                  
  23064539.344 7 121204979.312 7      3413.621 7        44.417    23064549.145 7
  94445478.146 7      2659.975 7        42.207                                  
  23059758.355 7 121179849.817 7     -1532.180 7        43.905    23059768.887 6
  94425885.906 6     -1193.893 6        40.080                                  
  20643919.840 8 108484557.214 8     -1369.250 8        50.866    20643932.172 7
  84533451.521 7     -1066.822 7        44.741                                  
 22  6 20  1  2  0.0000000  0 10G01G07G08G13G14G15G17G19G21G30       0.000000000
  21696714.266 7 114017015.291 7      1147.152 7        45.593    21696729.102 7
  88844497.907 7       894.080 7        44.741                                  
  21862421.008 7 114887804.950 7     -2794.586 7        46.625    21862431.723 7
  89522986.677 7     -2177.641 7        44.741                                  
  24475973.641 6 128622089.744 6     -3548.104 6        41.342    24475989.422 5
 100225017.390 5     -2765.258 5        34.169                                  
  22200187.914 7 116662779.911 7      -482.789 7        46.124    22200197.473 7
  90906093.461 7      -376.195 7        42.247                                  
  20458648.758 8 107510943.411 8       441.645 8        50.015    20458659.445 7
  83774787.731 7       344.314 7        44.741                                  
  24060845.516 6 126440593.640 6       498.578 6        41.470    24060855.918 7
  98525189.965 7       388.670 7        44.741                                  
  20984900.781 8 110276406.028 8      1829.945 8        49.134    20984911.270 7
  85929702.678 7      1425.857 7        44.741                                  
  23045069.160 7 121102660.422 7      3407.055 7        45.702    23045078.719 7
  94365749.180 7      2654.861 7        43.597                                  
  23068552.117 7 121226059.141 7     -1548.785 7        44.590    23068562.074 6
  94461893.123 6     -1206.859 6        40.123                                  
  20651781.070 8 108525869.145 8     -1385.113 8        50.891    20651793.832 7
  84565643.617 7     -1079.359 7        44.741                                  
 22  6 20  1  2 30.0000000  0 10G01G07G08G13G14G15G17G19G21G30       0.000000000
  21690226.293 7 113982915.120 7      1126.090 7        46.102    21690240.273 7
  88817926.346 7       877.490 7        44.741                                  
  21878408.770 7 114971820.354 7     -2806.607 7        46.915    21878419.285 7
  89588453.172 7     -2187.002 7        44.741                                  
  24496237.703 6 128728576.987 6     -3549.654 6        40.397    24496253.316 5
 100307994.335 5     -2766.357 5        33.710                                  
  22203001.348 7 116677562.025 7      -502.564 7        47.145    22203010.734 7
  90917612.002 7      -391.650 7        42.301                                  
  20456154.480 8 107497836.256 8       432.125 8        49.760    20456165.055 7
  83764574.346 7       336.826 7        44.741                                  
  24058054.035 6 126425925.657 6       478.941 6        40.437    24058065.098 7
  98513760.355 7       373.604 7        44.444                                  
  20974495.668 8 110221727.199 8      1815.484 8        48.985    20974506.211 7
  85887095.813 7      1414.424 7        44.741                                  
  23025640.813 7 121000565.112 7      3399.742 7        45.127    23025650.484 7
  94286194.396 7      2649.111 7        43.168                                  
  23077440.086 7 121272766.178 7     -1565.318 7        44.219    23077449.875 6
  94498288.193 6     -1219.795 6        39.951                                  
  20659738.797 8 108567686.793 8     -1402.311 8        50.560    20659751.375 7
  84598227.760 7     -1092.646 7        44.741                                  
 22  6 20  1  3  0.0000000  0 10G01G07G08G13G14G15G17G19G21G30       0.000000000
  21683857.559 7 113949447.546 7      1105.064 7        46.058    21683871.398 7
  88791847.731 7       861.113 7        44.741                                  
  21894464.688 7 115056197.272 7     -2818.746 7        46.188    21894475.547 7
  89654201.347 7     -2196.445 7        44.741                                  
  24516507.965 6 128835104.459 6     -3551.129 6        38.165    24516524.578 5
 100391002.638 5     -2767.188 5        32.474                                  
  22205926.148 7 116692938.391 7      -522.494 7        45.405    22205937.809 7
  90929593.578 7      -407.129 7        42.552                                  
  20453714.621 8 107485012.541 8       422.623 8        50.077    20453724.953 7
  83754581.832 7       329.082 7        44.741                                  
  24055370.352 6 126411827.699 6       459.986 6        39.597    24055382.270 7
  98502774.937 7       358.750 7        43.579                                  
  20964172.160 8 110167473.978 8      1801.275 8        49.597    20964182.520 7
  85844822.586 7      1403.555 7        44.741                                  
  23006255.008 7 120898695.119 7      3392.154 7        44.465    23006264.965 7
  94206815.223 7      2643.262 7        43.381                                  
  23086421.828 7 121319969.848 7     -1581.928 7        43.427    23086432.688 6
  94535070.249 6     -1232.559 6        39.724                                  
  20667792.445 8 108610009.830 8     -1419.350 8        50.248    20667804.809 7
  84631204.726 7     -1106.035 7        44.741                                  
 22  6 20  1  3 30.0000000  0 10G01G07G08G13G14G15G17G19G21G30       0.000000000
  21677609.242 7 113916613.884 7      1084.188 7        45.980    21677622.375 7
  88766263.069 7       844.756 7        44.741                                  
  21910590.934 7 115140934.017 7     -2830.424 7        47.760    21910601.410 7
  89720229.901 7     -2205.459 7        44.741                                  
  24536787.457 6 128941670.375 6     -3552.729 6        39.597    24536803.941 5
 100474040.855 5     -2768.428 5        32.140                                  
  22208965.066 7 116708907.865 7      -541.887 7        45.086    22208977.531 7
  90942037.267 7      -422.236 7        42.911                                  
  20451328.066 8 107472471.936 8       413.445 8        50.206    20451338.543 7
  83744809.917 7       322.275 7        44.741                                  
  24052796.344 6 126398299.874 6       441.902 6        39.971    24052807.863 7
  98492233.718 7       344.365 7        43.395                                  
  20953929.145 8 110113646.511 8      1787.332 8        49.215    20953939.102 7
  85802878.105 7      1392.764 7        44.741                                  
  22986912.633 7 120797052.391 7      3384.656 7        44.651    22986922.160 7
  94127613.124 7      2637.412 7        42.358                                  
  23095499.227 7 121367668.072 7     -1597.982 7        45.248    23095509.855 6
  94572237.648 6     -1245.166 6        40.681                                  
  20675942.320 8 108652837.201 8     -1435.600 8        50.413    20675954.270 7
  84664575.679 7     -1118.838 7        44.741                                  
 22  6 20  1  4  0.0000000  0 10G01G07G08G13G14G15G17G19G21G30       0.000000000
  21671482.105 7 113884416.054 7      1062.383 7        46.178    21671495.957 7
  88741173.863 7       827.771 7        44.741                                  
  21926783.133 7 115226028.420 7     -2842.617 7        46.870    21926794.051 7
  89786537.170 7     -2215.082 7        44.741                                  
  24557074.375 6 129048273.214 6     -3554.258 6        39.597    24557090.602 5
 100557107.833 5     -2769.164 5        33.532                                  
  22212117.441 7 116725469.597 7      -562.305 7        45.443    22212127.801 7
  90954942.454 7      -438.168 7        42.728                                  
  20448996.160 8 107460214.976 8       403.809 8        50.572    20449006.074 7
  83735259.021 7       314.744 7        44.741                                  
  24050330.789 6 126385341.417 6       421.777 6        39.971    24050342.379 7
  98482136.197 7       328.768 7        42.880                                  
  20943766.957 8 110060245.427 8      1772.734 8        49.101    20943777.332 7
  85761267.887 7      1381.307 7        44.741                                  
  22967615.027 7 120695638.601 7      3376.387 7        45.366    22967624.387 7
  94048589.358 7      2630.936 7        43.916                                  
  23104670.047 7 121415859.436 7     -1614.883 7        44.543    23104680.391 6
  94609789.342 6     -1258.324 6        40.259                                  
  20684188.766 8 108696168.546 8     -1452.813 8        50.572    20684200.129 7
  84698342.331 7     -1132.016 7        44.741                                  
 22  6 20  1  4 30.0000000  0 10G01G07G08G13G14G15G17G19G21G30       0.000000000
  21665477.086 7 113852855.762 7      1041.723 7        46.693    21665491.309 7
  88716581.436 7       811.904 7        44.741                                  
  21943044.363 7 115311479.222 7     -2853.668 7        46.731    21943054.277 7
  89853122.131 7     -2223.820 7        44.741                                  
  24577365.645 6 129154910.495 6     -3555.191 6        38.736    24577382.613 5
 100640201.712 5     -2769.816 5        32.082                                  
  22215382.059 7 116742622.359 7      -580.934 7        46.199    22215391.934 7
  90968308.208 7      -452.549 7        42.709                                  
  20446717.539 8 107448241.884 8       394.750 8        50.381    20446727.684 7
  83725929.353 7       307.432 7        44.741                                  
  24047973.039 6 126372952.978 6       403.930 6        39.548    24047984.801 7
  98472482.880 7       314.600 7        42.950                                  
  20933685.820 8 110007271.067 8      1759.223 8        48.510    20933696.238 7
  85719986.190 7      1370.693 7        44.741                                  
  22948360.414 7 120594455.296 7      3369.379 7        44.889    22948369.898 7
  93969745.254 7      2625.498 7        44.451                                  
  23113934.223 7 121464542.428 7     -1630.660 7        45.114    23113944.809 6
  94647724.088 6     -1270.615 6        41.456                                  
  20692529.855 8 108740003.187 8     -1468.961 8        50.051    20692542.020 7
  84732500.178 7     -1144.854 7        44.741                                  
 22  6 20  1  5  0.0000000  0 10G01G07G08G13G14G15G17G19G21G30       0.000000000
  21659592.688 7 113821934.741 7      1019.643 7        46.664    21659606.953 7
  88692487.151 7       794.297 7        44.741                                  
  21959372.270 7 115397285.001 7     -2866.510 7        46.438    21959382.828 7
  89919983.716 7     -2234.023 7        44.741                                  
  24597664.492 6 129261580.808 6     -3557.135 6        38.676    24597680.504 5
 100723321.315 5     -2771.875 5        32.632                                  
  22218757.570 7 116760365.232 7      -601.490 7        45.924    22218768.805 6
  90982133.851 6      -468.750 6        41.892                                  
  20444492.863 8 107436553.094 8       384.584 8        49.980    20444503.121 7
  83716821.188 7       299.766 7        44.741                                  
  24045724.320 6 126361134.671 6       384.232 6        39.548    24045735.828 7
  98463273.760 7       299.531 7        44.307                                  
  20923686.961 8 109954724.398 8      1743.783 8        48.974    20923696.848 7
  85679040.742 7      1358.848 7        44.741                                  
  22929150.152 7 120493504.556 7      3360.932 7        45.182    22929160.199 7
  93891082.386 7      2618.867 7        44.048                                  
  23123291.406 7 121513715.495 7     -1647.877 7        45.100    23123301.707 6
  94686040.715 6     -1284.063 6        40.541                                  
  20700966.816 8 108784340.660 8     -1486.607 8        49.944    20700979.750 7
  84767052.827 7     -1158.438 7        44.741                                  
 22  6 20  1  5 30.0000000  0 10G01G07G08G13G14G15G17G19G21G30       0.000000000
  21653830.090 7 113791654.271 7       998.740 7        46.014    21653844.727 7
  88668892.025 7       778.102 7        44.741                                  
  21975768.023 7 115483443.816 7     -2877.725 7        46.428    21975778.398 7
  89987120.360 7     -2242.367 7        44.741                                  
  24617968.520 6 129368281.190 6     -3557.256 6        37.507    24617985.504 5
 100806464.332 5     -2771.801 5        31.451                                  
  22222246.008 7 116778696.858 7      -620.791 7        46.241    22222256.582 7
  90996418.202 7      -483.773 7        42.222                                  
  20442322.586 8 107425148.394 8       375.322 8        49.894    20442333.289 7
  83707934.393 7       292.730 7        44.741                                  
  24043583.094 6 126349885.701 6       366.025 6        40.356    24043594.668 7
  98454508.363 7       284.859 7        44.491                                  
  20913768.973 8 109902605.443 8      1730.088 8        49.018    20913779.402 7
  85638430.580 7      1348.043 7        44.741                                  
  22909984.133 7 120392787.352 7      3353.389 7        44.253    22909993.578 7
  93812601.449 7      2613.063 7        43.068                                  
  23132741.621 7 121563377.003 7     -1662.568 7        44.065    23132752.484 6
  94724737.971 6     -1295.512 6        40.244                                  
  20709499.672 8 108829179.903 8     -1503.076 8        50.227    20709512.438 7
  84801991.445 7     -1171.234 7        44.741                                  
 22  6 20  1  6  0.0000000  0 10G01G07G08G13G14G15G17G19G21G30       0.000000000
  21648190.289 7 113762016.495 7       977.070 7        46.069    21648203.953 7
  88645797.668 7       761.514 7        44.741                                  
  21992231.063 7 115569954.650 7     -2889.609 7        47.403    21992241.781 7
  90054531.307 7     -2251.709 7        44.741                                  
  24638279.012 6 129475011.108 6     -3558.379 6        37.812    24638295.828 5
 100889630.354 5     -2772.666 5        31.693                                  
  22225846.367 7 116797616.698 7      -641.094 7        45.969    22225857.328 7
  91011160.894 7      -499.463 7        42.503                                  
  20440206.566 8 107414028.579 8       365.840 8        49.830    20440217.500 7
  83699269.597 7       285.322 7        44.741                                  
  24041551.215 6 126339207.031 6       346.191 6        41.309    24041562.918 7
  98446187.280 7       269.736 7        44.741                                  
  20903932.430 8 109850915.213 8      1715.664 8        49.182    20903942.762 7
  85598150.494 7      1337.119 7        44.741                                  
  22890863.645 7 120292306.018 7      3345.061 7        45.182    22890872.973 7
  93734304.320 7      2606.533 7        44.376                                  
  23142284.594 7 121613525.212 7     -1679.609 7        44.185    23142294.922 6
  94763814.475 6     -1308.799 6        39.535                                  
  20718127.570 8 108874520.737 8     -1519.434 8        49.825    20718140.188 7
  84837320.943 7     -1183.936 7        44.741                                  
 22  6 20  1  6 30.0000000  0 10G01G07G08G13G14G15G17G19G21G30       0.000000000
  21642672.922 7 113733022.727 7       955.268 7        46.167    21642686.488 7
  88623205.164 7       744.432 7        44.741                                  
  22008760.152 8 115656815.528 8     -2901.451 8        48.062    22008770.641 7
  90122215.057 7     -2261.293 7        44.741                                  
  24658594.461 6 129581768.354 6     -3560.008 6        37.737    24658611.801 5
 100972817.709 5     -2773.734 5        31.607                                  
  22229558.430 7 116817123.304 7      -660.201 7        46.047    22229569.434 7
  91026360.818 7      -514.438 7        42.395                                  
  20438144.727 8 107403193.678 8       356.381 8        50.002    20438155.500 7
  83690826.827 7       277.654 7        44.741                                  
  24039628.316 6 126329097.966 6       327.982 6        41.037    24039639.148 7
  98438310.123 7       254.939 7        44.741                                  
  20894177.965 8 109799653.928 8      1701.244 8        49.392    20894187.953 7
  85558206.640 7      1325.838 7        44.741                                  
  22871787.172 7 120192062.348 7      3336.732 7        44.816    22871796.871 7
  93656192.412 7      2600.037 7        43.904                                  
  23151919.516 7 121664158.354 7     -1696.100 7        44.368    23151930.020 6
  94803268.840 6     -1321.625 6        39.690                                  
  20726850.996 8 108920362.325 8     -1536.549 8        49.944    20726863.156 7
  84873039.637 7     -1197.406 7        44.741                                  
 22  6 20  1  7  0.0000000  0 10G01G07G08G13G14G15G17G19G21G30       0.000000000
  21637277.516 7 113704674.743 7       934.027 7        45.544    21637292.340 7
  88601115.865 7       728.146 7        44.741                                  
  22025355.258 7 115744024.630 7     -2912.865 7        47.067    22025365.590 7
  90190170.117 7     -2269.938 7        44.741                                  
  24678915.820 6 129688551.063 6     -3560.561 6        38.616    24678931.559 5
 101056024.907 5     -2774.137 5        31.429                                  
  22233382.723 7 116837215.753 7      -679.428 7        47.067    22233392.168 7
  91042017.260 7      -529.430 7        42.243                                  
  20436137.309 8 107392644.188 8       346.938 8        49.830    20436148.184 7
  83682606.436 7       270.082 7        44.741                                  
  24037811.781 6 126319558.772 6       308.324 6        40.634    24037824.445 7
  98430877.001 7       240.258 7        44.741                                  
  20884504.973 8 109748822.397 8      1687.172 8        49.063    20884515.203 7
  85518597.683 7      1314.709 7        44.741                                  
  22852756.824 7 120092057.805 7      3329.965 7        44.667    22852766.297 7
  93578266.810 7      2594.904 7        43.849                                  
  23161646.063 7 121715275.258 7     -1711.908 7        43.720    23161657.352 6
  94843100.157 6     -1334.000 6        39.563                                  
  20735669.625 8 108966704.107 8     -1553.236 8        49.612    20735682.074 7
  84909150.093 7     -1210.348 7        44.741                                  
 22  6 20  1  7 30.0000000  0 10G01G07G08G13G14G15G17G19G21G30       0.000000000
  21632007.180 7 113676973.802 7       912.520 7        46.366    21632021.160 7
  88579530.774 7       710.777 7        44.741                                  
  22042016.621 7 115831580.336 7     -2924.512 7        47.023    22042027.496 7
  90258395.267 7     -2279.281 7        44.741                                  
  24699240.191 6 129795357.184 6     -3560.781 6        38.428    24699256.707 5
 101139250.353 5     -2774.438 5        31.383                                  
  22237316.203 7 116857892.643 7      -699.004 7        45.506    22237326.418 6
  91058129.104 6      -544.750 6        41.876                                  
  20434184.273 8 107382380.049 8       337.188 8        49.993    20434194.691 7
  83674608.411 7       262.652 7        44.741                                  
  24036105.148 6 126310588.951 6       288.496 6        41.470    24036117.543 7
  98423887.507 7       225.602 7        44.741                                  
  20874913.688 8 109698420.660 8      1672.656 8        48.974    20874924.277 7
  85479325.620 7      1303.473 7        44.741                                  
  22833772.984 7 119992294.105 7      3321.035 7        45.301    22833781.742 7
  93500528.877 7      2587.828 7        43.797                                  
  23171465.344 7 121766873.907 7     -1728.418 7        43.221    23171476.531 6
  94883306.888 6     -1346.840 6        38.696                                  
  20744583.277 8 109013545.082 8     -1569.707 8        49.418    20744595.582 7
  84945650.499 7     -1223.148 7        44.741                                  
 22  6 20  1  8  0.0000000  0 10G01G07G08G13G14G15G17G19G21G30       0.000000000
  21626859.594 7 113649921.799 7       890.246 7        46.879    21626873.273 7
  88558451.324 7       693.414 7        44.741                                  
  22058743.496 7 115919481.403 7     -2936.572 7        46.577    22058754.441 7
  90326889.524 7     -2288.344 7        44.741                                  
  24719567.832 5 129902185.364 5     -3562.061 5        35.544    24719585.047 4
 101222492.981 4     -2775.629 4        29.225                                  
  22241362.559 7 116879153.059 7      -718.758 7        46.241    22241373.617 7
  91074695.637 7      -560.121 7        42.224                                  
  20432285.445 8 107372402.022 8       327.063 8        50.138    20432295.805 7
  83666833.327 7       255.016 7        44.741                                  
  24034506.957 7 126302188.505 7       269.465 7        42.062    24034518.891 7
  98417341.697 7       210.426 7        44.741                                  
  20865404.516 8 109648449.486 8      1657.746 8        49.199    20865414.816 7
  85440385.066 7      1291.656 7        44.741                                  
  22814834.199 7 119892773.156 7      3312.727 7        43.905    22814843.613 7
  93422980.120 7      2581.344 7        42.498                                  
  23181375.461 7 121818952.795 7     -1744.385 7        43.869    23181386.766 6
  94923887.804 6     -1359.301 6        38.977                                  
  20753591.484 8 109060884.950 8     -1587.041 8        49.463    20753604.379 7
  84982539.671 7     -1236.664 7        44.741                                  
 22  6 20  1  8 30.0000000  0 10G01G07G08G13G14G15G17G19G21G30       0.000000000
  21621835.145 7 113623519.878 7       869.115 7        46.346    21621849.426 7
  88537878.416 7       677.406 7        44.741                                  
  22075536.129 7 116007725.763 7     -2947.564 7        46.625    22075547.277 7
  90395651.251 7     -2296.678 7        44.741                                  
  24739901.422 5 130009033.572 5     -3562.447 5        35.418    24739917.891 4
 101305751.192 4     -2775.662 4        29.553                                  
  22245518.746 7 116900995.564 7      -738.229 7        45.556    22245529.934 7
  91091715.719 7      -575.230 7        42.119                                  
  20430441.645 8 107362709.903 8       318.021 8        50.618    20430451.602 7
  83659281.028 7       247.934 7        44.741                                  
  24033017.453 7 126294357.131 7       252.182 7        43.070    24033027.668 7
  98411239.346 7       195.590 7        44.741                                  
  20855977.129 8 109598909.283 8      1643.764 8        49.204    20855987.063 7
  85401780.325 7      1281.078 7        44.741                                  
  22795942.715 7 119793496.612 7      3304.916 7        45.154    22795952.129 7
  93345621.792 7      2575.238 7        43.761                                  
  23191377.238 7 121871510.151 7     -1759.732 7        44.100    23191388.258 6
  94964841.581 6     -1371.188 6        38.863                                  
  20762694.504 8 109108722.610 8     -1602.896 8        49.592    20762707.785 7
  85019816.727 7     -1249.039 7        44.741                                  
 22  6 20  1  9  0.0000000  0 10G01G07G08G13G14G15G17G19G21G30       0.000000000
  21616934.641 7 113597769.319 7       847.611 7        45.568    21616949.109 7
  88517813.082 7       660.613 7        44.741                                  
  22092393.469 7 116096311.439 7     -2958.270 7        46.702    22092403.699 7
  90464678.987 7     -2305.266 7        44.741                                  
  24760239.039 6 130115899.301 6     -3562.645 6        37.885    24760253.793 5
 101389023.110 5     -2775.813 5        31.073                                  
  22249786.141 7 116923418.479 7      -757.215 7        46.047    22249797.031 7
  91109188.080 7      -590.012 7        43.054                                  
  20428650.957 8 107353303.894 8       308.881 8        50.068    20428662.020 7
  83651951.670 7       240.555 7        44.741                                  
  24031635.148 7 126287094.563 7       232.592 7        42.868    24031645.684 7
  98405580.164 7       181.609 7        44.741                                  
  20846632.621 8 109549800.321 8      1629.857 8        49.926    20846642.680 7
  85363516.625 7      1270.027 7        44.741                                  
  22777097.902 7 119694465.727 7      3297.064 7        45.443    22777106.773 7
  93268454.879 7      2569.090 7        44.371                                  
  23201468.621 7 121924544.245 7     -1775.691 7        42.458    23201479.637 6
  95006166.826 6     -1383.625 6        38.209                                  
  20771892.992 8 109157057.188 8     -1619.285 8        49.912    20771905.625 7
  85057481.996 7     -1261.789 7        44.741                                  
 22  6 20  1  9 30.0000000  0 10G01G07G08G13G14G15G17G19G21G30       0.000000000
  21612158.363 7 113572672.031 7       825.350 7        45.222    21612173.504 7
  88498256.803 7       643.232 7        44.741                                  
  22109315.078 7 116185237.098 7     -2970.492 7        45.912    22109326.125 7
  90533971.608 7     -2314.133 7        44.741                                  
  24780577.398 6 130222781.712 6     -3563.520 6        38.736    24780592.707 5
 101472308.021 5     -2776.340 5        31.219                                  
  22254163.883 7 116946421.403 7      -776.818 7        47.280    22254174.727 7
  91127112.417 7      -605.361 7        43.280                                  
  20426915.813 8 107344184.809 8       298.787 8        50.037    20426926.602 7
  83644845.874 7       232.764 7        44.741                                  
  24030361.477 7 126280400.872 7       213.084 7        42.433    24030372.207 7
  98400364.322 7       165.850 7        44.741                                  
  20837369.410 8 109501123.318 8      1615.018 8        49.246    20837379.684 7
  85325586.504 7      1258.369 7        44.741                                  
  22758299.762 7 119595682.513 7      3288.045 7        44.974    22758309.375 7
  93191480.965 7      2562.197 7        43.336                                  
  23211652.602 7 121978053.434 7     -1791.721 7        44.151    23211661.688 6
  95047862.264 6     -1396.164 6        38.137                                  
  20781184.793 8 109205888.381 8     -1636.447 8        49.478    20781197.844 7
  85095530.238 7     -1275.109 7        44.741                                  
 22  6 20  1 10  0.0000000  0 10G01G07G08G13G14G15G17G19G21G30       0.000000000
  21607507.836 7 113548229.070 7       803.988 7        46.488    21607522.145 7
  88479210.362 7       626.316 7        44.741                                  
  22126301.906 7 116274500.813 7     -2980.699 7        46.335    22126312.824 7
  90603527.690 7     -2323.000 7        44.741                                  
  24800918.730 6 130329678.545 6     -3563.395 6        37.585    24800935.043 4
 101555604.162 4     -2776.672 4        29.690                                  
  22258650.629 7 116970002.428 7      -795.582 7        46.283    22258661.363 6
  91145487.195 6      -619.836 6        41.843                                  
  20425235.012 8 107335352.517 8       289.691 8        49.997    20425246.102 7
  83637963.580 7       225.750 7        44.741                                  
  24029195.664 7 126274275.372 7       195.121 7        43.026    24029207.012 7
  98395591.171 7       151.688 7        44.741                                  
  20828188.445 8 109452878.018 8      1601.059 8        49.068    20828198.793 7
  85287991.777 7      1247.568 7        44.741                                  
  22739549.668 7 119497148.500 7      3280.297 7        46.047    22739559.043 7
  93114701.233 7      2556.025 7        44.622                                  
  23221924.414 7 122032035.618 7     -1806.871 7        43.941    23221934.559 6
  95089926.269 6     -1407.961 6        38.432                                  
  20790571.871 8 109255215.048 8     -1652.555 8        50.046    20790584.461 7
  85133967.570 7     -1287.648 7        44.741                                  
 22  6 20  1 10 30.0000000  0 10G01G07G08G13G14G15G17G19G21G30       0.000000000
  21602980.754 7 113524441.854 7       781.729 7        45.773    21602995.750 7
  88460674.883 7       609.332 7        44.741                                  
  22143352.516 7 116364101.103 7     -2992.607 7        45.581    22143363.477 7
  90673345.982 7     -2331.664 7        44.741                                  
  24821263.316 6 130436588.470 6     -3564.619 6        36.124    24821278.066 4
 101638910.540 4     -2777.035 4        29.149                                  
  22263247.520 7 116994160.529 7      -815.088 7        45.481    22263257.863 6
  91164311.670 6      -635.121 6        41.578                                  
  20423609.117 8 107326807.384 8       279.736 8        49.876    20423619.836 7
  83631305.022 7       217.828 7        44.741                                  
  24028137.703 7 126268718.128 7       174.717 7        42.407    24028149.609 7
  98391260.795 7       136.813 7        44.741                                  
  20819089.719 8 109405065.293 8      1586.279 8        48.517    20819100.512 7
  85250736.130 7      1236.033 7        44.741                                  
  22720847.473 7 119398865.617 7      3271.611 7        45.843    22720855.672 7
  93038117.180 7      2549.256 7        43.878                                  
  23232286.477 7 122086489.466 7     -1823.076 7        43.157    23232296.965 6
  95132357.802 6     -1420.609 6        38.450                                  
  20800052.770 8 109305036.389 8     -1669.287 8        50.240    20800065.680 7
  85172791.374 7     -1300.805 7        44.741                                  
 22  6 20  1 11  0.0000000  0 10G01G07G08G13G14G15G17G19G21G30       0.000000000
  21598579.559 7 113501311.313 7       760.184 7        46.058    21598593.781 7
  88442651.085 7       592.273 7        44.741                                  
  22160466.191 7 116454035.714 7     -3003.080 7        45.301    22160477.109 7
  90743424.813 7     -2340.305 7        44.741                                  
  24841610.582 6 130543508.843 6     -3563.764 6        38.232    24841625.035 4
 101722225.062 4     -2777.629 4        29.690                                  
  22267954.555 7 117018894.039 7      -833.742 7        46.417    22267965.484 6
  91183584.492 6      -649.738 6        41.912                                  
  20422037.711 8 107318549.270 8       270.652 8        49.966    20422048.254 7
  83624870.104 7       210.945 7        44.741                                  
  24027188.172 7 126263728.083 7       156.805 7        43.795    24027200.363 7
  98387372.441 7       122.371 7        44.741                                  
  20810073.813 8 109357684.962 8      1572.117 8        49.257    20810083.840 7
  85213815.421 7      1225.086 7        44.741                                  
  22702192.316 7 119300834.783 7      3263.211 7        45.031    22702201.445 7
  92961729.526 7      2542.725 7        43.199                                  
  23242738.652 7 122141412.849 7     -1838.449 7        44.636    23242748.609 6
  95175155.207 6     -1432.590 6        39.060                                  
  20809627.078 8 109355351.218 8     -1685.285 8        49.641                  
         0.000 0         0.000 0         0.000                                  
 22  6 20  1 11 30.0000000  0 10G01G07G08G13G14G15G17G19G21G30       0.000000000
  21594303.137 7 113478839.265 7       737.793 7        45.714    21594317.402 7
  88425140.406 7       574.963 7        44.741                                  
  22177644.543 7 116544303.464 7     -3014.885 7        45.654    22177654.832 7
  90813763.231 7     -2349.121 7        44.741                                  
  24861957.848 6 130650438.653 6     -3565.393 6        38.232    24861973.102 5
 101805546.878 5     -2777.852 5        30.999                                  
  22272771.051 7 117044202.091 7      -853.459 7        46.458    22272781.281 7
  91203305.016 7      -665.115 7        42.107                                  
  20420521.102 8 107310579.042 8       260.623 8        50.240    20420531.547 7
  83618659.539 7       203.088 7        44.741                                  
  24026346.816 7 126259305.755 7       137.967 7        43.814    24026358.547 7
  98383926.477 7       107.580 7        44.741                                  
  20801140.320 8 109310737.982 8      1557.559 8        49.057    20801150.480 7
  85177234.355 7      1213.713 7        44.741                                  
  22683585.813 7 119203058.337 7      3254.551 7        45.031    22683594.270 7
  92885540.096 7      2536.076 7        42.471                                  
  23253278.684 7 122196803.963 7     -1854.631 7        43.242    23253288.844 6
  95218317.105 6     -1445.195 6        38.308                                  
  20819295.539 8 109406159.174 8     -1701.857 8        49.616    20819308.430 7
  85251588.285 7     -1326.191 7        44.741                                  
 22  6 20  1 12  0.0000000  0 10G01G07G08G13G14G15G17G19G21G30       0.000000000
  21590152.094 7 113457026.861 7       716.076 7        45.418    21590167.117 7
  88408143.724 7       557.783 7        44.741                                  
  22194883.883 7 116634902.300 7     -3025.645 7        44.384    22194896.016 7
  90884359.625 7     -2357.568 7        44.741                                  
  24882307.148 6 130757375.751 6     -3564.668 6        37.179    24882322.402 5
 101888874.463 5     -2777.979 5        30.494                                  
  22277695.469 7 117070082.971 7      -872.441 7        45.946    22277705.742 6
  91223471.918 6      -679.775 6        41.198                                  
  20419059.328 8 107302896.841 8       251.057 8        50.311    20419069.730 7
  83612673.415 7       195.439 7        44.741                                  
  24025613.664 7 126255450.251 7       118.967 7        44.667    24025625.152 7
  98380922.166 7        92.861 7        44.741                                  
  20792288.707 8 109264224.500 8      1543.127 8        48.454    20792299.395 7
  85140990.106 7      1202.236 7        44.741                                  
  22665028.418 7 119105537.689 7      3246.330 7        45.327    22665037.531 7
  92809549.984 7      2529.523 7        43.363                                  
  23263908.320 7 122252661.246 7     -1870.000 7        44.543    23263918.578 6
  95261842.219 6     -1457.139 6        39.403                                  
  20829057.320 8 109457459.318 8     -1718.418 8        49.508    20829070.457 7
  85291561.392 7     -1339.072 7        44.741                                  
 22  6 20  1 12 30.0000000  0 10G01G07G08G13G14G15G17G19G21G30       0.000000000
  21586127.195 7 113435875.40617       693.900 7        45.642    21586142.422 7
  88391662.07617       540.742 7        44.741                                  
  22212186.691 7 116725830.46217     -3037.057 7        44.236    22212198.227 7
  90955212.63217     -2366.133 7        44.741                                  
  24902658.387 6 130864318.859 6     -3565.162 6        37.737    24902674.027 5
 101972206.632 5     -2777.676 5        31.147                                  
  22282729.293 7 117096535.471 7      -891.021 7        45.866    22282738.766 6
  91244084.247 6      -694.277 6        39.677                                  
  20417652.297 8 107295502.945 8       241.498 8        50.445    20417662.156 7
  83606911.917 7       188.203 7        44.741                                  
  24024987.773 7 126252161.72917       100.014 7        44.117    24024998.875 7
  98378359.65117        78.203 7        44.741                                  
  20783520.457 8 109218145.143 8      1528.646 8        48.778                  
         0.000 0         0.000 0         0.000                                  
  22646519.184 7 119008274.75217      3237.826 7        43.995    22646528.684 7
  92733760.72117      2523.008 7        42.201                                  
  23274626.039 7 122308982.91517     -1884.850 7        44.989    23274636.527 6
  95305729.19716     -1468.711 6        39.863                                  
  20838913.770 8 109509250.73418     -1734.557 8        50.401    20838926.219 7
  85331919.29817     -1351.680 7        44.741                                  
 22  6 20  1 13  0.0000000  0 10G01G07G08G13G14G15G17G19G21G30       0.000000000
  21582228.770 7 113415385.980 7       671.549 7        46.478    21582242.863 7
  88375696.289 7       523.416 7        44.741                                  
  22229552.156 7 116817085.871 7     -3047.729 7        43.869    22229564.359 7
  91026320.625 7     -2374.592 7        44.741                                  
  24923009.176 6 130971265.710 6     -3564.701 6        37.662    24923024.445 4
 102055541.844 4     -2778.029 4        29.986                                  
  22287870.840 7 117123557.762 7      -910.189 7        44.481    22287881.746 6
  91265140.548 6      -709.221 6        39.918                                  
  20416299.906 8 107288397.547 8       231.959 8        50.029    20416310.266 7
  83601375.226 7       180.740 7        44.741                                  
  24024469.750 7 126249439.340 7        80.865 7        43.663    24024481.383 7
  98376238.301 7        62.928 7        44.741                                  
  20774834.602 8 109172499.935 8      1514.361 8        49.041    20774844.691 7
  85069516.464 7      1179.900 7        44.741                                  
  22628060.152 7 118911271.072 7      3228.992 7        45.288    22628069.066 7
  92658173.459 7      2516.053 7        42.303                                  
  23285431.883 7 122365767.161 7     -1900.619 7        45.154    23285441.914 6
  95349976.622 6     -1481.057 6        39.883                                  
  20848862.207 8 109561532.429 8     -1751.127 8        50.033    20848875.398 7
  85372660.259 7     -1364.650 7        44.741                                  
 22  6 20  1 13 30.0000000  0 10G01G07G08G13G14G15G17G19G21G30       0.000000000
  21578455.813 7 113395559.599 7       649.930 7        46.674    21578469.707 7
  88360247.165 7       506.625 7        44.741                                  
  22246980.129 7 116908666.944 7     -3058.195 7        45.248    22246991.188 7
  91097682.370 7     -2382.906 7        44.741                                  
  24943361.234 6 131078214.979 6     -3564.270 6        38.968    24943376.676 5
 102138878.885 5     -2777.789 5        31.243                                  
  22293121.691 7 117151148.586 7      -929.133 7        45.605    22293133.398 6
  91286639.842 6      -723.961 6        41.283                                  
  20415003.012 8 107281580.777 8       222.586 8        50.649    20415013.473 7
  83596063.450 7       173.227 7        44.741                                  
  24024058.453 7 126247282.521 7        62.547 7        42.558    24024070.930 7
  98374557.659 7        48.207 7        44.741                                  
  20766231.008 8 109127288.735 8      1499.852 8        49.246    20766240.707 7
  85034283.975 7      1168.832 7        44.741                                  
  22609651.039 7 118814528.007 7      3220.262 7        46.241    22609659.383 7
  92582789.250 7      2509.262 7        42.687                                  
  23296325.133 7 122423012.227 7     -1915.383 7        45.617    23296334.664 6
  95394583.138 6     -1492.438 6        39.625                                  
  20858904.348 8 109614303.311 8     -1767.180 8        50.529    20858917.211 7
  85413779.402 7     -1376.773 7        44.741                                  
 22  6 20  1 14  0.0000000  0 10G01G07G08G13G14G15G17G19G21G30       0.000000000
  21574809.754 7 113376397.782 7       627.303 7        46.933    21574823.445 7
  88345315.859 7       489.051 7        44.741                                  
  22264469.172 7 117000572.280 7     -3069.260 7        45.248    22264480.508 7
  91169296.816 7     -2391.535 7        44.741                                  
  24963713.977 6 131185164.981 6     -3565.080 6        39.597    24963727.957 4
 102222216.484 4     -2778.449 4        29.986                                  
  22298480.121 7 117179306.562 7      -948.205 7        46.047    22298490.680 6
  91308581.089 6      -738.820 6        41.392                                  
  20413761.184 8 107275053.354 8       212.479 8        50.807    20413771.516 7
  83590977.134 7       165.477 7        44.741                                  
  24023755.734 7 126245691.134 7        43.416 7        42.798    24023768.125 7
  98373317.598 7        33.543 7        44.741                                  
  20757710.234 8 109082512.655 8      1484.744 8        49.273    20757720.051 7
  84999393.537 7      1157.039 7        44.741                                  
  22591291.410 7 118718047.474 7      3211.230 7        45.702    22591299.996 7
  92507609.617 7      2502.234 7        42.852                                  
  23307305.355 7 122480715.854 7     -1931.447 7        45.726    23307315.902 6
  95439546.981 6     -1505.051 6        39.976                                  
  20869038.609 8 109667562.884 8     -1783.928 8        50.185    20869052.418 7
  85455280.343 7     -1389.895 7        44.741                                  
 22  6 20  1 14 30.0000000  0 10G01G07G08G13G14G15G17G19G21G30       0.000000000
  21571289.711 7 113357901.451 7       605.492 7        47.049    21571303.578 7
  88330903.136 7       471.594 7        44.741                                  
  22282019.707 7 117092799.598 7     -3079.803 7        45.714    22282030.281 7
  91241162.178 7     -2399.793 7        44.741                                  
  24984063.676 6 131292114.056 6     -3564.705 6        38.364    24984079.816 4
 102305553.472 4     -2778.074 4        28.953                                  
  22303946.109 7 117208030.100 7      -966.910 7        46.294    22303957.129 6
  91330963.023 6      -753.406 6        41.536                                  
  20412573.684 8 107268815.276 8       203.188 8        50.465    20412584.301 7
  83586116.285 7       158.195 7        44.741                                  
  24023561.008 7 126244664.798 7        25.219 7        43.157    24023572.785 7
  98372517.824 7        19.738 7        44.741                                  
  20749272.555 8 109038171.548 8      1470.844 8        49.024    20749282.313 7
  84964842.053 7      1145.852 7        44.741                                  
  22572982.246 7 118621830.889 7      3202.348 7        46.528    22572990.688 7
  92432635.682 7      2495.404 7        43.447                                  
  23318373.254 7 122538876.271 7     -1946.346 7        45.690    23318383.754 6
  95484866.751 6     -1516.609 6        40.111                                  
  20879266.559 8 109721309.896 8     -1799.568 8        50.202    20879279.879 7
  85497160.100 7     -1402.293 7        44.741                                  
 22  6 20  1 15  0.0000000  0 10G01G07G08G13G14G15G17G19G21G30       0.000000000
  21567896.316 7 113340071.123 7       583.604 7        46.377    21567911.238 7
  88317009.363 7       454.377 7        44.741                                  
  22299630.199 7 117185346.657 7     -3090.283 7        44.417    22299641.375 7
  91313276.672 7     -2408.143 7        44.741                                  
  25004414.379 5 131399059.585 5     -3564.619 5        35.418    25004430.520 4
 102388887.654 4     -2777.674 4        28.789                                  
  22309519.137 7 117237317.166 7      -985.596 7        45.946    22309529.742 6
  91353784.089 6      -768.006 6        40.166                                  
  20411441.711 8 107262866.338 8       193.135 8        50.576    20411452.000 7
  83581480.721 7       150.842 7        44.741                                  
  24023472.605 7 126244202.313 7         6.670 7        42.382    24023484.496 7
  98372157.421 7         5.061 7        44.741                                  
  20740917.301 8 108994265.102 8      1456.748 8        49.215    20740927.418 7
  84930631.248 7      1134.729 7        44.741                                  
  22554723.027 7 118525879.472 7      3194.346 7        45.581    22554731.902 7
  92357868.355 7      2489.084 7        43.433                                  
  23329527.438 7 122597491.348 7     -1961.201 7        45.946    23329537.781 6
  95530540.808 6     -1528.162 6        40.422                                  
  20889587.516 8 109775542.875 8     -1815.342 8        50.505    20889600.453 7
  85539422.534 7     -1414.900 7        44.741                                  
 22  6 20  1 15 30.0000000  0 10G01G07G08G13G14G15G17G19G21G30       0.000000000
  21564630.277 7 113322908.692 7       561.076 7        46.058    21564645.160 7
  88303636.033 7       436.941 7        44.741                                  
  22317302.516 7 117278212.468 7     -3100.955 7        45.340    22317314.566 7
  91385639.543 7     -2416.672 7        44.741                                  
  25024764.375 5 131506000.951 5     -3563.592 5        35.544    25024780.145 4
 102472218.551 4     -2777.258 4        26.680                                  
  22315198.922 7 117267166.794 7     -1004.256 7        45.127    22315208.980 6
  91377043.527 6      -782.512 6        38.789                                  
  20410364.695 8 107257207.613 8       183.576 8        50.564    20410375.285 7
  83577071.322 7       142.938 7        44.741                                  
  24023492.387 7 126244303.852 7       -12.811 7        42.704    24023503.922 7
  98372236.543 7       -10.363 7        44.741                                  
  20732644.906 8 108950794.185 8      1441.369 8        49.172    20732655.426 7
  84896757.813 7      1123.270 7        44.741                                  
  22536513.902 7 118430195.416 7      3184.512 7        43.995    22536523.633 7
  92283309.394 7      2481.354 7        42.241                                  
  23340767.488 7 122656559.656 7     -1976.600 7        45.773    23340778.379 6
  95576568.026 6     -1540.266 6        40.722                                  
  20899999.496 8 109830261.657 8     -1832.752 8        50.477    20900013.289 7
  85582061.531 7     -1427.941 7        44.741                                  
 22  6 20  1 16  0.0000000  0 10G01G07G08G13G14G15G17G19G21G30       0.000000000
  21561492.270 7 113306414.856 7       538.350 7        47.246    21561506.320 7
  88290783.664 7       419.697 7        44.741                                  
  22335034.609 7 117371394.904 7     -3111.416 7        44.932    22335046.371 7
  91458249.070 7     -2424.189 7        44.741                                  
  25045114.906 6 131612936.247 6     -3564.932 6        37.737    25045129.129 4
 102555544.685 4     -2777.529 4        27.963                                  
  22320986.129 7 117297577.450 7     -1022.607 7        45.045    22320997.090 6
  91400740.100 6      -796.807 6        38.965                                  
  20409343.160 8 107251839.023 8       174.170 8        50.552    20409353.777 7
  83572888.012 7       135.400 7        44.741                                  
  24023618.879 7 126244968.486 7       -31.533 7        42.278    24023630.512 7
  98372754.385 7       -24.365 7        44.741                                  
  20724455.754 8 108907758.849 8      1427.139 8        49.458    20724466.098 7
  84863223.804 7      1111.963 7        44.741                                  
  22518357.969 7 118334779.898 7      3175.811 7        46.283    22518366.996 7
  92208959.677 7      2474.756 7        43.920                                  
  23352093.496 7 122716079.096 7     -1991.475 7        45.222    23352104.746 6
  95622946.778 6     -1551.807 6        39.915                                  
  20910504.871 8 109885464.849 8     -1848.193 8        50.811    20910517.691 7
  85625073.995 7     -1440.322 7        44.741                                  
 22  6 20  1 16 30.0000000  0 10G01G07G08G13G14G15G17G19G21G30       0.000000000
  21558480.367 7 113290590.169 7       516.807 7        46.294    21558494.762 7
  88278452.734 7       402.604 7        44.741                                  
  22352826.410 7 117464891.588 7     -3121.047 7        44.667    22352838.285 7
  91531103.521 7     -2432.162 7        44.741                                  
  25065461.898 6 131719863.186 6     -3563.273 6        37.093    25065478.469 4
 102638864.367 4     -2776.771 4        29.482                                  
  22326879.406 7 117328546.995 7     -1040.715 7        45.031    22326890.797 6
  91424872.178 6      -810.951 6        39.808                                  
  20408376.895 8 107246760.508 8       164.932 8        50.505    20408387.398 7
  83568930.705 7       128.639 7        44.741                                  
  24023852.441 7 126246195.303 7       -49.893 7        42.198    24023863.988 7
  98373710.333 7       -38.842 7        44.741                                  
  20716349.348 8 108865158.788 8      1413.271 8        49.453    20716359.605 7
  84830028.962 7      1101.314 7        44.741                                  
  22500252.871 7 118239634.327 7      3167.725 7        47.005    22500260.883 7
  92134820.259 7      2468.404 7        44.169                                  
  23363505.258 7 122776047.396 7     -2005.441 7        44.697    23363516.590 6
  95669675.282 6     -1562.592 6        39.407                                  
  20921101.582 8 109941151.000 8     -1863.605 8        50.877    20921114.805 7
  85668468.781 7     -1452.104 7        44.741                                  
 22  6 20  1 17  0.0000000  0 10G01G07G08G13G14G15G17G19G21G30       0.000000000
  21555597.066 7 113275436.287 7       494.389 7        46.557    21555610.945 7
  88266644.489 7       385.275 7        44.741                                  
  22370677.129 7 117558701.307 7     -3131.861 7        44.236    22370689.660 7
  91604201.903 7     -2440.643 7        44.741                                  
  25085807.566 6 131826781.074 6     -3563.014 6        37.507    25085824.066 4
 102722176.916 4     -2776.932 4        29.824                                  
  22332879.395 7 117360074.447 7     -1059.576 7        45.866    22332890.629 6
  91449438.976 6      -825.721 6        40.938                                  
  20407465.832 8 107241973.016 8       155.248 8        50.433    20407476.391 7
  83565200.197 7       120.686 7        44.741                                  
  24024192.574 7 126247984.597 7       -68.756 7        42.458    24024204.004 7
  98375104.560 7       -53.553 7        44.741                                  
  20708325.754 8 108822995.092 8      1398.529 8        49.493    20708335.688 7
  84797173.149 7      1089.729 7        44.741                                  
  22482198.391 7 118144761.141 7      3158.451 7        46.356    22482207.438 7
  92060893.125 7      2461.137 7        44.191                                  
  23375002.266 7 122836463.104 7     -2021.041 7        44.697    23375012.898 6
  95716752.423 6     -1574.959 6        39.528                                  
  20931790.121 8 109997319.806 8     -1880.416 8        50.811    20931803.184 7
  85712235.653 7     -1465.193 7        44.741                                  
 22  6 20  1 17 30.0000000  0 10G01G07G08G13G14G15G17G19G21G30       0.000000000
  21552840.871 7 113260954.323 7       471.369 7        46.220    21552855.480 7
  88255359.833 7       367.176 7        44.741                                  
  22388589.129 7 117652822.376 7     -3142.479 7        44.989    22388600.320 7
  91677542.868 7     -2448.959 7        44.741                                  
  25106152.277 6 131933688.106 6     -3563.650 6        37.093    25106167.359 4
 102805481.135 4     -2776.674 4        29.149                                  
  22338985.027 7 117392158.190 7     -1078.865 7        46.304    22338995.359 6
  91474439.239 6      -840.736 6        41.252                                  
  20406610.039 8 107237476.979 8       145.002 8        50.290    20406620.645 7
  83561696.774 7       112.701 7        44.741                                  
  24024639.633 6 126250335.450 6       -87.518 6        41.747    24024651.598 7
  98376936.346 7       -68.412 7        44.741                                  
  20700385.625 8 108781268.179 8      1383.479 8        50.051    20700395.156 7
  84764657.681 7      1077.938 7        44.741                                  
  22464196.754 7 118050161.889 7      3148.264 7        46.468    22464205.152 7
  91987179.483 7      2453.113 7        44.154                                  
  23386583.883 7 122897324.598 7     -2036.307 7        45.726    23386594.586 6
  95764176.917 6     -1586.693 6        39.928                                  
  20942570.422 8 110053970.313 8     -1896.717 8        51.185    20942583.902 7
  85756380.881 7     -1477.885 7        44.741                                  
 22  6 20  1 18  0.0000000  0 10G01G07G08G13G14G15G17G19G21G30       0.000000000
  21550213.020 7 113247144.498 7       449.184 7        46.458    21550227.414 7
  88244598.907 7       350.031 7        44.741                                  
  22406558.500 7 117747252.274 7     -3153.082 7        45.058    22406569.848 7
  91751124.481 7     -2457.334 7        44.741                                  
  25126493.254 6 132040582.346 6     -3564.078 6        38.364    25126508.391 4
 102888775.204 4     -2776.045 4        29.587                                  
  22345195.535 7 117424795.798 7     -1097.418 7        45.726    22345206.352 6
  91499871.117 6      -855.166 6        40.812                                  
  20405809.902 8 107233272.064 8       135.238 8        50.240    20405820.750 7
  83558420.196 7       105.363 7        44.741                                  
  24025194.145 7 126253246.794 7      -106.324 7        42.006    24025205.492 7
  98379204.935 7       -82.820 7        44.741                                  
  20692527.766 8 108739977.256 8      1369.068 8        49.830    20692537.594 7
  84732481.952 7      1066.633 7        44.741                                  
  22446247.621 7 117955837.247 7      3139.225 7        46.616    22446256.707 7
  91913679.785 7      2446.223 7        44.741                                  
  23398249.055 7 122958629.022 7     -2050.895 7        44.889    23398260.441 6
  95811946.572 6     -1598.193 6        39.673                                  
  20953441.863 8 110111100.815 8     -1912.418 8        50.748                  
         0.000 0         0.000 0         0.000                                  
 22  6 20  1 18 30.0000000  0 10G01G07G08G13G14G15G17G19G21G30       0.000000000
  21547713.371 7 113234007.781 7       426.727 7        46.134    21547726.848 7
  88234362.488 7       332.717 7        44.741                                  
  22424585.676 7 117841989.198 7     -3162.941 7        43.869    22424597.797 7
  91824945.337 7     -2464.490 7        44.741                                  
  25146832.363 6 132147462.135 6     -3563.078 6        38.736    25146846.930 4
 102972058.149 4     -2775.740 4        29.300                                  
  22351511.492 7 117457985.968 7     -1115.598 7        45.235    22351522.281 6
  91525733.544 6      -869.295 6        39.517                                  
  20405065.277 8 107229358.624 8       125.789 8        50.059    20405075.980 7
  83555370.754 7        98.029 7        44.741                                  
  24025854.828 6 126256718.027 6      -124.973 6        41.342    24025866.316 7
  98381909.806 7       -97.166 7        44.741                                  
  20684753.605 8 108699122.553 8      1354.617 8        49.912    20684763.336 7
  84700648.128 7      1055.510 7        44.741                                  
  22428350.711 7 117861788.887 7      3130.107 7        46.156    22428360.227 7
  91840395.378 7      2438.947 7        44.741                                  
  23409999.500 7 123020374.750 7     -2065.695 7        44.742    23410010.703 6
  95860060.064 6     -1609.607 6        40.199                                  
  20964404.590 8 110168710.258 8     -1928.059 8        50.389    20964417.809 7
  85845786.607 7     -1502.459 7        44.741                                  
 22  6 20  1 19  0.0000000  0 10G01G07G08G13G14G15G17G19G21G30       0.000000000
  21545341.738 7 113221544.960 7       404.801 7        46.335    21545356.008 7
  88224651.206 7       315.418 7        44.741                                  
  22442672.613 7 117937031.252 7     -3172.662 7        45.519    22442683.461 7
  91899003.965 7     -2472.143 7        44.741                                  
  25167167.273 6 132254325.825 6     -3561.549 6        36.014    25167183.816 4
 103055328.562 4     -2775.482 4        24.953                                  
  22357931.715 7 117491726.892 7     -1133.463 7        44.757    22357941.691 6
  91552025.145 6      -883.119 6        38.809                                  
  20404376.121 8 107225736.968 8       116.324 8        50.015    20404386.496 7
  83552548.667 7        90.730 7        44.741                                  
  24026622.488 6 126260748.543 6      -142.799 6        41.438    24026633.465 7
  98385050.453 7      -111.576 7        44.741                                  
  20677062.531 8 108658704.365 8      1340.426 8        50.103    20677072.105 7
  84669154.435 7      1044.461 7        44.741                                  
  22410507.266 7 117768018.747 7      3121.520 7        46.996    22410515.738 7
  91767327.781 7      2432.234 7        44.741                                  
  23421833.320 7 123082559.667 7     -2079.869 7        45.262    23421843.238 6
  95908515.782 6     -1620.678 6        39.670                                  
  20975458.559 8 110226797.553 8     -1943.561 8        50.611    20975471.320 7
  85891049.405 7     -1514.564 7        44.741                                  
 22  6 20  1 19 30.0000000  0 10G01G07G08G13G14G15G17G19G21G30       0.000000000
  21543098.852 7 113209757.276 7       381.701 7        46.557    21543112.961 7
  88215465.985 7       297.178 7        44.741                                  
  22460816.031 7 118032376.858 7     -3183.279 7        44.845    22460827.320 7
  91973299.136 7     -2480.734 7        44.741                                  
  25187499.285 5 132361171.899 5     -3561.932 5        32.407    25187518.461 3
 103138585.270 3     -2774.895 3        18.618                                  
  22364457.504 7 117526017.319 7     -1151.854 7        45.314    22364466.934 6
  91578744.976 6      -897.568 6        39.060                                  
  20403742.160 8 107222407.817 8       106.096 8        49.703    20403753.234 7
  83549954.526 7        82.588 7        44.741                                  
  24027494.855 6 126265337.739 6      -161.717 6        40.556    24027507.133 7
  98388626.475 7      -126.357 7        44.741                                  
  20669453.844 8 108618723.100 8      1325.451 8        49.523                  
         0.000 0         0.000 0         0.000                                  
  22392716.582 7 117674528.541 7      3111.586 7        46.824    22392724.539 7
  91694478.297 7      2424.678 7        44.362                                  
  23433750.094 7 123145182.229 7     -2094.783 7        45.017    23433759.340 6
  95957312.527 6     -1632.373 6        39.210                                  
  20986602.922 8 110285362.021 8     -1960.193 8        50.465    20986616.188 7
  85936684.025 7     -1527.432 7        44.741                                  
 22  6 20  1 20  0.0000000  0  9G01G07G13G14G15G17G19G21G30          0.000000000
  21540983.723 7 113198644.846 7       359.102 7        45.750    21540998.191 7
  88206806.944 7       279.928 7        44.741                                  
  22479016.664 7 118128023.377 7     -3193.125 7        44.065    22479028.113 7
  92047828.794 7     -2488.393 7        44.741                                  
  22371086.578 7 117560854.662 7     -1170.684 7        45.738    22371097.039 6
  91605890.921 6      -912.318 6        40.465                                  
  20403164.410 8 107219370.714 8        96.367 8        49.839    20403174.957 7
  83547587.933 7        75.104 7        44.741                                  
  24028474.379 6 126270484.299 6      -180.820 6        40.931    24028486.254 7
  98392636.736 7      -141.264 7        44.741                                  
  20661928.836 8 108579178.176 8      1310.742 8        49.966    20661938.438 7
  84607183.012 7      1021.529 7        44.741                                  
  22374979.105 7 117581319.186 7      3102.146 7        46.498    22374988.266 7
  91621847.648 7      2417.271 7        44.741                                  
  23445749.695 7 123208239.835 7     -2109.316 7        45.726    23445759.754 6
  96006448.266 6     -1643.588 6        39.992                                  
  20997837.555 8 110344401.673 8     -1975.879 8        50.269    20997851.359 7
  85982690.924 7     -1539.760 7        44.741                                  
 22  6 20  1 20 30.0000000  0  9G01G07G13G14G15G17G19G21G30          0.000000000
  21538997.828 7 113188208.670 7       336.486 7        45.901    21539012.938 7
  88198674.882 7       262.205 7        44.741                                  
  22497274.414 7 118223969.511 7     -3203.357 7        43.547    22497286.520 7
  92122591.873 7     -2496.096 7        44.741                                  
  22377819.559 7 117596237.479 7     -1188.689 7        45.654    22377831.078 6
  91633461.920 6      -926.291 6        40.670                                  
  20402642.488 8 107216626.244 8        86.506 8        50.231    20402652.906 7
  83545449.362 7        67.420 7        44.741                                  
  24029559.520 6 126276187.636 6      -198.592 6        40.556    24029571.082 7
  98397080.887 7      -155.217 7        44.741                                  
  20654486.848 8 108540070.137 8      1296.174 8        49.722    20654496.793 7
  84576712.232 7      1010.115 7        44.741                                  
  22357295.887 7 117488392.355 7      3092.836 7        47.229    22357304.715 7
  91549437.185 7      2410.078 7        44.741                                  
  23457831.453 7 123271730.588 7     -2123.689 7        45.843    23457841.941 6
  96055921.519 6     -1654.846 6        40.166                                  
  21009162.926 8 110403915.778 8     -1991.717 8        50.509    21009176.535 7
  86029066.520 7     -1552.229 7        44.741                                  
 22  6 20  1 21  0.0000000  0  9G01G07G13G14G15G17G19G21G30          0.000000000
  21537139.996 7 113178449.631 7       313.539 7        44.974    21537155.465 7
  88191070.455 7       244.525 7        44.741                                  
  22515589.965 7 118320213.257 7     -3213.729 7        45.141    22515601.043 7
  92197586.896 7     -2503.912 7        44.741                                  
  22384655.277 7 117632164.150 7     -1206.736 7        43.905    22384667.582 6
  91661456.682 6      -940.318 6        39.824                                  
  20402175.797 8 107214174.851 8        76.645 8        50.319    20402186.527 7
  83543539.181 7        59.682 7        44.741                                  
  24030750.406 6 126282447.222 6      -218.084 6        39.079    24030762.453 7
  98401958.385 7      -169.947 7        44.741                                  
  20647127.559 8 108501398.836 8      1281.469 8        49.825                  
         0.000 0         0.000 0         0.000                                  
  22339666.605 7 117395749.776 7      3082.758 7        46.942    22339675.875 7
  91477248.160 7      2402.240 7        44.741                                  
  23469995.629 7 123335652.610 7     -2138.494 7        46.058    23470006.031 6
  96105730.827 6     -1666.354 6        40.067                                  
  21020578.445 8 110463903.219 8     -2007.518 8        50.261    21020591.379 7
  86075806.944 7     -1564.479 7        44.741                                  
 22  6 20  1 21 30.0000000  0  9G01G07G13G14G15G17G19G21G30          0.000000000
  21535412.383 7 113169368.586 7       291.367 7        45.195    21535427.551 7
  88183994.342 7       227.014 7        44.741                                  
  22533960.758 7 118416752.643 7     -3223.281 7        45.392    22533972.277 7
  92272812.282 7     -2511.816 7        44.741                                  
  22391596.746 7 117668632.938 7     -1225.078 7        45.168    22391606.891 6
  91689873.852 6      -954.607 6        39.274                                  
  20401765.344 8 107212017.082 8        66.680 8        50.465    20401776.289 7
  83541857.777 7        51.975 7        44.741                                  
  24032047.184 6 126289262.236 6      -237.344 6        39.548    24032058.887 7
  98407268.774 7      -184.588 7        44.741                                  
  20639852.129 8 108463164.720 8      1266.836 8        50.006    20639861.328 7
  84516780.953 7       987.014 7        44.741                                  
  22322091.559 7 117303393.456 7      3073.145 7        47.187    22322100.074 7
  91405282.229 7      2394.572 7        44.741                                  
  23482241.371 7 123400004.052 7     -2152.246 7        46.448    23482251.473 6
  96155874.761 6     -1677.127 6        39.870                                  
  21032083.113 8 110524363.030 8     -2023.535 8        49.736    21032096.277 7
  86122918.446 7     -1576.873 7        44.741                                  
 22  6 20  1 22  0.0000000  0  9G01G07G13G14G15G17G19G21G30          0.000000000
  21533813.867 7 113160965.815 7       268.482 7        46.335    21533828.188 7
  88177446.782 7       208.783 7        44.741                                  
  22552387.383 7 118513585.253 7     -3233.082 7        45.506    22552399.633 7
  92348266.124 7     -2519.107 7        44.741                                  
  22398639.406 7 117705641.796 7     -1242.885 7        46.036    22398648.734 6
  91718711.913 6      -968.541 6        40.083                                  
  20401410.582 8 107210152.809 8        56.686 8        50.421    20401421.355 7
  83540405.071 7        44.271 7        44.741                                  
  24033450.449 6 126296631.636 6      -255.912 6        41.438    24033461.766 7
  98413011.139 7      -199.732 7        44.741                                  
  20632659.434 8 108425367.521 8      1251.939 8        49.811    20632669.336 7
  84487332.583 7       975.893 7        44.741                                  
  22304571.492 7 117211324.095 7      3063.541 7        47.075    22304579.934 7
  91333539.891 7      2387.201 7        44.741                                  
  23494567.988 7 123464782.621 7     -2166.732 7        46.635    23494578.891 6
  96206351.536 6     -1688.326 6        39.925                                  
  21043677.813 8 110585293.602 8     -2039.311 8        49.660    21043690.793 7
  86170395.784 7     -1589.127 7        44.741                                  
 22  6 20  1 22 30.0000000  0  9G01G07G13G14G15G17G19G21G30          0.000000000
  21532343.750 7 113153241.993 7       245.779 7        45.494    21532358.203 7
  88171428.247 7       191.857 7        44.741                                  
  22570869.434 7 118610709.507 7     -3242.463 7        45.288    22570881.410 7
  92423947.267 7     -2526.717 7        44.741                                  
  22405783.711 7 117743188.917 7     -1260.881 7        45.379    22405794.313 6
  91747969.386 6      -982.518 6        40.265                                  
  20401111.816 8 107208582.405 8        47.752 8        50.352    20401122.219 7
  83539181.379 7        36.994 7        44.741                                  
  24034956.789 6 126304554.540 6      -273.518 6        38.795    24034969.824 7
  98419184.804 7      -213.377 7        44.741                                  
  20625550.066 8 108388007.223 8      1238.084 8        49.908    20625559.754 7
  84458218.687 7       964.631 7        44.741                                  
  22287106.277 7 117119543.547 7      3054.529 7        47.639    22287115.406 7
  91262022.609 7      2380.100 7        44.741                                  
  23506976.070 7 123529986.246 7     -2180.256 7        46.356    23506987.691 6
  96257159.498 6     -1698.807 6        39.500                                  
  21055361.855 8 110646693.798 8     -2054.318 8        49.220    21055374.961 7
  86218241.054 7     -1600.779 7        44.741                                  
 22  6 20  1 23  0.0000000  0  9G01G07G13G14G15G17G19G21G30          0.000000000
  21531003.672 7 113146197.778 7       223.107 7        45.843    21531017.438 7
  88165939.314 7       173.756 7        44.741                                  
  22589407.543 7 118708123.387 7     -3252.461 7        45.431    22589418.645 7
  92499854.065 7     -2534.330 7        44.741                                  
  22413031.152 7 117781272.411 7     -1278.945 7        45.630    22413041.184 6
  91777644.801 6      -996.557 6        40.250                                  
  20400868.539 8 107207306.324 8        37.443 8        49.774    20400879.172 7
  83538187.017 7        29.381 7        44.741                                  
  24036570.414 6 126313030.400 6      -292.207 6        38.854    24036582.418 7
  98425789.346 7      -227.260 7        44.681                                  
  20618523.516 8 108351084.022 8      1223.361 8        49.587    20618533.301 7
  84429446.365 7       953.209 7        44.741                                  
  22269696.402 7 117028053.248 7      3044.436 7        47.730    22269704.672 7
  91190731.503 7      2372.291 7        44.741                                  
  23519463.824 7 123595612.887 7     -2195.137 7        46.134    23519475.102 6
  96308297.126 6     -1710.521 6        39.187                                  
  21067134.578 8 110708562.481 8     -2070.293 8        48.894    21067148.371 7
  86266450.383 7     -1612.943 7        44.741                                  
 22  6 20  1 23 30.0000000  0  9G01G07G13G14G15G17G19G21G30          0.000000000
  21529791.801 7 113139833.723 7       200.402 7        45.379    21529806.078 7
  88160980.353 7       156.307 7        44.741                                  
  22607999.020 7 118805825.146 7     -3261.414 7        45.353    22608010.965 7
  92575985.178 7     -2541.428 7        44.741                                  
  22420380.039 7 117819890.393 7     -1296.277 7        45.969    22420389.684 6
  91807736.702 6     -1010.080 6        40.359                                  
  20400682.063 8 107206324.757 8        27.277 8        50.449    20400692.723 7
  83537422.166 7        21.541 7        44.741                                  
  24038288.059 6 126322058.109 6      -309.910 6        38.736    24038300.422 7
  98432823.908 7      -242.170 7        44.580                                  
  20611580.668 8 108314597.780 8      1209.094 8        49.792    20611590.652 7
  84401017.553 7       941.932 7        44.741                                  
  22252341.613 7 116936854.766 7      3034.932 7        47.170    22252350.227 7
  91119667.756 7      2364.881 7        44.741                                  
  23532032.563 7 123661660.336 7     -2208.504 7        45.738    23532043.695 6
  96359762.612 6     -1720.900 6        38.764                                  
  21078997.297 8 110770898.325 8     -2085.926 8        48.807    21079010.605 7
  86315023.742 7     -1625.217 7        44.741                                  
 22  6 20  1 24  0.0000000  0  9G01G07G13G14G15G17G19G21G30          0.000000000
  21528710.352 7 113134150.301 7       178.088 7        45.690    21528725.203 7
  88156551.770 7       138.787 7        44.741                                  
  22626645.941 7 118903812.556 7     -3271.209 7        44.860    22626657.230 7
  92652338.864 7     -2549.162 7        44.741                                  
  22427829.445 7 117859040.732 7     -1314.197 7        45.275    22427839.691 6
  91838243.423 6     -1023.986 6        39.567                                  
  20400551.461 8 107205638.018 8        17.893 8        49.980    20400562.090 7
  83536887.027 7        14.119 7        44.741                                  
  24040110.520 6 126331636.467 6      -328.494 6        37.585    24040123.641 7
  98440287.532 7      -256.174 7        44.741                                  
  20604720.738 8 108278548.683 8      1194.182 8        49.862    20604730.824 7
  84372928.353 7       930.545 7        44.741                                  
  22235042.270 7 116845949.547 7      3024.965 7        46.014    22235051.902 7
  91048832.553 7      2357.088 7        44.741                                  
  23544680.496 7 123728126.541 7     -2222.811 7        45.195    23544691.773 6
  96411554.421 6     -1731.955 6        37.846                                  
  21090948.234 8 110833700.030 8     -2101.365 8        48.917                  
         0.000 0         0.000 0         0.000                                  
 22  6 20  1 24 30.0000000  0  9G01G07G13G14G15G17G19G21G30          0.000000000
  21527759.102 7 113129148.102 7       155.279 7        45.481    21527773.082 7
  88152653.983 7       121.641 7        44.741                                  
  22645346.363 7 119002083.692 7     -3280.248 7        45.431    22645358.109 7
  92728913.660 7     -2555.938 7        44.741                                  
  22435381.145 7 117898721.919 7     -1331.791 7        45.726    22435391.590 6
  91869163.798 6     -1037.715 6        40.175                                  
  20400476.934 8 107205246.524 8         8.072 8        50.622    20400487.465 7
  83536581.955 7         6.445 7        44.741                                  
  24042037.707 6 126341764.714 6      -346.225 6        37.737    24042051.402 7
  98448179.682 7      -270.332 7        44.390                                  
  20597943.785 8 108242936.630 8      1180.066 8        49.592    20597954.102 7
  84345178.714 7       919.707 7        44.741                                  
  22217799.863 7 116755339.023 7      3015.438 7        46.407    22217809.406 7
  90978227.014 7      2349.727 7        44.741                                  
  23557408.551 7 123795009.931 7     -2236.322 7        46.002    23557418.824 6
  96463671.312 6     -1742.637 6        37.369                                  
  21102986.867 8 110896966.424 8     -2116.537 8        48.940    21103000.406 7
  86413258.532 7     -1649.375 7        44.741                                  
 22  6 20  1 25  0.0000000  0  9G01G07G13G14G15G17G19G21G30          0.000000000
  21526936.254 7 113124827.36117       132.859 7        46.002    21526950.434 7
  88149287.26217       104.008 7        44.741                                  
  22664100.348 7 119100636.22917     -3289.348 7        44.030    22664111.953 7
  92805707.69517     -2563.475 7        44.741                                  
  22443032.918 7 117938931.417 7     -1348.762 7        46.488    22443043.305 6
  91900495.824 6     -1050.973 6        40.941                                  
  20400458.691 8 107205150.262 8        -1.535 8        50.572    20400469.766 7
  83536506.924 7        -0.992 7        44.741                                  
  24044070.258 6 126352441.81316      -365.539 6        39.788    24044082.750 7
  98456499.45617      -284.332 7        44.741                                  
  20591250.594 8 108207761.452 8      1165.418 8        49.788    20591260.008 7
  84317767.479 7       908.129 7        44.741                                  
  22200613.594 7 116665024.53017      3005.359 7        45.820    22200622.539 7
  90907852.07217      2341.820 7        44.741                                  
  23570214.922 7 123862307.56317     -2249.660 7        46.102    23570225.336 6
  96516111.01016     -1753.082 6        36.727                                  
  21115114.555 8 110960695.93318     -2131.711 8        49.030    21115128.063 7
  86462918.84217     -1660.973 7        44.741                                  
 22  6 20  1 25 30.0000000  0  9G01G07G13G14G15G17G19G21G30          0.000000000
  21526243.684 7 113121188.688 7       109.895 7        45.593    21526258.652 7
  88146451.995 7        85.918 7        44.741                                  
  22682907.773 7 119199468.762 7     -3298.992 7        44.697    22682919.938 7
  92882719.903 7     -2570.471 7        44.741                                  
  22450784.488 7 117979667.471 7     -1366.414 7        45.443    22450795.406 6
  91932238.147 6     -1064.688 6        40.964                                  
  20400496.605 8 107205349.819 8       -11.102 8        50.397    20400507.340 7
  83536662.437 7        -8.926 7        44.741                                  
  24046206.473 6 126363666.761 6      -383.035 6        39.346    24046218.551 7
  98465246.186 7      -298.418 7        44.741                                  
  20584639.742 8 108173023.032 8      1150.969 8        49.356    20584649.672 7
  84290699.593 7       896.777 7        44.741                                  
  22183483.484 7 116575007.554 7      2995.773 7        45.820    22183494.102 7
  90837709.020 7      2334.355 7        44.741                                  
  23583099.629 7 123930017.538 7     -2263.523 7        44.917    23583110.129 6
  96568871.994 6     -1763.809 6        36.260                                  
  21127330.164 8 111024887.476 8     -2147.254 8        49.118    21127343.070 7
  86512938.189 7     -1673.184 7        44.741                                  
 22  6 20  1 26  0.0000000  0  9G01G07G13G14G15G17G19G21G30          0.000000000
  21525681.273 7 113118232.268 7        87.326 7        45.785    21525695.398 7
  88144148.360 7        67.762 7        44.741                                  
  22701767.805 7 119298578.761 7     -3308.260 7        44.903    22701779.594 7
  92959948.379 7     -2578.195 7        44.741                                  
  22458636.313 7 118020927.988 7     -1384.080 7        46.263    22458646.859 6
  91964389.158 6     -1078.527 6        41.665                                  
  20400590.988 8 107205845.257 8       -21.541 8        50.138    20400601.520 7
  83537048.479 7       -16.613 7        44.741                                  
  24048446.660 6 126375438.452 6      -401.971 6        39.448    24048458.695 7
  98474418.899 7      -312.883 7        44.741                                  
  20578112.258 8 108138721.408 8      1135.959 8        49.548    20578121.832 7
  84263969.054 7       885.398 7        44.741                                  
  22166410.840 7 116485289.667 7      2985.627 7        46.547    22166420.313 7
  90767799.020 7      2326.338 7        44.741                                  
  23596061.980 7 123998137.579 7     -2277.303 7        44.621    23596073.070 6
  96621952.542 6     -1774.465 6        36.327                                  
  21139633.148 8 111089539.448 8     -2162.693 8        49.199    21139645.813 7
  86563315.307 7     -1685.090 7        44.741                                  
 22  6 20  1 26 30.0000000  0  9G01G07G13G14G15G17G19G21G30          0.000000000
  21525249.246 7 113115958.649 7        64.664 7        46.069    21525262.641 7
  88142376.755 7        50.285 7        44.741                                  
  22720680.516 7 119397964.340 7     -3317.465 7        44.845    22720692.680 7
  93037391.563 7     -2585.125 7        44.741                                  
  22466587.613 7 118062711.292 7     -1401.176 7        46.025    22466598.059 6
  91996947.521 6     -1091.902 6        41.351                                  
  20400741.488 8 107206637.070 8       -31.254 8        50.029    20400752.035 7
  83537665.465 7       -24.188 7        44.741                                  
  24050790.762 6 126387756.006 6      -419.887 6        39.926    24050802.465 7
  98484016.926 7      -326.707 7        44.741                                  
  20571667.938 8 108104856.624 8      1121.793 8        49.101    20571678.113 7
  84237583.913 7       874.152 7        44.741                                  
  22149395.320 7 116395872.507 7      2975.916 7        46.058    22149404.820 7
  90698123.320 7      2318.859 7        44.741                                  
  23609102.059 7 124066665.974 7     -2290.727 7        43.547    23609112.832 5
  96675351.260 5     -1784.988 5        35.458                                  
  21152023.445 8 111154650.739 8     -2177.836 8        49.283    21152035.980 7
  86614051.329 7     -1697.117 7        42.566                                  
 22  6 20  1 27  0.0000000  0  9G01G07G13G14G15G17G19G21G30          0.000000000
  21524946.172 7 113114367.924 7        41.588 7        46.080    21524960.125 7
  88141137.270 7        32.369 7        44.741                                  
  22739644.914 7 119497623.266 7     -3326.500 7        45.275    22739656.730 7
  93115047.737 7     -2592.281 7        44.741                                  
  22474637.098 7 118105014.901 7     -1418.492 7        45.379    22474647.887 6
  92029911.335 6     -1105.346 6        40.678                                  
  20400948.680 8 107207725.351 8       -41.205 8        50.029    20400958.969 7
  83538513.468 7       -32.025 7        44.741                                  
  24053237.914 6 126400617.815 6      -437.729 6        40.103    24053249.820 7
  98494039.130 7      -341.400 7        44.741                                  
  20565306.781 8 108071428.052 8      1107.076 8        49.101    20565317.012 7
  84211534.682 7       862.779 7        44.741                                  
  22132437.348 7 116306757.120 7      2965.494 7        45.630    22132446.734 7
  90628682.772 7      2310.748 7        44.741                                  
  23622220.004 7 124135600.381 7     -2304.977 7        42.607    23622231.195 5
  96729066.347 5     -1796.127 5        35.762                                  
  21164500.625 8 111220219.723 8     -2193.355 8        49.161    21164513.703 7
  86665145.006 7     -1709.135 7        44.741                                  
 22  6 20  1 27 30.0000000  0  9G01G07G13G14G15G17G19G21G30          0.000000000
  21524773.441 7 113113460.564 7        18.943 7        46.397    21524787.320 7
  88140430.291 7        14.674 7        44.741                                  
  22758660.809 7 119597553.581 7     -3335.490 7        44.874    22758672.926 7
  93192915.385 7     -2599.271 7        44.741                                  
  22482786.738 7 118147836.973 7     -1436.096 7        46.366    22482795.750 6
  92063279.165 6     -1118.959 6        39.899                                  
  20401211.805 8 107209110.526 8       -50.803 8        49.889    20401222.910 7
  83539592.813 7       -39.721 7        44.741                                  
  24055788.793 6 126414023.178 6      -456.232 6        40.315    24055801.184 7
  98504484.800 7      -355.170 7        44.741                                  
  20559028.461 8 108038435.892 8      1092.342 8        49.052                  
         0.000 0         0.000 0         0.000                                  
  22115537.168 7 116217944.873 7      2955.527 7        46.069    22115546.699 7
  90559478.470 7      2302.936 7        44.741                                  
  23635415.492 7 124204938.409 7     -2317.326 7        44.253    23635425.293 6
  96783095.939 6     -1805.756 6        36.282                                  
  21177064.793 8 111286245.216 8     -2208.654 8        49.231    21177077.813 7
  86716593.384 7     -1720.697 7        44.741                                  
 22  6 20  1 28  0.0000000  0  9G01G07G13G14G15G17G19G21G30          0.000000000
  21524730.941 7 113113236.829 7        -4.494 7        46.448    21524744.063 7
  88140255.966 7        -3.066 7        44.741                                  
  22777728.094 7 119697753.353 7     -3343.967 7        44.048    22777740.414 7
  93270993.016 7     -2606.271 7        44.741                                  
  22491033.410 7 118191175.223 7     -1453.459 7        45.946    22491043.871 6
  92097049.191 6     -1132.617 6        40.286                                  
  20401532.188 8 107210792.892 8       -61.193 8        49.848    20401543.094 7
  83540903.734 7       -47.773 7        44.741                                  
  24058443.863 6 126427970.889 6      -474.162 6        41.564    24058455.441 7
  98515353.134 7      -369.414 7        44.741                                  
  20552833.438 8 108005880.196 8      1077.654 8        49.156    20552843.453 7
  84160458.461 7       839.668 7        44.741                                  
  22098694.391 7 116129437.586 7      2945.350 7        44.816    22098703.906 7
  90490511.797 7      2295.039 7        44.741                                  
  23648686.840 7 124274678.157 7     -2331.701 7        44.712    23648697.340 6
  96837438.569 6     -1816.836 6        37.216                                  
  21189715.980 8 111352725.688 8     -2223.732 8        49.612                  
         0.000 0         0.000 0         0.000                                  
 22  6 20  1 28 30.0000000  0  9G01G07G13G14G15G17G19G21G30          0.000000000
  21524818.180 7 113113696.582 7       -26.914 7        46.897    21524831.602 7
  88140614.287 7       -21.203 7        44.741                                  
  22796846.695 7 119798220.532 7     -3354.414 7        44.667    22796859.047 7
  93349278.984 7     -2613.352 7        44.741                                  
  22499378.195 7 118235027.569 7     -1470.254 7        46.263    22499388.898 6
  92131219.790 6     -1145.598 6        41.217                                  
  20401909.043 8 107212772.529 8       -71.445 8        50.441    20401919.902 7
  83542446.281 7       -55.578 7        44.741                                  
  24061200.336 6 126442459.433 6      -492.148 6        40.895    24061212.672 7
  98526642.853 7      -383.723 7        44.741                                  
  20546721.645 8 107973760.552 8      1063.008 8        49.953    20546731.102 7
  84135428.169 7       828.291 7        44.741                                  
  22081909.660 7 116041236.281 7      2934.766 7        45.405    22081918.887 7
  90421783.557 7      2286.846 7        44.741                                  
  23662032.973 7 124344817.056 7     -2344.492 7        44.960    23662043.891 6
  96892092.239 6     -1826.887 6        36.734                                  
  21202452.828 8 111419659.519 8     -2239.102 8        49.616    21202465.762 7
  86820554.472 7     -1744.855 7        44.741                                  
 22  6 20  1 29  0.0000000  0  9G01G07G13G14G15G17G19G21G30          0.000000000
  21525035.969 7 113114840.405 7       -49.598 7        46.428    21525049.262 7
  88141505.613 7       -38.766 7        44.741                                  
  22816016.152 7 119898952.929 7     -3362.625 7        44.605    22816027.488 7
  93427771.651 7     -2619.920 7        44.741                                  
  22507820.766 7 118279392.022 7     -1487.742 7        46.134    22507830.641 6
  92165789.422 6     -1159.254 6        41.385                                  
  20402342.332 8 107215049.910 8       -81.043 8        50.120    20402353.293 7
  83544220.850 7       -63.121 7        44.741                                  
  24064060.605 6 126457488.156 6      -509.930 6        41.921    24064072.668 7
  98538353.537 7      -397.105 7        44.741                                  
  20540692.473 8 107942076.964 8      1049.074 8        49.665    20540701.887 7
  84110739.669 7       817.211 7        44.741                                  
  22065184.793 7 115953342.587 7      2924.994 7        45.481    22065194.066 7
  90353294.990 7      2279.203 7        44.741                                  
  23675456.000 7 124415353.178 7     -2357.605 7        44.903    23675466.746 6
  96947055.431 6     -1837.066 6        37.887                                  
  21215276.016 8 111487045.543 8     -2253.660 8        49.498    21215288.750 7
  86873063.007 7     -1756.246 7        44.741                                  
 22  6 20  1 29 30.0000000  0  9G01G07G13G14G15G17G19G21G30          0.000000000
  21525383.625 7 113116668.367 7       -71.707 7        46.241    21525397.305 7
  88142930.004 7       -56.107 7        44.741                                  
  22835234.773 7 119999948.332 7     -3370.145 7        44.496    22835246.164 7
  93506469.309 7     -2626.205 7        44.741                                  
  22516359.863 7 118324266.401 7     -1503.992 7        46.356    22516369.766 6
  92200756.432 6     -1171.908 6        40.226                                  
  20402832.652 8 107217625.285 8       -90.398 8        50.223    20402843.453 7
  83546227.617 7       -70.678 7        44.741                                  
  24067023.125 7 126473055.839 7      -527.566 7        43.003    24067034.359 7
  98550484.169 7      -410.912 7        44.741                                  
  20534745.660 8 107910829.091 8      1034.621 8        49.299    20534755.633 7
  84086391.669 7       806.178 7        44.741                                  
  22048518.105 7 115865757.793 7      2914.816 7        45.843    22048527.438 7
  90285047.132 7      2271.375 7        44.741                                  
  23688954.379 7 124486284.563 7     -2370.457 7        45.593    23688964.652 6
  97002326.600 6     -1847.084 6        37.988                                  
  21228185.426 8 111554882.203 8     -2268.367 8        50.356    21228197.445 7
  86925922.694 7     -1767.611 7        44.741                                  
 22  6 20  1 30  0.0000000  0  9G01G07G13G14G15G17G19G21G30          0.000000000
  21525862.254 7 113119180.754 7       -95.490 7        46.577    21525875.176 7
  88144887.731 7       -74.139 7        44.741                                  
  22854503.230 7 120101205.157 7     -3379.455 7        43.905    22854515.379 7
  93585370.626 7     -2633.748 7        44.741                                  
  22524994.875 7 118369648.543 7     -1520.998 7        44.401    22525005.820 6
  92236119.100 6     -1185.174 6        39.521                                  
  20403379.246 8 107220499.222 8      -101.018 8        49.774    20403390.395 7
  83548467.023 7       -78.670 7        44.741                                  
  24070088.281 7 126489161.162 7      -546.389 7        42.558    24070099.414 7
  98563033.730 7      -425.760 7        44.741                                  
  20528882.164 8 107880017.275 8      1019.490 8        49.085    20528892.109 7
  84062381.474 7       794.416 7        44.741                                  
  22031909.984 7 115778483.486 7      2903.748 7        45.991    22031919.027 7
  90217041.232 7      2262.695 7        44.741                                  
  23702526.344 7 124557608.596 7     -2384.299 7        45.379    23702537.492 6
  97057903.748 6     -1857.947 6        37.871                                  
  21241179.875 8 111623168.249 8     -2284.045 8        50.185    21241192.238 7
  86979132.544 7     -1779.607 7        44.741                                  
 22  6 20  1 30 30.0000000  0  9G01G07G13G14G15G17G19G21G30          0.000000000
  21526470.762 7 113122377.493 7      -117.805 7        46.915    21526484.066 7
  88147378.716 7       -92.023 7        44.741                                  
  22873820.863 7 120202720.918 7     -3387.748 7        43.092    22873833.496 7
  93664473.660 7     -2639.855 7        44.741                                  
  22533727.422 7 118415536.259 7     -1537.805 7        45.045    22533737.941 6
  92271875.711 6     -1198.215 6        39.758                                  
  20403983.031 8 107223671.784 8      -110.676 8        49.760    20403994.176 7
  83550939.121 7       -86.066 7        44.741                                  
  24073254.844 7 126505802.605 7      -563.430 7        43.663    24073265.531 7
  98576001.081 7      -439.348 7        44.741                                  
  20523101.762 8 107849640.736 8      1005.223 8        49.052    20523111.863 7
  84038711.443 7       783.232 7        44.741                                  
  22015361.770 7 115691520.949 7      2893.133 7        46.508    22015370.684 7
  90149278.241 7      2254.287 7        44.741                                  
  23716173.531 7 124629323.119 7     -2396.555 7        45.222    23716184.676 6
  97113785.136 6     -1867.453 6        38.009                                  
  21254259.414 8 111691902.000 8     -2298.723 8        50.298    21254271.402 7
  87032691.260 7     -1791.184 7        44.741                                  
 22  6 20  1 31  0.0000000  0  9G01G07G13G14G15G17G19G21G30          0.000000000
  21527208.563 7 113126258.647 7      -141.119 7        46.577    21527222.598 7
  88150403.010 7      -109.715 7        44.741                                  
  22893187.656 7 120304493.574 7     -3396.998 7        43.178    22893199.449 7
  93743776.896 7     -2646.766 7        44.741                                  
  22542555.641 7 118461927.184 7     -1555.143 7        45.750    22542566.461 6
  92308024.460 6     -1211.824 6        40.247                                  
  20404643.848 8 107227143.285 8      -120.943 8        49.834    20404654.621 7
  83553644.188 7       -94.324 7        44.741                                  
  24076522.793 7 126522978.962 7      -581.842 7        43.346    24076534.129 7
  98589385.195 7      -453.016 7        44.741                                  
  20517404.719 8 107819699.261 8       990.383 8        49.903    20517414.277 7
  84015381.427 7       771.867 7        44.741                                  
  21998872.305 7 115604871.325 7      2882.863 7        45.456    21998882.004 7
  90081759.072 7      2246.379 7        44.741                                  
  23729894.348 7 124701426.213 7     -2410.025 7        45.666    23729904.750 6
  97169969.322 6     -1877.957 6        37.299                                  
  21267423.887 8 111761081.971 8     -2313.795 8        50.360    21267436.223 7
  87086597.679 7     -1802.840 7        44.741                                  
 22  6 20  1 31 30.0000000  0  9G01G07G13G14G15G17G19G21G30          0.000000000
  21528077.793 7 113130824.538 7      -163.688 7        46.969    21528091.328 7
  88153960.847 7      -127.605 7        44.741                                  
  22912602.461 7 120406521.304 7     -3405.270 7        42.508    22912614.508 7
  93823278.909 7     -2652.959 7        44.741                                  
  22551479.230 7 118508819.250 7     -1571.734 7        45.443    22551489.332 6
  92344563.683 6     -1224.695 6        40.555                                  
  20405361.688 8 107230914.253 8      -130.563 8        49.997    20405372.047 7
  83556582.594 7      -101.766 7        44.741                                  
  24079893.418 7 126540689.331 7      -598.863 7        42.936    24079904.449 7
  98603185.464 7      -466.902 7        44.741                                  
  20511789.453 8 107790192.978 8       976.410 8        49.412                  
         0.000 0         0.000 0         0.000                                  
  21982443.438 7 115518536.203 7      2872.602 7        46.538    21982452.797 7
  90014484.996 7      2238.449 7        44.741                                  
  23743688.645 7 124773915.232 7     -2422.652 7        45.654    23743698.887 6
  97226454.257 6     -1887.744 6        36.694                                  
  21280673.434 8 111830706.868 8     -2327.984 8        50.006    21280685.480 7
  87140850.813 7     -1814.307 7        44.741                                  
 22  6 20  1 32  0.0000000  0  9G01G07G13G14G15G17G19G21G30          0.000000000
  21529076.531 7 113136074.845 7      -186.986 7        47.049    21529090.484 7
  88158052.003 7      -145.760 7        44.741                                  
  22932066.070 7 120508801.355 7     -3414.350 7        42.356    22932077.430 7
  93902977.533 7     -2660.232 7        44.741                                  
  22560497.699 7 118556210.228 7     -1588.471 7        46.315    22560507.043 6
  92381491.677 6     -1237.752 6        40.055                                  
  20406136.203 8 107234984.802 8      -141.107 8        50.163    20406146.691 7
  83559754.438 7      -109.900 7        44.741                                  
  24083364.926 7 126558932.025 7      -617.553 7        43.701    24083376.445 7
  98617400.485 7      -480.955 7        44.741                                  
  20506257.191 8 107761121.367 8       961.217 8        49.834    20506267.379 7
  83969736.312 7       749.121 7        44.741                                  
  21966074.109 7 115432516.954 7      2861.725 7        45.773    21966083.512 7
  89947457.021 7      2229.902 7        44.741                                  
  23757555.496 7 124846787.986 7     -2435.951 7        45.506    23757565.070 6
  97283238.189 6     -1898.162 6        36.014                                  
  21294007.125 8 111900774.896 8     -2343.490 8        50.376    21294019.375 7
  87195449.209 7     -1826.189 7        44.741                                  
 22  6 20  1 32 30.0000000  0  9G01G07G13G14G15G17G19G21G30          0.000000000
  21530205.797 7 113142009.571 7      -209.320 7        47.014    21530219.730 7
  88162676.438 7      -162.980 7        44.741                                  
  22951576.348 6 120611331.817 6     -3421.666 6        41.864    22951589.270 7
  93982871.291 7     -2666.576 7        44.741                                  
  22569610.633 7 118604097.722 7     -1604.535 7        45.855    22569620.406 6
  92418806.577 6     -1250.268 6        40.001                                  
  20406967.691 8 107239355.082 8      -150.531 8        49.483    20406978.625 7
  83563159.843 7      -117.219 7        44.741                                  
  24086937.055 7 126577705.310 7      -634.184 7        43.135    24086949.660 7
  98632028.975 7      -494.309 7        44.741                                  
  20500807.516 8 107732484.200 8       947.242 8        49.007    20500817.750 7
  83947420.638 7       738.289 7        44.741                                  
  21949766.621 7 115346814.791 7      2851.324 7        46.933    21949775.965 7
  89880676.138 7      2221.863 7        44.741                                  
  23771494.922 7 124920042.229 7     -2448.109 7        43.739    23771505.523 5
  97340319.363 5     -1907.670 5        34.861                                  
  21307424.121 8 111971284.525 8     -2357.621 8        49.774    21307437.242 7
  87250391.711 7     -1837.025 7        44.741                                  
 22  6 20  1 33  0.0000000  0  9G01G07G13G14G15G17G19G21G30          0.000000000
  21531465.629 7 113148628.472 7      -231.750 7        46.987    21531479.496 7
  88167834.013 7      -180.727 7        44.741                                  
  22971134.918 6 120714110.774 6     -3430.092 6        41.656    22971147.082 7
  94062958.646 7     -2672.545 7        44.741                                  
  22578816.934 7 118652479.307 7     -1620.559 7        45.855    22578827.695 6
  92456506.479 6     -1262.699 6        40.577                                  
  20407856.059 8 107244025.276 8      -160.461 8        49.225    20407867.164 7
  83566798.952 7      -125.297 7        44.741                                  
  24090610.992 7 126597008.570 7      -652.141 7        43.832    24090623.672 7
  98647070.404 7      -508.148 7        44.741                                  
  20495440.621 8 107704281.059 8       932.977 8        49.283    20495450.836 7
  83925445.173 7       726.910 7        44.741                                  
  21933518.012 7 115261430.757 7      2841.199 7        47.179    21933527.414 7
  89814143.164 7      2213.922 7        44.741                                  
  23785507.391 7 124993675.725 7     -2460.285 7        44.727    23785516.277 5
  97397696.083 5     -1917.113 5        33.683                                  
  21320925.469 8 112042234.016 8     -2372.219 8        50.046    21320938.621 7
  87305676.975 7     -1848.480 7        44.741                                  
 22  6 20  1 33 30.0000000  0  9G01G07G13G14G15G17G19G21G30          0.000000000
  21532855.461 7 113155931.595 7      -255.260 7        46.693    21532869.785 7
  88173524.747 7      -198.801 7        44.741                                  
  22990740.496 7 120817136.151 7     -3438.678 7        43.199    22990752.645 7
  94143238.069 7     -2679.563 7        44.741                                  
  22588116.316 7 118701352.646 7     -1637.936 7        43.720    22588128.379 6
  92494589.532 6     -1276.359 6        39.998                                  
  20408802.164 8 107248995.878 8      -170.963 8        49.568    20408813.152 7
  83570672.134 7      -133.156 7        44.741                                  
  24094384.449 7 126616840.117 7      -670.162 7        43.586    24094396.371 7
  98662523.502 7      -522.297 7        44.741                                  
  20490156.930 8 107676511.772 8       918.041 8        49.797    20490166.418 7
  83903806.774 7       715.379 7        44.741                                  
  21917331.434 7 115176366.437 7      2829.916 7        47.491    21917339.750 7
  89747859.296 7      2205.105 7        44.741                                  
  23799591.336 7 125067686.066 7     -2473.619 7        45.072    23799598.992 5
  97455366.426 5     -1927.609 5        33.588                                  
  21334510.453 8 112113621.942 8     -2387.252 8        49.788    21334523.016 7
  87361303.878 7     -1860.188 7        44.741                                  
