     2.10           OBSERVATION DATA    GPS                 RINEX VERSION / TYPE
Assistant 1.0                           20220623 121022 LCL PGM / RUN BY / DATE 
       G = GPS       R = GLONASS       C = COMPASS          COMMENT             
       S = SBAS      J = QZSS          E = GALILEO          COMMENT             
TPKL                                                        MARKER NAME         
1                                                           MARKER NUMBER       
                                                            OBSERVER / AGENCY   
MP81190100019       Stonex S9           G973-170405RU       REC # / TYPE / VERS 
0                   MP8SX001A                               ANT # / TYPE        
   937429.6846  4619604.6444  4285027.6572                  APPROX POSITION XYZ 
        0.0957        0.0000        0.0000                  ANTENNA: DELTA H/E/N
     8    C1    L1    D1    S1    P2    L2    D2    S2      # / TYPES OF OBSERV 
     1     1                                                WAVELENGTH FACT L1/2
     30.000                                                 INTERVAL            
  2022    06    17    03    46    0.0000000     GPS         TIME OF FIRST OBS   
  2022    06    20    02    15    0.0000000     GPS         TIME OF LAST OBS    
     0                                                      RCV CLOCK OFFS APPL 
    18                                                      LEAP SECONDS        
*** Above antenna height is from mark to PHASE CENTER.      COMMENT             
CARRIER PHASE MEASUREMENTS: PHASE SHIFTS REMOVED            COMMENT             
    19     4        0.0000        ANT MEASURE TYPE/HEIGT    COMMENT             
    0.0930    0.0680    0.0957    0.0867    0.0000          COMMENT             
                    BASE STATION                            COMMENT             
                                                            END OF HEADER       
 22  6 17  3 46  0.0000000  0 10G01G02G03G06G11G12G14G17G19G24       0.000000000
  24922232.289 6 130967187.586 6     -3860.498 6        36.635    24922247.828 6
 102052408.430 6     -3008.354 6        40.541                                  
  23607791.898 6 124059793.823 6      3306.768 6        40.672    23607802.688 5
  96670012.092 5      2576.723 5        35.982                                  
  23917013.539 5 125684772.365 5       308.018 5        35.785    23917028.293 6
  97936256.259 6       240.219 6        38.896                                  
  20774000.762 8 109168124.503 8      2001.494 8        50.891    20774014.043 7
  85066115.345 7      1559.691 7        44.741                                  
  23644483.813 7 124252599.243 7      3685.439 7        44.082    23644497.234 6
  96820269.051 6      2871.566 6        38.308                                  
  23748063.906 6 124796922.983 6      3320.361 6        41.864    23748076.785 7
  97244404.247 7      2587.387 7        44.741                                  
  22372630.582 7 117568948.396 7     -2670.752 7        45.031    22372643.289 7
  91612209.006 7     -2081.146 7        42.570                                  
  21225934.563 8 111543037.347 8     -1623.252 8        49.283    21225944.906 7
  86916696.671 7     -1264.838 7        44.741                                  
  20119707.227 8 105729778.599 8      -261.748 8        50.611    20119714.895 7
  82386875.646 7      -203.922 7        44.741                                  
  22124190.383 7 116263410.983 7       449.346 7        47.246    22124202.500 7
  90594925.076 7       350.258 7        44.741                                  
 22  6 17  3 46 30.0000000  0 10G01G02G03G06G11G12G14G17G19G24       0.000000000
  24944282.125 6 131083054.838 6     -3864.314 6        38.795    24944295.789 6
 102142694.525 6     -3011.680 6        39.546                                  
  23588933.898 7 123960691.989 7      3299.281 7        42.981    23588945.977 6
  96592789.964 6      2570.842 6        37.887                                  
  23915309.832 5 125675822.123 5       288.205 5        34.575    23915325.316 6
  97929282.062 6       225.412 6        38.539                                  
  20762622.039 8 109108330.362 8      1984.260 8        50.417    20762635.273 7
  85019520.562 7      1545.881 7        44.741                                  
  23623459.262 7 124142119.001 7      3679.613 7        43.682    23623474.316 6
  96734180.684 6      2867.326 6        39.873                                  
  23729114.473 7 124697343.867 7      3317.914 7        43.070    23729126.781 7
  97166810.222 7      2585.432 7        44.741                                  
  22387905.445 7 117649214.813 7     -2680.838 7        45.058    22387917.711 7
  91674754.195 7     -2088.924 7        42.473                                  
  21235218.883 8 111591824.396 8     -1629.764 8        49.612    21235229.141 7
  86954713.531 7     -1269.861 7        44.741                                  
  20121236.109 8 105737813.049 8      -274.354 8        50.699    20121243.879 7
  82393136.257 7      -213.787 7        44.741                                  
  22121681.637 7 116250230.344 7       428.869 7        47.722    22121696.078 7
  90584654.458 7       334.279 7        44.741                                  
 22  6 17  3 47  0.0000000  0 10G01G02G03G06G11G12G14G17G19G24       0.000000000
  24966351.387 6 131199033.441 6     -3867.893 6        37.507    24966365.813 6
 102233067.475 6     -3013.816 6        38.601                                  
  23570117.363 6 123861813.849 6      3292.264 6        41.656    23570130.156 6
  96515742.191 6      2565.422 6        39.311                                  
  23913715.410 6 125667440.832 6       269.607 6        36.438    23913730.438 6
  97922751.241 6       209.934 6        39.028                                  
  20751340.867 8 109049047.615 8      1967.283 8        50.421    20751353.645 7
  84973323.232 7      1533.098 7        44.741                                  
  23602466.012 7 124031794.666 7      3674.666 7        45.392    23602479.535 6
  96648213.859 6      2863.352 6        41.034                                  
  23710178.457 7 124597834.163 7      3315.838 7        43.003    23710190.707 7
  97089270.263 7      2583.605 7        44.741                                  
  22403231.934 7 117729757.045 7     -2689.650 7        44.816    22403244.410 7
  91737514.327 7     -2095.828 7        42.335                                  
  21244536.078 8 111640787.755 8     -1635.295 8        49.231    21244546.195 7
  86992864.783 7     -1273.797 7        44.741                                  
  20122833.496 8 105746208.376 8      -285.783 8        50.653    20122841.664 7
  82399678.074 7      -222.684 7        44.741                                  
  22119286.047 7 116237643.090 7       409.646 7        46.387    22119299.270 7
  90574846.209 7       319.035 7        44.741                                  
 22  6 17  3 47 30.0000000  0 10G01G02G03G06G11G12G14G17G19G24       0.000000000
  24988442.164 6 131315120.476 6     -3871.275 6        36.538    24988456.730 6
 102323524.873 6     -3016.285 6        38.308                                  
  23551345.238 7 123763161.047 7      3284.760 7        44.100    23551357.172 6
  96438869.996 6      2559.496 6        41.472                                  
  23912229.789 6 125659629.158 6       251.283 6        38.795    23912243.699 6
  97916664.173 6       196.449 6        41.565                                  
  20740157.047 8 108990277.412 8      1950.482 8        50.020    20740170.770 7
  84927532.298 7      1519.965 7        44.741                                  
  23581501.430 7 123921628.271 7      3669.291 7        44.697    23581514.641 6
  96562370.056 6      2859.301 6        39.650                                  
  23691255.652 7 124498395.006 7      3314.135 7        42.981    23691267.703 7
  97011785.277 7      2582.230 7        44.741                                  
  22418610.840 7 117810574.012 7     -2698.717 7        44.712    22418623.617 7
  91800488.520 7     -2102.867 7        42.082                                  
  21253886.668 8 111689926.089 8     -1640.494 8        49.241    21253896.914 7
  87031154.393 7     -1278.336 7        44.741                                  
  20124499.332 8 105754963.553 8      -297.838 8        50.653    20124507.816 7
  82406500.294 7      -232.105 7        44.741                                  
  22117004.262 7 116225649.178 7       389.896 7        46.759    22117017.641 7
  90565500.291 7       303.852 7        44.741                                  
 22  6 17  3 48  0.0000000  0 10G01G02G03G06G11G12G14G17G19G24       0.000000000
  25010552.473 6 131431312.267 6     -3875.314 6        37.507    25010566.211 6
 102414063.900 6     -3019.889 6        38.175                                  
  23532614.965 7 123664734.940 7      3276.561 7        42.062    23532624.938 6
  96362174.420 6      2553.217 6        37.511                                  
  23910851.844 6 125652387.017 6       231.814 6        39.294    23910867.387 7
  97911021.005 7       180.443 7        43.928                                  
  20729071.031 8 108932020.251 8      1933.455 8        50.618    20729085.012 7
  84882138.158 7      1506.771 7        42.542                                  
  23560568.402 7 123811621.223 7      3664.236 7        45.726    23560580.449 6
  96476650.408 6      2855.092 6        40.563                                  
  23672345.801 6 124399027.268 6      3311.268 6        41.342    23672358.707 7
  96934355.942 7      2579.799 7        44.741                                  
  22434041.188 7 117891663.880 7     -2707.424 7        44.605    22434054.578 7
  91863675.368 7     -2109.693 7        42.651                                  
  21263270.523 8 111739237.420 8     -1646.604 8        49.289    21263280.496 7
  87069578.786 7     -1282.896 7        44.741                                  
  20126234.207 8 105764076.814 8      -309.826 8        50.599    20126242.520 7
  82413601.533 7      -241.354 7        44.741                                  
  22114834.730 7 116214247.820 7       370.135 7        46.547    22114848.184 7
  90556616.106 7       288.646 7        44.741                                  
 22  6 17  3 48 30.0000000  0 10G01G02G03G06G11G12G14G17G19G24       0.000000000
  25032682.992 6 131547609.485 6     -3876.807 6        37.346    25032698.215 6
 102504685.087 6     -3021.027 6        37.404                                  
  23513929.512 7 123566540.346 7      3270.596 7        43.795    23513939.961 6
  96285659.268 6      2548.563 6        39.514                                  
  23909582.398 6 125645718.667 6       212.900 6        39.079    23909598.238 7
  97905824.914 7       166.629 7        43.869                                  
  20718083.926 8 108874280.960 8      1917.002 8        50.638    20718097.359 7
  84837144.548 7      1493.758 7        44.741                                  
  23539665.742 7 123701779.147 7      3659.482 7        44.697    23539677.504 6
  96391059.292 6      2851.668 6        37.871                                  
  23653451.723 7 124299736.030 7      3309.697 7        42.483    23653464.473 7
  96856986.251 7      2578.602 7        44.741                                  
  22449524.656 7 117973029.314 7     -2715.908 7        45.418    22449537.734 7
  91927076.934 7     -2116.203 7        42.582                                  
  21272687.609 8 111788724.351 8     -1651.436 8        49.215    21272697.797 7
  87108140.027 7     -1287.102 7        44.741                                  
  20128036.801 8 105773550.591 8      -321.006 8        51.138    20128044.973 7
  82420983.685 7      -250.031 7        44.741                                  
  22112778.852 7 116203442.593 7       351.064 7        47.229    22112791.688 7
  90548196.443 7       273.699 7        44.741                                  
 22  6 17  3 49  0.0000000  0 10G01G02G03G06G11G12G14G17G19G24       0.000000000
  25054832.703 6 131664007.736 6     -3881.688 6        36.014    25054848.188 6
 102595384.936 6     -3024.535 6        37.793                                  
  23495288.016 7 123468577.967 7      3261.982 7        43.814    23495298.359 6
  96209325.042 6      2541.773 6        39.145                                  
  23908423.012 6 125639623.091 6       194.016 6        41.502    23908437.164 7
  97901075.166 7       150.758 7        44.741                                  
  20707194.574 8 108817059.111 8      1898.896 8        50.352    20707208.211 7
  84792555.125 7      1479.723 7        44.741                                  
  23518794.297 7 123592102.645 7      3653.486 7        43.941    23518807.203 6
  96305597.242 6      2846.598 6        38.670                                  
  23634572.117 7 124200521.056 7      3305.869 7        42.868    23634584.379 7
  96779675.920 7      2576.129 7        44.741                                  
  22465059.801 7 118054667.531 7     -2725.242 7        44.219    22465073.566 7
  91990691.075 7     -2123.578 7        42.586                                  
  21282137.344 8 111838383.983 8     -1657.859 8        48.628    21282147.375 7
  87146835.828 7     -1292.074 7        44.741                                  
  20129907.387 8 105783382.483 8      -333.621 8        50.489    20129915.543 7
  82428644.904 7      -259.965 7        44.741                                  
  22110835.605 7 116193231.854 7       330.342 7        47.427    22110848.629 7
  90540240.030 7       257.535 7        44.741                                  
 22  6 17  3 49 30.0000000  0 10G01G02G03G06G11G12G14G17G19G24       0.000000000
  25077002.000 6 131780504.602 6     -3884.770 6        37.005    25077016.738 6
 102686161.674 6     -3026.820 6        40.123                                  
  23476689.563 6 123370849.883 6      3254.098 6        41.978    23476700.895 6
  96133173.410 6      2535.678 6        37.299                                  
  23907372.637 6 125634101.576 6       174.352 6        41.687    23907386.445 7
  97896772.698 7       135.816 7        44.741                                  
  20696403.930 8 108760356.438 8      1881.949 8        49.797    20696417.598 7
  84748371.271 7      1466.227 7        44.741                                  
  23497956.168 7 123482594.433 7      3646.988 7        45.168    23497968.504 6
  96220266.188 6      2842.338 6        39.161                                  
  23615706.656 7 124101384.282 7      3303.180 7        42.751    23615718.805 7
  96702426.569 7      2574.662 7        44.741                                  
  22480647.297 7 118136578.142 7     -2734.789 7        44.757    22480660.449 7
  92054517.459 7     -2131.059 7        42.577                                  
  21291619.820 8 111888215.739 8     -1663.930 8        48.807    21291629.938 7
  87185665.738 7     -1296.410 7        44.741                                  
  20131846.629 8 105793572.293 8      -345.570 8        50.618    20131854.398 7
  82436585.012 7      -269.301 7        44.741                                  
  22109005.953 7 116183616.130 7       310.797 7        47.841    22109019.418 7
  90532747.249 7       242.008 7        44.741                                  
 22  6 17  3 50  0.0000000  0 10G01G02G03G06G11G12G14G17G19G24       0.000000000
  25099189.441 6 131897097.708 6     -3888.611 6        39.024    25099203.910 7
 102777013.369 7     -3029.607 7        42.559                                  
  23458138.879 7 123273358.164 7      3246.076 7        44.449    23458150.297 6
  96057205.934 6      2529.395 6        41.255                                  
  23906430.414 6 125629154.937 6       155.490 6        39.741    23906444.641 7
  97892918.172 7       120.879 7        44.348                                  
  20685713.145 8 108704174.462 8      1864.182 8        50.202    20685726.453 7
  84704591.147 7      1452.520 7        44.741                                  
  23477148.926 7 123373256.832 7      3641.701 7        44.465    23477163.293 6
  96135068.275 6      2837.559 6        40.300                                  
  23596856.910 7 124002327.006 7      3300.842 7        43.199    23596867.742 7
  96625239.168 7      2571.758 7        44.741                                  
  22496286.426 7 118218760.372 7     -2744.100 7        44.946    22496298.918 7
  92118555.498 7     -2138.260 7        42.013                                  
  21301135.332 8 111938218.808 8     -1669.510 8        48.928    21301145.461 7
  87224629.161 7     -1300.996 7        44.741                                  
  20133853.391 8 105804119.300 8      -357.420 8        50.634    20133861.691 7
  82444803.456 7      -278.574 7        44.741                                  
  22107288.891 7 116174595.597 7       290.822 7        47.538    22107301.898 7
  90525718.270 7       226.719 7        44.741                                  
 22  6 17  3 50 30.0000000  0 10G01G02G03G06G11G12G14G17G19G24       0.000000000
  25121394.207 6 132013783.716 6     -3891.555 6        38.232    25121409.105 6
 102867937.510 6     -3032.061 6        41.828                                  
  23439631.559 7 123176104.071 7      3238.193 7        43.304    23439643.535 6
  95981423.653 6      2523.254 6        40.092                                  
  23905598.383 6 125624783.430 6       136.531 6        39.294    23905612.563 7
  97889511.820 7       106.242 7        44.050                                  
  20675121.242 8 108648514.015 8      1846.729 8        50.077    20675135.004 7
  84661221.395 7      1439.094 7        44.741                                  
  23456376.320 7 123264091.791 7      3636.045 7        44.801    23456388.395 6
  96050004.661 6      2832.785 6        38.526                                  
  23578021.910 7 123903351.192 7      3297.744 7        43.507    23578034.402 7
  96548115.192 7      2569.797 7        44.741                                  
  22511976.074 7 118301212.796 7     -2752.766 7        45.222    22511989.035 7
  92182804.086 7     -2144.932 7        42.382                                  
  21310683.043 8 111988391.700 8     -1675.305 8        48.905    21310692.844 7
  87263724.886 7     -1305.049 7        44.741                                  
  20135928.555 8 105815022.155 8      -369.113 8        50.774    20135936.484 7
  82453299.188 7      -287.605 7        44.741                                  
  22105685.449 7 116166169.862 7       270.945 7        46.654    22105700.246 7
  90519152.760 7       211.164 7        44.741                                  
 22  6 17  3 51  0.0000000  0 10G01G02G03G06G11G12G14G17G19G24       0.000000000
  25143615.398 6 132130559.806 6     -3895.822 6        37.812    25143630.422 6
 102958931.800 6     -3034.615 6        40.936                                  
  23421169.711 7 123079089.293 7      3229.197 7        42.798    23421180.129 6
  95905827.884 6      2516.244 6        37.709                                  
  23904875.496 6 125620987.383 6       116.600 6        40.822    23904889.820 7
  97886553.872 7        91.225 7        44.741                                  
  20664628.469 8 108593375.969 8      1828.846 8        49.866    20664642.648 7
  84618257.738 7      1425.092 7        44.741                                  
  23435635.590 7 123155101.210 7      3629.314 7        43.777    23435648.840 6
  95965077.050 6      2827.982 6        39.860                                  
  23559203.906 7 123804458.195 7      3294.900 7        43.995    23559215.441 7
  96471055.769 7      2567.572 7        44.741                                  
  22527717.773 7 118383934.233 7     -2762.209 7        45.366    22527730.496 7
  92247262.291 7     -2152.467 7        42.533                                  
  21320262.492 8 112038732.902 8     -1681.389 8        48.616    21320272.648 7
  87302951.780 7     -1310.201 7        44.741                                  
  20138070.801 8 105826279.642 8      -381.311 8        50.974    20138078.930 7
  82462071.259 7      -297.076 7        44.741                                  
  22104195.305 7 116158338.502 7       250.525 7        47.040    22104209.313 7
  90513050.413 7       195.424 7        44.741                                  
 22  6 17  3 51 30.0000000  0 10G01G02G03G06G11G12G14G17G19G24       0.000000000
  25165854.512 5 132247423.604 5     -3896.588 5        35.901    25165869.281 6
 103049994.445 6     -3036.289 6        37.567                                  
  23402754.980 7 122982316.091 7      3221.633 7        44.417    23402764.352 6
  95830420.258 6      2510.410 6        37.426                                  
  23904262.977 6 125617767.913 6        97.883 6        41.656    23904278.230 7
  97884045.262 7        75.938 7        44.741                                  
  20654235.898 8 108538762.140 8      1811.438 8        49.607    20654249.180 7
  84575698.529 7      1411.719 7        44.741                                  
  23414929.527 7 123046287.770 7      3623.762 7        45.141    23414942.805 6
  95880287.466 6      2823.672 6        40.023                                  
  23540401.254 7 123705650.064 7      3291.965 7        42.868    23540413.387 7
  96394062.482 7      2565.215 7        44.741                                  
  22543510.313 7 118466924.186 7     -2771.102 7        45.556    22543523.305 7
  92311929.718 7     -2159.238 7        43.005                                  
  21329874.316 8 112089242.533 8     -1686.941 8        48.974    21329884.289 7
  87342309.923 7     -1314.375 7        44.741                                  
  20140280.766 8 105837891.701 8      -393.191 8        51.131    20140288.410 7
  82471119.597 7      -306.309 7        44.741                                  
  22102818.242 7 116151102.081 7       230.852 7        46.448    22102832.809 7
  90507411.623 7       179.941 7        44.741                                  
 22  6 17  3 52  0.0000000  0 10G01G02G03G06G11G12G14G17G19G24       0.000000000
  25188109.008 5 132364372.444 5     -3898.377 5        33.720    25188124.047 5
 103141123.413 5     -3038.768 5        32.996                                  
  23384384.250 6 122885786.383 6      3213.852 6        38.232    23384396.383 5
  95755202.363 5      2504.320 5        35.302                                  
  23903760.418 6 125615125.732 6        78.049 6        41.656    23903774.844 7
  97881986.399 7        61.174 7        44.741                                  
  20643943.852 8 108484673.677 8      1794.475 8        50.397    20643956.945 7
  84533552.718 7      1398.227 7        44.741                                  
  23394256.875 7 122937653.772 7      3618.500 7        44.433    23394269.570 6
  95795637.728 6      2819.574 6        39.821                                  
  23521615.125 7 123606928.003 7      3289.203 7        43.113    23521627.059 7
  96317136.286 7      2563.070 7        44.741                                  
  22559354.148 7 118550181.684 7     -2779.998 7        45.878    22559366.852 7
  92376805.612 7     -2166.189 7        43.577                                  
  21339518.266 8 112139919.417 8     -1691.854 8        49.299    21339527.695 7
  87381798.386 7     -1318.396 7        44.741                                  
  20142557.770 8 105849857.487 8      -404.725 8        50.906    20142565.398 7
  82480443.584 7      -315.369 7        44.741                                  
  22101554.152 7 116144460.437 7       211.545 7        46.508    22101568.016 7
  90502236.327 7       164.709 7        44.741                                  
 22  6 17  3 52 30.0000000  0 10G01G02G03G06G11G12G14G17G19G24       0.000000000
  25210379.500 5 132481404.308 5     -3901.439 5        32.144    25210394.352 4
 103232317.044 4     -3040.887 4        28.953                                  
  23366062.422 7 122789502.313 7      3205.729 7        42.704    23366074.215 6
  95680176.042 6      2497.939 6        38.127                                  
  23903367.297 6 125613061.807 6        59.693 6        41.978    23903382.176 7
  97880378.188 7        46.086 7        44.741                                  
  20633751.223 8 108431112.297 8      1776.646 8        50.189                  
         0.000 0         0.000 0         0.000                                  
  23373618.820 7 122829201.969 7      3612.311 7        44.889    23373632.113 6
  95711129.898 6      2814.814 6        40.462                                  
  23502845.422 7 123508294.072 7      3286.373 7        42.680    23502857.098 7
  96240278.720 7      2560.811 7        44.741                                  
  22575248.176 7 118633706.278 7     -2788.373 7        45.100    22575260.566 7
  92441889.656 7     -2172.684 7        43.145                                  
  21349193.230 8 112190762.580 8     -1697.025 8        49.315    21349202.617 7
  87421416.416 7     -1322.410 7        44.741                                  
  20144901.422 8 105862176.565 8      -416.186 8        50.622    20144909.766 7
  82490042.867 7      -324.266 7        44.741                                  
  22100403.641 7 116138414.050 7       192.193 7        46.397    22100417.180 7
  90497524.863 7       149.387 7        44.741                                  
 22  6 17  3 53  0.0000000  0  9G02G03G06G11G12G14G17G19G24          0.000000000
  23347788.070 7 122693465.527 7      3196.529 7        44.168    23347796.953 6
  95605342.255 6      2490.771 6        37.275                                  
  23903085.176 7 125611576.065 7        40.045 7        42.533    23903100.516 7
  97879220.505 7        31.338 7        44.741                                  
  20623658.863 8 108378078.462 8      1758.854 8        49.788    20623672.602 7
  84450492.578 7      1370.537 7        44.741                                  
  23353015.789 7 122720933.914 7      3605.768 7        44.932    23353029.898 6
  95626765.340 6      2809.658 6        40.594                                  
  23484092.570 6 123409749.453 6      3283.619 6        40.710    23484104.891 7
  96163490.810 7      2558.213 7        44.741                                  
  22591193.109 7 118717496.317 7     -2797.689 7        45.843    22591206.172 7
  92507180.530 7     -2180.010 7        43.262                                  
  21358899.645 8 112241770.466 8     -1703.158 8        49.315    21358909.430 7
  87461162.788 7     -1327.100 7        44.741                                  
  20147312.723 8 105874847.255 8      -428.295 8        50.825    20147321.039 7
  82499916.127 7      -333.740 7        44.741                                  
  22099365.996 7 116132962.068 7       171.686 7        46.616    22099379.461 7
  90493276.565 7       133.662 7        44.741                                  
 22  6 17  3 53 30.0000000  0  9G02G03G06G11G12G14G17G19G24          0.000000000
  23329559.359 7 122597677.957 7      3188.721 7        42.171    23329571.207 6
  95530702.656 6      2484.717 6        36.807                                  
  23902912.523 7 125610669.468 7        20.713 7        42.171    23902927.660 7
  97878514.078 7        16.592 7        44.741                                  
  20613667.672 8 108325573.790 8      1741.494 8        49.935    20613681.105 7
  84409577.891 7      1356.865 7        44.741                                  
  23332448.672 7 122612852.267 7      3599.756 7        44.816    23332461.406 6
  95542545.942 6      2804.795 6        39.684                                  
  23465357.602 6 123311296.103 6      3280.557 6        41.002    23465369.621 7
  96086773.929 7      2556.299 7        44.741                                  
  22607187.980 7 118801551.213 7     -2805.771 7        45.843    22607201.230 7
  92572677.795 7     -2186.436 7        43.356                                  
  21368637.820 8 112292942.683 8     -1708.232 8        49.528    21368647.309 7
  87501037.219 7     -1331.025 7        44.741                                  
  20149790.848 8 105887869.386 8      -439.717 8        50.649    20149799.031 7
  82510063.236 7      -342.607 7        44.741                                  
  22098441.824 7 116128104.820 7       152.100 7        46.273    22098455.531 7
  90489491.673 7       118.896 7        44.741                                  
 22  6 17  3 54  0.0000000  0  9G02G03G06G11G12G14G17G19G24          0.000000000
  23311379.965 7 122502141.161 7      3180.666 7        44.082    23311390.266 6
  95456258.524 6      2478.480 6        40.014                                  
  23902850.281 7 125610342.419 7         0.959 7        42.382    23902864.563 7
  97878259.270 7         1.332 7        44.741                                  
  20603777.305 8 108273599.353 8      1723.635 8        50.112    20603790.254 6
  84369077.360 6      1343.051 6        40.422                                  
  23311917.133 7 122504959.186 7      3593.303 7        44.575    23311930.254 6
  95458473.562 6      2799.926 6        39.840                                  
  23446639.750 6 123212935.850 6      3276.838 6        40.015    23446652.355 7
  96010129.688 7      2553.363 7        44.741                                  
  22623232.738 7 118885870.013 7     -2815.176 7        44.831    22623246.820 7
  92638380.660 7     -2193.729 7        43.334                                  
  21378406.566 8 112344278.058 8     -1714.004 8        49.848    21378416.199 7
  87541038.793 7     -1335.330 7        44.741                                  
  20152335.598 8 105901242.048 8      -451.658 8        50.974    20152343.867 7
  82520483.492 7      -351.988 7        44.741                                  
  22097631.211 7 116123842.025 7       132.307 7        47.014    22097644.348 7
  90486170.024 7       102.855 7        44.741                                  
 22  6 17  3 54 30.0000000  0  9G02G03G06G11G12G14G17G19G24          0.000000000
  23293246.746 6 122406857.530 6      3171.273 6        41.470    23293258.406 6
  95382011.652 6      2471.084 6        36.356                                  
  23902899.035 7 125610595.679 7       -18.609 7        42.198    23902912.328 7
  97878456.627 7       -13.916 7        44.741                                  
  20593987.918 8 108222156.491 8      1705.512 8        50.120    20594001.727 7
  84328995.048 7      1329.014 7        44.741                                  
  23291421.320 7 122397257.146 7      3585.688 7        43.346    23291433.211 6
  95374549.945 6      2795.107 6        38.303                                  
  23427940.602 6 123114670.476 6      3273.773 6        39.926    23427952.922 7
  95933559.288 7      2551.221 7        44.741                                  
  22639329.395 7 118970451.884 7     -2823.883 7        45.773    22639341.816 7
  92704288.519 7     -2200.400 7        43.502                                  
  21388206.035 8 112395776.120 8     -1719.820 8        49.453    21388216.051 7
  87581167.133 7     -1340.186 7        44.741                                  
  20154946.844 8 105914964.371 8      -463.375 8        50.934    20154955.098 7
  82531176.212 7      -361.104 7        44.741                                  
  22096932.742 7 116120173.721 7       111.898 7        46.915    22096946.348 7
  90483311.609 7        87.158 7        44.741                                  
 22  6 17  3 55  0.0000000  0  9G02G03G06G11G12G14G17G19G24          0.000000000
  23275163.543 7 122311828.286 7      3163.725 7        42.433    23275174.004 6
  95307963.005 6      2465.232 6        37.119                                  
  23903057.336 7 125611429.421 7       -36.295 7        42.407    23903071.746 7
  97879106.375 7       -28.986 7        44.741                                  
  20584300.063 8 108171246.037 8      1689.193 8        50.376    20584313.797 7
  84289324.613 7      1315.896 7        44.741                                  
  23270963.367 7 122289748.089 7      3581.264 7        44.012    23270976.773 6
  95290776.781 6      2790.623 6        40.425                                  
  23409259.703 6 123016501.448 6      3271.303 6        39.693    23409271.523 7
  95857064.065 7      2548.807 7        44.741                                  
  22655474.355 7 119055295.619 7     -2831.900 7        45.605    22655487.492 7
  92770400.440 7     -2206.623 7        43.191                                  
  21398036.492 8 112447435.599 8     -1724.361 8        48.865    21398045.977 7
  87621421.236 7     -1343.576 7        44.741                                  
  20157624.703 8 105929035.254 8      -474.264 8        50.924    20157632.859 7
  82542140.515 7      -369.514 7        44.741                                  
  22096348.395 7 116117099.520 7        92.982 7        47.075    22096361.445 7
  90480916.104 7        72.674 7        44.741                                  
 22  6 17  3 55 30.0000000  0  9G02G03G06G11G12G14G17G19G24          0.000000000
  23257128.941 7 122217055.431 7      3153.199 7        42.751    23257140.719 6
  95234114.134 6      2457.002 6        39.570                                  
  23903325.910 6 125612844.168 6       -57.760 6        41.687    23903341.020 7
  97880208.782 7       -45.068 7        44.741                                  
  20574713.324 8 108120869.155 8      1669.430 8        50.529    20574727.215 7
  84250068.933 7      1300.850 7        44.741                                  
  23250542.137 7 122182434.405 7      3573.023 7        44.151    23250555.172 6
  95207155.867 6      2784.229 6        40.376                                  
  23390596.789 6 122918430.169 6      3266.852 6        39.926    23390610.023 7
  95780644.963 7      2545.264 7        44.741                                  
  22671668.918 7 119140400.245 7     -2841.744 7        45.593    22671682.453 7
  92836715.641 7     -2214.365 7        43.063                                  
  21407897.805 8 112499255.589 8     -1730.670 8        49.558    21407907.277 7
  87661800.465 7     -1348.721 7        44.741                                  
  20160368.484 8 105943454.276 8      -487.428 8        50.755    20160376.410 7
  82553376.120 7      -379.775 7        44.741                                  
  22095875.895 7 116114619.192 7        72.064 7        47.411    22095889.875 7
  90478983.390 7        56.006 7        44.741                                  
 22  6 17  3 56  0.0000000  0  9G02G03G06G11G12G14G17G19G24          0.000000000
  23239143.574 6 122122542.273 6      3145.832 6        41.687    23239154.465 6
  95160467.630 6      2451.283 6        37.216                                  
  23903706.391 6 125614841.696 6       -76.473 6        41.175    23903721.141 7
  97881765.309 7       -59.693 7        44.741                                  
  20565229.188 8 108071028.320 8      1652.121 8        50.664    20565242.395 7
  84211228.946 7      1287.357 7        44.741                                  
  23230159.406 7 122075319.649 7      3566.848 7        45.017    23230172.082 6
  95123689.904 6      2779.486 6        40.785                                  
  23371953.484 6 122820460.177 6      3263.332 6        40.477    23371966.633 7
  95704304.793 7      2543.236 7        44.741                                  
  22687914.141 7 119225766.184 7     -2850.262 7        45.761    22687926.805 7
  92903234.476 7     -2220.982 7        42.196                                  
  21417788.746 8 112551236.495 8     -1735.574 8        48.940    21417798.832 7
  87702305.044 7     -1352.389 7        44.741                                  
  20163178.234 8 105958221.824 8      -498.172 8        50.421    20163186.734 7
  82564883.301 7      -388.248 7        44.741                                  
  22095516.305 7 116112733.886 7        52.941 7        45.714    22095531.098 7
  90477514.313 7        41.010 7        44.741                                  
 22  6 17  3 56 30.0000000  0  9G02G03G06G11G12G14G17G19G24          0.000000000
  23221208.289 7 122028289.019 7      3138.113 7        43.003    23221218.836 6
  95087023.653 6      2445.299 6        38.809                                  
  23904196.910 6 125617421.118 6       -95.111 6        40.397    23904212.277 7
  97883775.283 7       -74.486 7        44.741                                  
  20555846.938 8 108021723.248 8      1634.617 8        50.163    20555859.902 7
  84172810.438 7      1273.697 7        44.741                                  
  23209813.164 7 121968404.786 7      3560.379 7        43.003    23209827.945 6
  95040379.756 6      2774.752 6        41.945                                  
  23353330.785 6 122722591.822 6      3260.535 6        41.406    23353342.934 7
  95628043.764 7      2540.787 7        44.741                                  
  22704207.445 7 119311391.099 7     -2858.432 7        44.543    22704220.840 7
  92969955.091 7     -2227.396 7        42.019                                  
  21427710.738 8 112603375.811 8     -1740.307 8        48.676    21427721.113 7
  87742933.054 7     -1356.342 7        44.741                                  
  20166054.523 8 105973335.985 8      -509.467 8        49.844    20166062.969 7
  82576660.573 7      -396.986 7        44.741                                  
  22095271.188 7 116111442.030 7        33.385 7        46.220    22095284.652 7
  90476507.652 7        26.080 7        44.741                                  
 22  6 17  3 57  0.0000000  0  9G02G03G06G11G12G14G17G19G24          0.000000000
  23203322.277 7 121934297.455 7      3128.428 7        43.959    23203332.047 6
  95013783.571 6      2437.711 6        40.321                                  
  23904799.516 6 125620582.503 6      -115.225 6        41.502    23904813.496 7
  97886238.706 7       -89.926 7        44.741                                  
  20546566.469 8 107972954.625 8      1616.396 8        50.837    20546579.949 7
  84134810.946 7      1259.352 7        44.741                                  
  23189506.465 7 121861691.690 7      3553.447 7        42.845    23189519.027 6
  94957226.805 6      2768.941 6        39.744                                  
  23334726.305 6 122624826.493 6      3256.006 6        40.710    23334738.012 7
  95551863.096 7      2537.691 7        44.741                                  
  22720550.449 7 119397273.706 7     -2867.646 7        44.845    22720563.973 7
  93036876.507 7     -2234.613 7        42.510                                  
  21437662.398 8 112655672.479 8     -1746.455 8        48.682    21437673.102 7
  87783683.654 7     -1360.590 7        44.741                                  
  20168996.398 8 105988795.204 8      -521.416 8        49.944    20169004.641 7
  82588706.701 7      -406.352 7        44.741                                  
  22095138.156 7 116110742.977 7        13.252 7        45.808    22095152.195 7
  90475962.944 7        10.113 7        44.741                                  
 22  6 17  3 57 30.0000000  0  9G02G03G06G11G12G14G17G19G24          0.000000000
  23185486.328 7 121840569.813 7      3120.340 7        43.995    23185496.188 6
  94940749.163 6      2431.418 6        39.677                                  
  23905511.715 7 125624326.71817      -134.484 7        42.006    23905526.426 7
  97889156.30417      -104.736 7        44.741                                  
  20537388.156 8 107924724.105 8      1598.914 8        50.920    20537402.066 7
  84097228.755 7      1246.047 7        44.741                                  
  23169238.527 7 121755183.19317      3547.078 7        43.366    23169251.648 6
  94874233.27016      2764.016 6        41.103                                  
  23316141.703 6 122527166.402 6      3253.758 6        40.437    23316155.039 7
  95475764.400 7      2535.363 7        44.741                                  
  22736942.949 7 119483413.55917     -2875.715 7        44.989    22736954.684 6
  93103998.37216     -2240.791 6        41.281                                  
  21447644.238 8 112708126.38818     -1750.891 8        48.742    21447654.598 7
  87824556.81717     -1363.916 7        44.741                                  
  20172003.938 8 106004599.415 8      -532.121 8        50.298    20172011.965 7
  82601021.678 7      -414.619 7        44.741                                  
  22095118.441 7 116110637.052 7        -5.969 7        46.740    22095132.008 7
  90475880.363 7        -4.639 7        44.741                                  
 22  6 17  3 58  0.0000000  0  9G02G03G06G11G12G14G17G19G24          0.000000000
  23167701.621 7 121747108.979 7      3110.365 7        44.465    23167710.766 6
  94867922.605 6      2423.574 6        39.478                                  
  23906335.543 6 125628655.297 6      -154.400 6        41.470    23906349.551 7
  97892529.204 7      -119.883 7        44.741                                  
  20528313.172 8 107877033.802 8      1580.424 8        51.155    20528326.992 6
  84060066.521 6      1231.426 6        41.451                                  
  23149009.523 7 121648882.650 7      3539.330 7        43.135    23149024.121 6
  94791401.808 6      2758.027 6        40.309                                  
  23297578.289 6 122429614.500 6      3249.486 6        40.931    23297590.598 7
  95399749.996 7      2532.383 7        44.741                                  
  22753384.258 7 119569810.729 7     -2884.068 7        45.222    22753396.148 6
  93171320.770 6     -2247.363 6        41.768                                  
  21457655.996 8 112760737.490 8     -1756.549 8        49.558    21457666.129 7
  87865552.469 7     -1368.711 7        44.741                                  
  20175077.168 8 106020749.010 8      -544.322 8        50.120    20175084.867 7
  82613605.762 7      -424.199 7        44.741                                  
  22095211.785 7 116111124.958 7       -26.295 7        47.305    22095224.277 7
  90476260.559 7       -20.684 7        44.741                                  
 22  6 17  3 58 30.0000000  0  9G02G03G06G11G12G14G17G19G24          0.000000000
  23149967.051 7 121653914.977 7      3102.102 7        43.850    23149977.539 6
  94795303.983 6      2417.234 6        40.668                                  
  23907270.316 6 125633566.836 6      -173.777 6        40.858    23907284.270 7
  97896356.391 7      -135.070 7        44.741                                  
  20519341.121 8 107829882.998 8      1562.941 8        51.355    20519354.500 7
  84023326.663 7      1217.801 7        44.741                                  
  23128820.641 7 121542790.638 7      3533.098 7        42.680    23128834.250 6
  94708732.835 6      2753.074 6        38.562                                  
  23279035.535 7 122332170.710 7      3246.262 7        42.198    23279048.801 7
  95323819.872 7      2529.813 7        44.741                                  
  22769872.840 7 119656462.576 7     -2892.217 7        44.202    22769886.348 6
  93238841.580 6     -2253.664 6        41.834                                  
  21467697.141 8 112813503.645 8     -1761.201 8        49.315    21467707.059 7
  87906668.945 7     -1372.590 7        44.741                                  
  20178215.559 8 106037241.631 8      -555.242 8        50.046    20178223.430 7
  82626457.157 7      -432.707 7        44.741                                  
  22095417.223 7 116112204.723 7       -45.633 7        47.263    22095429.426 7
  90477101.916 7       -35.578 7        44.741                                  
 22  6 17  3 59  0.0000000  0  9G02G03G06G11G12G14G17G19G24          0.000000000
  23132282.695 7 121560990.414 7      3092.703 7        42.251    23132295.273 6
  94722895.373 6      2409.932 6        40.172                                  
  23908315.406 6 125639062.470 6      -194.150 6        39.397    23908331.246 7
  97900638.688 7      -150.771 7        44.741                                  
  20510471.371 8 107783273.528 8      1544.229 8        51.289    20510484.590 7
  83987006.638 7      1203.115 7        44.741                                  
  23108672.387 6 121436910.305 6      3525.125 6        41.950    23108686.809 6
  94626228.688 6      2747.256 6        38.261                                  
  23260513.090 6 122234837.874 6      3242.059 6        40.895    23260525.926 7
  95247976.162 7      2526.553 7        44.741                                  
  22786410.203 7 119743368.950 7     -2901.045 7        43.178    22786423.523 6
  93306560.725 6     -2260.518 6        41.474                                  
  21477767.754 8 112866424.570 8     -1766.982 8        49.090    21477777.398 7
  87947906.007 7     -1376.807 7        44.741                                  
  20181419.332 8 106054077.016 8      -567.275 8        49.783    20181427.516 7
  82639575.638 7      -442.178 7        44.741                                  
  22095735.258 7 116113876.765 7       -65.713 7        47.049    22095748.082 7
  90478404.813 7       -51.279 7        44.741                                  
 22  6 17  3 59 30.0000000  0  9G02G03G06G11G12G14G17G19G24          0.000000000
  23114652.332 7 121468337.895 7      3083.719 7        43.113    23114662.207 6
  94650698.691 6      2402.939 6        38.539                                  
  23909471.723 6 125645143.268 6      -212.025 6        37.346    23909487.938 7
  97905376.979 7      -165.754 7        44.741                                  
  20501705.406 8 107737207.199 8      1526.355 8        51.641    20501718.602 7
  83951110.820 7      1189.326 7        44.741                                  
  23088564.816 7 121331244.666 7      3517.918 7        42.433    23088578.195 6
  94543891.924 6      2741.611 6        38.233                                  
  23242012.871 6 122137618.670 6      3238.406 6        40.967    23242025.535 7
  95172221.011 7      2523.604 7        44.741                                  
  22802996.840 7 119830529.645 7     -2909.975 7        44.335    22803010.102 6
  93374478.039 6     -2267.453 6        41.118                                  
  21487867.316 8 112919500.150 8     -1771.830 8        49.309    21487877.578 7
  87989263.583 7     -1380.734 7        44.741                                  
  20184688.258 8 106071255.131 8      -578.510 8        50.261    20184696.156 7
  82652961.165 7      -450.793 7        44.741                                  
  22096166.102 7 116116141.564 7       -85.580 7        47.600    22096179.164 7
  90480169.579 7       -66.652 7        44.741                                  
 22  6 17  4  0  0.0000000  0  9G02G03G06G11G12G14G17G19G24          0.000000000
  23097072.715 7 121375957.618 7      3074.758 7        42.845    23097084.508 6
  94578714.160 6      2395.898 6        39.496                                  
  23910740.031 6 125651807.688 6      -232.234 6        37.662    23910756.156 7
  97910570.015 7      -180.703 7        44.741                                  
  20493042.422 8 107691683.099 8      1508.449 8        51.495    20493055.543 7
  83915636.520 7      1175.645 7        44.741                                  
  23068498.832 7 121225794.112 7      3512.375 7        42.936    23068511.898 6
  94461722.766 6      2736.309 6        39.153                                  
  23223535.637 7 122040513.157 7      3234.680 7        43.448    23223547.488 7
  95096554.399 7      2520.996 7        44.741                                  
  22819630.785 7 119917941.795 7     -2917.645 7        43.157    22819643.750 6
  93442591.297 6     -2273.457 6        40.738                                  
  21497996.305 8 112972727.717 8     -1776.629 8        48.945    21498006.707 7
  88030739.570 7     -1384.609 7        44.741                                  
  20188021.957 8 106088773.454 8      -589.441 8        50.172    20188029.555 7
  82666611.800 7      -459.277 7        44.741                                  
  22096708.789 7 116118996.835 7      -104.734 7        46.069    22096723.098 7
  90482394.486 7       -81.895 7        44.741                                  
 22  6 17  4  0 30.0000000  0  9G02G03G06G11G12G14G17G19G24          0.000000000
  23079546.969 7 121283851.883 7      3065.236 7        45.222    23079557.441 7
  94506943.552 7      2388.572 7        42.531                                  
  23912119.016 6 125659056.811 6      -250.953 6        36.438    23912135.785 7
  97916218.676 7      -196.271 7        44.477                                  
  20484482.953 8 107646703.001 8      1490.412 8        51.735    20484495.789 7
  83880586.121 7      1161.385 7        44.741                                  
  23048472.980 6 121120561.825 6      3503.811 6        41.806    23048488.137 6
  94379723.643 6      2730.271 6        39.629                                  
  23205078.648 7 121943523.700 7      3231.096 7        44.134    23205089.480 7
  95020978.324 7      2518.006 7        44.741                                  
  22836313.164 7 120005605.327 7     -2926.285 7        43.850    22836325.113 6
  93510900.440 6     -2280.217 6        40.602                                  
  21508154.266 8 113026107.766 8     -1782.145 8        49.024    21508164.609 7
  88072334.373 7     -1388.459 7        44.741                                  
  20191420.254 8 106106632.140 8      -600.699 8        50.372    20191428.266 7
  82680527.642 7      -467.912 7        44.741                                  
  22097364.160 7 116122443.067 7      -124.645 7        45.072    22097378.738 7
  90485079.854 7       -96.994 7        44.741                                  
 22  6 17  4  1  0.0000000  0  9G02G03G06G11G12G14G17G19G24          0.000000000
  23062071.754 7 121192022.304 7      3056.938 7        45.327    23062082.285 6
  94435388.129 6      2381.961 6        40.630                                  
  23913610.637 6 125666890.556 6      -270.543 6        36.731    23913625.977 7
  97922322.841 7      -210.715 7        44.328                                  
  20476026.969 8 107602267.540 8      1472.973 8        51.393    20476040.234 7
  83845962.107 7      1147.781 7        44.741                                  
  23028490.082 7 121015549.701 7      3497.270 7        42.558    23028502.617 6
  94297896.125 6      2725.125 6        38.544                                  
  23186644.719 7 121846651.729 7      3227.660 7        44.496    23186656.609 7
  94945493.742 7      2514.930 7        44.741                                  
  22853042.500 7 120093518.805 7     -2933.902 7        44.219    22853055.508 6
  93579404.336 6     -2286.164 6        40.936                                  
  21518341.008 8 113079638.643 8     -1786.051 8        49.231    21518351.281 7
  88114046.749 7     -1391.906 7        44.741                                  
  20194883.395 8 106124830.071 8      -611.363 8        50.364    20194891.352 7
  82694707.839 7      -476.398 7        44.741                                  
  22098132.734 7 116126479.485 7      -143.863 7        45.248    22098147.387 7
  90488225.063 7      -111.984 7        44.741                                  
 22  6 17  4  1 30.0000000  0  9G02G03G06G11G12G14G17G19G24          0.000000000
  23044649.688 7 121100471.164 7      3047.045 7        44.697    23044660.391 6
  94364049.643 6      2374.285 6        40.089                                  
  23915210.781 5 125675309.729 5      -289.107 5        33.527    23915227.563 7
  97928883.250 7      -226.201 7        42.217                                  
  20467674.926 8 107558378.283 8      1454.018 8        51.144    20467688.648 7
  83811762.722 7      1132.764 7        44.741                                  
  23008550.457 7 120910760.727 7      3489.232 7        44.219    23008562.734 6
  94216242.432 6      2718.973 6        40.895                                  
  23168232.742 7 121749900.156 7      3223.021 7        44.202    23168244.391 7
  94870102.939 7      2511.727 7        44.741                                  
  22869819.117 7 120181681.956 7     -2942.602 7        43.135    22869832.297 6
  93648102.790 6     -2292.979 6        40.654                                  
  21528556.289 8 113133320.128 8     -1791.352 8        48.990    21528566.160 7
  88155876.461 7     -1396.357 7        44.741                                  
  20198410.555 8 106143366.870 8      -623.326 8        50.120    20198418.656 7
  82709152.082 7      -485.732 7        44.741                                  
  22099012.270 7 116131106.221 7      -163.932 7        44.352    22099028.137 7
  90491830.295 7      -127.842 7        44.741                                  
 22  6 17  4  2  0.0000000  0  9G02G03G06G11G12G14G17G19G24          0.000000000
  23027282.211 7 121009199.473 7      3037.533 7        45.750    23027292.016 6
  94292928.931 6      2366.855 6        41.774                                  
  23916927.047 6 125684313.623 6      -310.279 6        36.635    23916941.125 7
  97935899.205 7      -241.582 7        43.194                                  
  20459427.129 8 107515035.060 8      1435.736 8        51.483    20459440.652 7
  83777988.797 7      1119.043 7        44.741                                  
  22988650.973 7 120806196.005 7      3482.201 7        42.433    22988665.594 6
  94134763.517 6      2713.066 6        40.259                                  
  23149844.594 7 121653269.720 7      3219.193 7        44.253    23149856.801 7
  94794806.592 7      2508.184 7        44.741                                  
  22886644.176 7 120270092.709 7     -2951.314 7        44.368    22886656.695 6
  93716994.181 6     -2299.748 6        40.482                                  
  21538799.258 8 113187150.609 8     -1796.939 8        48.882    21538809.664 7
  88197822.250 7     -1399.963 7        44.741                                  
  20202002.473 8 106162241.031 8      -634.518 8        50.273    20202010.473 7
  82723859.212 7      -494.416 7        44.741                                  
  22100005.492 7 116136321.798 7      -183.717 7        45.843    22100019.672 7
  90495894.352 7      -143.027 7        44.741                                  
 22  6 17  4  2 30.0000000  0  9G02G03G06G11G12G14G17G19G24          0.000000000
  23009966.305 7 120918209.627 7      3028.152 7        45.003    23009976.063 6
  94222027.839 6      2359.574 6        40.092                                  
  23918751.688 5 125693902.990 5      -329.191 5        35.785    23918765.852 7
  97943371.444 7      -257.125 7        42.594                                  
  20451283.844 8 107472239.592 8      1416.863 8        51.890    20451297.078 7
  83744643.711 7      1103.988 7        44.741                                  
  22968797.758 7 120701858.788 7      3473.426 7        44.269    22968810.363 6
  94053461.865 6      2706.840 6        41.772                                  
  23131481.109 7 121556763.447 7      3214.520 7        45.431    23131492.414 7
  94719606.912 7      2504.633 7        44.741                                  
  22903514.355 7 120358750.877 7     -2959.855 7        43.387    22903527.652 6
  93786078.353 6     -2306.383 6        40.788                                  
  21549071.617 8 113241130.270 8     -1802.063 8        49.128    21549081.949 7
  88239884.317 7     -1404.527 7        44.741                                  
  20205658.258 8 106181452.597 8      -646.594 8        50.240    20205666.031 7
  82738829.243 7      -503.863 7        44.741                                  
  22101109.805 7 116142126.527 7      -203.566 7        45.654    22101124.602 7
  90500417.524 7      -158.844 7        44.741                                  
 22  6 17  4  3  0.0000000  0  9G02G03G06G11G12G14G17G19G24          0.000000000
  22992705.477 7 120827502.586 7      3019.133 7        45.443    22992715.809 6
  94151347.084 6      2352.494 6        40.946                                  
  23920688.785 6 125704077.498 6      -348.855 6        36.915    23920702.578 7
  97951299.618 7      -272.311 7        43.502                                  
  20443244.145 8 107429992.079 8      1399.191 8        51.364    20443257.309 6
  83711721.591 6      1090.248 6        40.265                                  
  22948985.887 7 120597750.545 7      3466.555 7        43.113    22948998.719 6
  93972338.632 6      2701.146 6        40.172                                  
  23113139.223 7 121460382.142 7      3210.871 7        44.253    23113150.324 7
  94644504.666 7      2501.635 7        44.741                                  
  22920432.609 7 120447654.818 7     -2967.330 7        43.527    22920445.672 6
  93855354.043 6     -2312.174 6        40.864                                  
  21559372.008 8 113295257.784 8     -1806.707 8        48.748    21559382.098 7
  88282061.564 7     -1407.838 7        44.741                                  
  20209377.711 8 106200999.887 8      -657.078 8        49.912    20209385.910 7
  82754060.884 7      -511.900 7        44.741                                  
  22102326.723 7 116148519.277 7      -222.938 7        46.458    22102340.305 7
  90505398.879 7      -173.775 7        44.741                                  
 22  6 17  4  3 30.0000000  0  9G02G03G06G11G12G14G17G19G24          0.000000000
  22975498.480 7 120737081.422 7      3008.850 7        44.543    22975510.359 7
  94080889.138 7      2344.541 7        42.503                                  
  23922735.809 5 125714837.897 5      -367.068 5        35.785    23922749.789 7
  97959684.352 7      -286.865 7        43.174                                  
  20435309.078 8 107388294.158 8      1380.998 8        51.358    20435322.328 7
  83679228.721 7      1076.123 7        44.741                                  
  22929218.547 7 120493874.343 7      3458.479 7        43.221    22929232.715 6
  93891396.203 6      2695.186 6        40.619                                  
  23094822.836 7 121364128.496 7      3206.545 7        44.575    23094834.984 7
  94569501.921 7      2498.311 7        44.741                                  
  22937397.539 7 120536804.311 7     -2976.033 7        43.507    22937410.789 6
  93924821.085 6     -2318.975 6        40.045                                  
  21569699.766 8 113349532.646 8     -1811.189 8        49.150    21569710.566 7
  88324353.647 7     -1411.689 7        44.741                                  
  20213161.301 8 106220883.035 8      -668.221 8        49.736    20213169.430 7
  82769554.230 7      -520.596 7        44.741                                  
  22103655.855 7 116155500.250 7      -242.146 7        46.969    22103668.934 7
  90510838.620 7      -188.701 7        44.741                                  
 22  6 17  4  4  0.0000000  0  9G02G03G06G11G12G14G17G19G24          0.000000000
  22958348.090 7 120646946.970 7      3000.172 7        47.427    22958357.461 7
  94010654.639 7      2337.865 7        44.642                                  
  23924894.098 5 125726183.830 5      -386.137 5        34.575    23924909.051 6
  97968525.338 6      -301.822 6        41.460                                  
  20427478.402 8 107347146.081 8      1363.043 8        51.286    20427492.340 7
  83647166.310 7      1062.143 7        44.741                                  
  22909495.934 7 120390231.979 7      3451.520 7        42.959    22909509.070 6
  93810636.038 6      2689.623 6        40.422                                  
  23076530.711 7 121268004.152 7      3202.262 7        44.465    23076542.988 7
  94494599.869 7      2495.658 7        44.741                                  
  22954407.910 7 120626197.740 7     -2983.051 7        42.330    22954422.004 6
  93994478.173 6     -2324.400 6        40.089                                  
  21580056.074 8 113403954.154 8     -1815.902 8        49.703    21580066.406 7
  88366759.984 7     -1414.811 7        44.741                                  
  20217008.504 8 106241100.686 8      -678.910 8        49.816    20217017.004 7
  82785308.242 7      -529.010 7        44.741                                  
  22105095.395 7 116163068.325 7      -261.176 7        46.731    22105108.730 7
  90516735.807 7      -203.443 7        44.741                                  
 22  6 17  4  4 30.0000000  0  9G02G03G06G11G12G14G17G19G24          0.000000000
  22941248.922 7 120557100.818 7      2991.088 7        44.253    22941258.992 6
  93940644.700 6      2330.713 6        39.690                                  
  23927164.426 5 125738115.450 5      -407.330 5        35.666    23927179.191 6
  97977822.761 6      -317.490 6        40.499                                  
  20419753.617 8 107306548.815 8      1344.447 8        51.617    20419766.980 7
  83615533.102 7      1047.510 7        44.741                                  
  22889818.535 7 120286825.782 7      3442.982 7        43.814    22889832.145 6
  93730059.858 6      2682.939 6        41.086                                  
  23058263.770 7 121172011.048 7      3197.943 7        43.605    23058275.820 7
  94419800.115 7      2492.002 7        44.741                                  
  22971466.070 7 120715834.275 7     -2992.213 7        43.003    22971479.508 6
  94064324.707 6     -2331.611 6        39.811                                  
  21590439.715 8 113458521.322 8     -1821.334 8        49.335    21590449.816 7
  88409279.825 7     -1418.701 7        44.741                                  
  20220919.664 8 106261652.594 8      -690.455 8        49.689    20220927.836 7
  82801322.696 7      -537.998 7        44.741                                  
  22106647.258 7 116171223.057 7      -281.217 7        46.273    22106660.434 7
  90523090.163 7      -219.307 7        44.741                                  
 22  6 17  4  5  0.0000000  0  9G02G03G06G11G12G14G17G19G24          0.000000000
  22924207.711 7 120467544.592 7      2980.322 7        45.519    22924218.656 7
  93870860.757 7      2322.293 7        43.656                                  
  23929546.512 6 125750632.563 6      -427.842 6        36.014    23929561.223 6
  97987576.300 6      -332.688 6        41.105                                  
  20412133.004 8 107266502.769 8      1325.576 8        51.342    20412146.598 7
  83584327.419 7      1032.781 7        44.741                                  
  22870186.504 7 120183657.791 7      3434.580 7        43.468    22870199.809 6
  93649669.249 6      2676.316 6        41.264                                  
  23040022.449 7 121076150.699 7      3192.959 7        44.335    23040034.453 7
  94345103.801 7      2487.859 7        44.741                                  
  22988569.313 7 120805712.510 7     -3000.244 7        42.981    22988581.762 6
  94134359.573 6     -2337.842 6        39.282                                  
  21600851.402 8 113513233.003 8     -1826.338 8        48.962    21600861.406 7
  88451912.296 7     -1423.193 7        44.741                                  
  20224893.934 8 106282537.271 8      -701.787 8        49.741    20224902.148 7
  82817596.467 7      -546.965 7        44.741                                  
  22108311.020 7 116179963.565 7      -301.396 7        46.674    22108324.355 7
  90529900.923 7      -234.816 7        44.741                                  
 22  6 17  4  5 30.0000000  0  9G02G03G06G11G12G14G17G19G24          0.000000000
  22907220.914 7 120378279.979 7      2971.111 7        45.593    22907231.773 7
  93801304.033 7      2315.156 7        43.110                                  
  23932041.250 6 125763734.740 6      -445.471 6        38.232    23932054.043 7
  97997785.781 7      -347.773 7        42.568                                  
  20404617.750 8 107227008.407 8      1307.693 8        51.773    20404630.598 7
  83553550.610 7      1018.887 7        44.741                                  
  22850599.582 7 120080729.766 7      3427.557 7        44.417    22850613.219 6
  93569465.708 6      2670.566 6        41.979                                  
  23021806.207 7 120980424.856 7      3189.314 7        43.814    23021817.969 7
  94270512.277 7      2484.922 7        44.741                                  
  23005718.668 7 120895831.106 7     -3007.990 7        43.488    23005731.129 6
  94204581.752 6     -2343.887 6        39.625                                  
  21611289.891 8 113568088.245 8     -1830.471 8        49.278    21611299.863 7
  88494656.626 7     -1426.348 7        44.741                                  
  20228931.492 8 106303753.804 8      -712.424 8        50.046    20228939.547 7
  82834128.813 7      -555.098 7        44.741                                  
  22110085.148 7 116189288.827 7      -320.256 7        45.797    22110098.785 7
  90537167.345 7      -249.512 7        44.741                                  
 22  6 17  4  6  0.0000000  0  9G02G03G06G11G12G14G17G19G24          0.000000000
  22890289.852 7 120289309.407 7      2961.008 7        44.253    22890300.012 6
  93731976.387 6      2307.242 6        41.297                                  
  23934645.102 6 125777423.085 6      -466.004 6        37.956    23934658.766 7
  98008452.023 7      -363.363 7        42.346                                  
  20397207.453 8 107188067.535 8      1289.094 8        52.073    20397220.488 7
  83523208.092 7      1004.273 7        44.138                                  
  22831059.957 7 119978045.149 7      3419.016 7        45.912    22831072.805 7
  93489451.804 7      2664.078 7        42.726                                  
  23003615.793 7 120884836.422 7      3183.918 7        43.003    23003627.238 7
  94196027.854 7      2481.129 7        44.741                                  
  23022913.598 7 120986190.111 7     -3016.104 7        43.777    23022925.574 6
  94274991.226 6     -2350.221 6        39.764                                  
  21621755.641 8 113623087.514 8     -1835.439 8        48.951    21621765.926 7
  88537513.175 7     -1430.531 7        44.741                                  
  20233031.793 8 106325302.335 8      -723.934 8        50.417    20233040.266 7
  82850919.867 7      -564.105 7        44.741                                  
  22111971.105 7 116199199.241 7      -339.754 7        46.113    22111985.387 7
  90544889.746 7      -265.063 7        44.741                                  
 22  6 17  4  6 30.0000000  0  9G02G03G06G11G12G14G17G19G24          0.000000000
  22873416.316 7 120200634.561 7      2950.652 7        46.210    22873426.230 7
  93662879.214 7      2299.195 7        43.978                                  
  23937361.418 6 125791697.393 6      -486.320 6        36.635    23937374.742 6
  98019574.869 6      -378.949 6        40.956                                  
  20389902.188 8 107149680.721 8      1269.949 8        51.296    20389915.836 7
  83493297.315 7       989.488 7        44.741                                  
  22811566.547 7 119875606.003 7      3410.066 7        46.134    22811579.598 7
  93409629.156 7      2657.203 7        43.199                                  
  22985452.852 7 120789387.650 7      3179.148 7        42.680    22985464.918 7
  94121652.264 7      2477.086 7        44.741                                  
  23040153.316 7 121076788.267 7     -3024.152 7        43.448    23040166.082 6
  94345587.101 6     -2356.449 6        40.017                                  
  21632249.289 8 113678229.578 8     -1840.754 8        49.402    21632259.063 7
  88580480.998 7     -1434.340 7        44.741                                  
  20237195.633 8 106347182.075 8      -735.266 8        50.282    20237203.645 7
  82867969.018 7      -572.914 7        44.741                                  
  22113968.676 7 116209693.997 7      -360.051 7        46.448    22113982.039 7
  90553067.458 7      -280.473 7        44.741                                  
 22  6 17  4  7  0.0000000  0  9G02G03G06G11G12G14G17G19G24          0.000000000
  22856598.398 7 120112256.269 7      2941.295 7        45.003    22856608.555 7
  93594013.105 7      2291.881 7        43.328                                  
  23940187.875 5 125806556.941 5      -504.916 5        35.288    23940203.703 6
  98031153.711 6      -393.256 6        40.817                                  
  20382703.051 8 107111847.979 8      1252.057 8        51.432    20382716.199 7
  83463815.267 7       975.611 7        44.741                                  
  22792119.461 7 119773413.854 7      3402.428 7        45.058    22792133.238 7
  93329998.995 7      2651.354 7        43.065                                  
  22967315.629 7 120694079.720 7      3175.104 7        42.607    22967328.305 7
  94047386.395 7      2473.912 7        44.741                                  
  23057439.070 7 121167623.908 7     -3031.557 7        43.547    23057451.750 6
  94416368.004 6     -2362.277 6        40.563                                  
  21642769.371 8 113733513.701 8     -1845.033 8        49.278    21642779.301 7
  88623559.509 7     -1437.414 7        44.741                                  
  20241421.672 8 106369391.509 8      -745.619 8        49.488    20241429.770 7
  82885275.068 7      -581.029 7        44.741                                  
  22116076.238 7 116220771.665 7      -378.725 7        46.220    22116090.332 7
  90561699.403 7      -295.033 7        44.741                                  
 22  6 17  4  7 30.0000000  0  9G02G03G06G11G12G14G17G19G24          0.000000000
  22839837.688 7 120024176.318 7      2930.457 7        46.468    22839847.230 7
  93525379.479 7      2283.527 7        43.512                                  
  23943127.488 6 125822001.551 6      -524.641 6        36.014    23943142.355 6
  98043188.464 6      -409.031 6        39.979                                  
  20375609.488 8 107074569.879 8      1232.879 8        51.458    20375622.594 7
  83434767.414 7       960.656 7        44.741                                  
  22772720.277 7 119671470.843 7      3393.504 7        45.568    22772731.996 6
  93250563.010 6      2644.504 6        41.963                                  
  22949206.563 7 120598914.246 7      3168.934 7        43.488    22949218.570 7
  93973231.531 7      2470.012 7        44.741                                  
  23074769.582 7 121258695.871 7     -3040.051 7        42.913    23074781.758 6
  94487333.060 6     -2368.953 6        39.524                                  
  21653316.465 8 113788938.681 8     -1850.598 8        49.315    21653326.652 7
  88666747.785 7     -1442.078 7        44.741                                  
  20245710.211 8 106391929.857 8      -756.691 8        49.602    20245718.668 7
  82902837.406 7      -589.695 7        44.741                                  
  22118295.242 7 116232431.404 7      -398.938 7        47.321    22118309.191 7
  90570784.916 7      -310.828 7        44.741                                  
 22  6 17  4  8  0.0000000  0  9G02G03G06G11G12G14G17G19G24          0.000000000
  22823133.242 7 119936396.095 7      2920.848 7        45.568    22823143.246 7
  93456979.396 7      2275.980 7        44.397                                  
  23946176.742 5 125838030.869 5      -543.645 5        35.544    23946192.066 6
  98055678.805 6      -423.863 6        38.696                                  
  20368620.984 8 107037846.850 8      1214.324 8        51.403                  
         0.000 0         0.000 0         0.000                                  
  22753368.918 7 119569779.011 7      3385.242 7        45.855    22753380.824 6
  93171322.732 6      2637.953 6        41.886                                  
  22931124.574 7 120503893.251 7      3164.344 7        43.387    22931136.336 7
  93899189.280 7      2465.727 7        44.741                                  
  23092144.766 7 121350002.840 7     -3048.195 7        43.869    23092157.059 6
  94558481.263 6     -2375.289 6        39.341                                  
  21663889.633 8 113844503.561 8     -1854.641 8        48.724    21663900.367 7
  88710045.064 7     -1445.348 7        44.741                                  
  20250062.027 8 106414796.044 8      -767.961 8        49.543    20250070.129 7
  82920655.186 7      -598.473 7        44.741                                  
  22120624.168 7 116244672.312 7      -417.961 7        46.683    22120638.176 7
  90580323.271 7      -325.699 7        44.741                                  
 22  6 17  4  8 30.0000000  0  9G02G03G06G11G12G14G17G19G24          0.000000000
  22806486.055 7 119848917.615 7      2910.795 7        45.581    22806496.359 7
  93388814.480 7      2268.205 7        44.276                                  
  23949338.773 5 125854645.002 5      -563.600 5        35.901    23949354.082 6
  98068624.840 6      -439.002 6        39.145                                  
  20361738.676 8 107001679.696 8      1196.459 8        51.755    20361752.141 7
  83377971.930 7       932.072 7        44.741                                  
  22734066.949 7 119468340.827 7      3376.830 7        46.488    22734078.668 7
  93092280.056 7      2631.154 7        43.042                                  
  22913070.648 7 120409018.811 7      3159.662 7        43.887    22913083.000 7
  93825261.207 7      2462.541 7        44.741                                  
  23109563.906 7 121441543.894 7     -3055.416 7        43.070    23109577.555 6
  94629811.844 6     -2380.896 6        39.210                                  
  21674490.297 8 113900207.777 8     -1859.127 8        49.101    21674500.543 7
  88753450.909 7     -1448.826 7        44.741                                  
  20254475.398 8 106437989.604 8      -778.561 8        49.894    20254483.496 7
  82938728.077 7      -606.717 7        44.741                                  
  22123063.727 7 116257493.748 7      -436.783 7        46.188    22123077.047 7
  90590314.002 7      -340.564 7        44.741                                  
 22  6 17  4  9  0.0000000  0  9G02G03G06G11G12G14G17G19G24          0.000000000
  22789897.867 7 119761742.661 7      2900.504 7        46.702    22789907.211 7
  93320886.033 7      2260.148 7        44.741                                  
  23952611.738 6 125871844.122 6      -583.088 6        36.335    23952627.180 6
  98082026.713 6      -454.383 6        39.960                                  
  20354962.016 8 106966069.466 8      1177.713 8        51.607    20354975.852 7
  83350222.717 7       917.609 7        44.741                                  
  22714811.094 7 119367158.736 7      3368.512 7        45.556    22714824.059 7
  93013436.976 7      2624.621 7        42.125                                  
  22895045.102 7 120314293.190 7      3154.703 7        44.786    22895056.848 7
  93751449.099 7      2458.313 7        44.741                                  
  23127028.445 7 121533318.421 7     -3062.893 7        43.814    23127041.535 6
  94701324.359 6     -2386.629 6        39.774                                  
  21685116.902 8 113956051.339 8     -1863.986 8        48.778    21685127.449 7
  88796965.336 7     -1452.313 7        44.741                                  
  20258951.484 8 106461510.104 8      -789.396 8        50.364    20258959.211 7
  82957055.737 7      -615.164 7        44.741                                  
  22125614.223 7 116270895.317 7      -456.193 7        46.458    22125627.461 7
  90600756.781 7      -355.711 7        44.741                                  
 22  6 17  4  9 30.0000000  0  9G02G03G06G11G12G14G17G19G24          0.000000000
  22773366.020 7 119674872.371 7      2890.205 7        45.593    22773376.691 7
  93253194.995 7      2252.049 7        43.924                                  
  23955996.141 6 125889627.491 6      -603.232 6        37.737    23956012.109 7
  98095883.878 7      -470.178 7        42.314                                  
  20348292.063 8 106931016.208 8      1158.936 8        51.936    20348305.184 7
  83322907.517 7       902.928 7        44.741                                  
  22695606.578 7 119266234.567 7      3359.678 7        46.674    22695618.840 7
  92934794.861 7      2617.908 7        43.121                                  
  22877048.137 7 120219717.874 7      3149.561 7        44.757    22877059.441 7
  93677754.095 7      2454.061 7        44.741                                  
  23144536.590 7 121625324.777 7     -3071.162 7        43.663    23144550.082 6
  94773017.538 6     -2393.127 6        40.089                                  
  21695769.945 8 114012032.999 8     -1868.662 8        48.325    21695780.133 7
  88840587.368 7     -1456.076 7        44.741                                  
  20263489.207 8 106485356.235 8      -800.596 8        49.953    20263497.004 7
  82975637.129 7      -623.928 7        44.741                                  
  22128274.723 7 116284875.672 7      -475.967 7        46.557    22128288.504 7
  90611650.563 7      -370.979 7        44.741                                  
 22  6 17  4 10  0.0000000  0  9G02G03G06G11G12G14G17G19G24          0.000000000
  22756894.195 7 119588308.122 7      2880.504 7        47.196    22756904.168 7
  93185742.420 7      2244.697 7        44.741                                  
  23959492.367 6 125907994.519 6      -622.172 6        38.428    23959506.789 7
  98110195.813 7      -484.424 7        43.936                                  
  20341727.352 8 106896520.064 8      1140.602 8        51.705    20341740.473 7
  83296027.410 7       888.994 7        44.741                                  
  22676450.637 7 119165570.04217      3350.914 7        46.749    22676462.324 7
  92856355.08217      2611.357 7        42.677                                  
  22859080.145 7 120125294.964 7      3145.172 7        44.974    22859091.160 7
  93604177.878 7      2450.557 7        44.741                                  
  23162089.020 7 121717561.49017     -3078.070 7        43.720    23162102.656 6
  94844890.16716     -2398.467 6        39.954                                  
  21706448.813 8 114068151.28818     -1872.738 8        48.473    21706458.641 7
  88884315.88017     -1459.463 7        44.741                                  
  20268088.957 8 106509526.645 8      -811.059 8        50.352    20268096.598 7
  82994471.185 7      -631.768 7        44.741                                  
  22131045.188 7 116299433.474 7      -494.887 7        47.005    22131059.723 7
  90622994.292 7      -385.400 7        44.741                                  
 22  6 17  4 10 30.0000000  0  9G02G03G06G11G12G14G17G19G24          0.000000000
  22740479.715 7 119502052.371 7      2869.572 7        45.761    22740489.504 7
  93118530.246 7      2235.943 7        44.174                                  
  23963098.449 6 125926945.794 6      -641.914 6        39.294    23963113.016 7
  98124963.013 7      -500.309 7        44.741                                  
  20335269.352 8 106862582.487 8      1121.271 8        51.632    20335282.414 7
  83269582.566 7       873.951 7        44.741                                  
  22657344.453 7 119065168.299 7      3341.369 7        46.210    22657357.305 7
  92778120.069 7      2603.854 7        43.347                                  
  22841141.449 7 120031027.062 7      3139.123 7        44.786    22841153.082 7
  93530722.426 7      2446.080 7        44.741                                  
  23179685.488 7 121810028.302 7     -3086.758 7        44.236    23179697.680 6
  94916942.132 6     -2405.211 6        39.873                                  
  21717153.828 7 114124406.927 7     -1878.379 7        47.885    21717163.590 7
  88928151.407 7     -1463.336 7        44.741                                  
  20272750.199 8 106534021.784 8      -822.773 8        50.421    20272757.840 7
  83013558.305 7      -641.090 7        44.741                                  
  22133924.508 7 116314568.818 7      -514.824 7        45.544    22133939.590 7
  90634788.042 7      -401.109 7        44.741                                  
 22  6 17  4 11  0.0000000  0  9G02G03G06G11G12G14G17G19G24          0.000000000
  22724124.836 7 119416106.466 7      2859.910 7        45.901    22724134.738 7
  93051559.478 7      2228.498 7        44.525                                  
  23966815.645 6 125946480.983 6      -661.498 6        38.968    23966830.184 7
  98140185.195 7      -515.174 7        44.696                                  
  20328917.738 8 106829203.794 8      1103.248 8        51.927    20328930.703 7
  83243572.209 7       859.924 7        44.741                                  
  22638289.285 7 118965031.278 7      3333.250 7        47.058    22638302.035 7
  92700091.335 7      2597.404 7        43.803                                  
  22823232.445 7 119936915.950 7      3134.305 7        44.801    22823244.152 7
  93457389.153 7      2442.189 7        44.741                                  
  23197324.957 7 121902723.885 7     -3093.998 7        44.449    23197337.820 6
  94989172.346 6     -2410.877 6        40.519                                  
  21727884.676 7 114180799.183 7     -1882.084 7        47.978    21727895.234 7
  88972093.416 7     -1466.990 7        44.741                                  
  20277472.617 8 106558840.577 8      -832.748 8        49.788    20277480.484 7
  83032897.621 7      -648.904 7        44.741                                  
  22136915.512 7 116330280.564 7      -533.334 7        46.645    22136929.234 7
  90647030.929 7      -415.604 7        44.741                                  
 22  6 17  4 11 30.0000000  0  9G02G03G06G11G12G14G17G19G24          0.000000000
  22707828.691 7 119330471.336 7      2849.852 7        46.091    22707839.023 7
  92984830.918 7      2220.680 7        44.654                                  
  23970645.094 6 125966598.814 6      -679.211 6        41.209    23970658.719 7
  98155861.448 7      -529.809 7        44.741                                  
  20322672.230 8 106796383.676 8      1085.379 8        51.741    20322685.535 7
  83218000.122 7       845.797 7        44.741                                  
  22619284.270 7 118865160.434 7      3325.164 7        45.726    22619295.602 7
  92622269.981 7      2591.148 7        42.157                                  
  22805354.277 7 119842962.984 7      3129.559 7        45.340    22805365.254 7
  93384179.094 7      2438.941 7        44.741                                  
  23215006.703 7 121995646.368 7     -3100.578 7        43.527    23215020.082 6
  95061579.377 6     -2416.059 6        39.570                                  
  21738641.492 8 114237325.851 8     -1885.852 8        48.364    21738651.852 7
  89016140.137 7     -1469.555 7        44.741                                  
  20282257.059 8 106583981.475 8      -842.414 8        50.033    20282264.930 7
  83052487.919 7      -656.469 7        44.741                                  
  22140014.188 7 116346567.021 7      -551.809 7        46.113    22140028.023 7
  90659721.658 7      -429.945 7        44.741                                  
 22  6 17  4 12  0.0000000  0  9G02G03G06G11G12G14G17G19G24          0.000000000
  22691592.680 7 119245149.359 7      2838.553 7        45.544    22691603.227 7
  92918346.340 7      2211.854 7        44.686                                  
  23974584.184 6 125987300.054 6      -700.063 6        41.037    23974598.234 7
  98171992.246 7      -545.314 7        44.741                                  
  20316532.926 8 106764123.510 8      1066.014 8        51.435    20316546.461 7
  83192862.365 7       830.643 7        44.741                                  
  22600330.652 7 118765558.825 7      3315.701 7        45.832    22600342.359 7
  92544658.432 7      2583.631 7        42.932                                  
  22787506.191 7 119749171.230 7      3123.670 7        45.702    22787516.840 7
  93311094.696 7      2434.217 7        44.741                                  
  23232732.559 7 122088795.557 7     -3108.383 7        43.795    23232746.109 6
  95134163.044 6     -2422.053 6        39.979                                  
  21749424.523 8 114293987.682 8     -1890.961 8        48.748    21749434.281 7
  89060292.170 7     -1473.283 7        44.741                                  
  20287102.637 8 106609444.598 8      -853.773 8        49.926    20287110.566 7
  83072329.307 7      -665.217 7        44.741                                  
  22143223.082 7 116363428.052 7      -571.410 7        46.987    22143235.574 7
  90672860.135 7      -445.119 7        44.741                                  
 22  6 17  4 12 30.0000000  0  9G02G03G06G11G12G14G17G19G24          0.000000000
  22675415.457 7 119160141.554 7      2828.094 7        45.045    22675426.617 7
  92852106.606 7      2203.725 7        43.998                                  
  23978634.148 6 126008583.631 6      -718.879 6        40.517    23978648.203 7
  98188576.825 7      -560.553 7        44.741                                  
  20310500.922 8 106732423.188 8      1047.273 8        51.473    20310514.441 7
  83168160.843 7       816.049 7        44.741                                  
  22581428.391 7 118666228.039 7      3306.277 7        45.519    22581440.723 7
  92467257.935 7      2576.088 7        43.945                                  
  22769688.992 7 119655541.959 7      3118.094 7        45.654    22769699.781 7
  93238136.897 7      2429.740 7        44.741                                  
  23250501.891 7 122182169.697 7     -3116.203 7        43.605    23250515.012 6
  95206921.979 6     -2428.189 6        40.832                                  
  21760232.004 7 114350783.218 7     -1895.559 7        47.730    21760242.438 7
  89104548.396 7     -1476.861 7        44.741                                  
  20292008.578 8 106635228.251 8      -864.719 8        49.428    20292017.137 7
  83092420.472 7      -673.854 7        44.741                                  
  22146540.273 7 116380862.187 7      -590.637 7        46.304    22146554.121 7
  90686445.181 7      -460.533 7        44.741                                  
 22  6 17  4 13  0.0000000  0  9G02G03G06G11G12G14G17G19G24          0.000000000
  22659299.238 7 119075449.305 7      2818.129 7        45.418    22659309.613 7
  92786112.728 7      2195.898 7        43.604                                  
  23982794.914 6 126030449.123 6      -739.195 6        40.672    23982809.297 7
  98205614.838 7      -575.332 7        44.741                                  
  20304574.992 8 106701282.993 8      1028.520 8        51.358    20304588.500 7
  83143894.780 7       801.406 7        44.741                                  
  22562577.543 7 118567170.109 7      3297.152 7        43.795    22562591.422 7
  92390070.050 7      2569.316 7        43.500                                  
  22751903.180 7 119562077.313 7      3113.051 7        45.785    22751914.941 7
  93165307.359 7      2425.820 7        44.741                                  
  23268312.340 7 122275767.550 7     -3123.980 7        43.586    23268326.605 6
  95279855.253 6     -2434.258 6        40.624                                  
  21771065.148 7 114407711.772 7     -1899.664 7        47.654    21771075.535 7
  89148908.282 7     -1480.293 7        44.741                                  
  20296976.668 8 106661331.964 8      -875.465 8        50.006    20296984.324 7
  83112761.019 7      -682.129 7        44.741                                  
  22149966.547 7 116398868.240 7      -609.566 7        46.407    22149980.727 7
  90700475.854 7      -475.195 7        44.741                                  
 22  6 17  4 13 30.0000000  0  9G02G03G06G11G12G14G17G19G24          0.000000000
  22643242.672 7 118991074.591 7      2807.727 7        44.100    22643253.031 7
  92720366.264 7      2187.805 7        42.127                                  
  23987066.273 6 126052896.427 6      -757.820 6        40.672    23987081.297 7
  98223106.251 7      -590.301 7        44.741                                  
  20298755.508 8 106670703.690 8      1010.637 8        50.851    20298769.129 7
  83120066.768 7       787.551 7        44.741                                  
  22543780.621 7 118468387.526 7      3288.586 7        45.045    22543794.242 7
  92313096.700 7      2562.414 7        44.326                                  
  22734149.113 7 119468779.717 7      3107.492 7        45.785    22734160.273 7
  93092607.972 7      2421.672 7        44.741                                  
  23286166.121 7 122369588.335 7     -3130.242 7        42.583    23286179.672 6
  95352962.221 6     -2439.188 6        39.731                                  
  21781923.453 7 114464773.227 7     -1903.426 7        47.346    21781934.070 7
  89193371.729 7     -1483.602 7        44.741                                  
  20302004.410 8 106687755.309 8      -885.711 8        49.392    20302012.465 7
  83133350.643 7      -690.164 7        44.741                                  
  22153501.840 7 116417445.563 7      -628.172 7        45.991    22153515.719 7
  90714951.690 7      -489.539 7        44.741                                  
 22  6 17  4 14  0.0000000  0  9G02G03G06G11G12G14G17G19G24          0.000000000
  22627248.215 7 118907018.638 7      2796.391 7        45.797    22627257.141 7
  92654868.200 7      2178.953 7        43.004                                  
  23991448.676 6 126075924.980 6      -777.711 6        40.710    23991463.715 7
  98241050.522 7      -605.832 7        44.741                                  
  20293043.492 8 106640685.487 8       991.137 8        51.030    20293056.957 6
  83096675.977 6       772.410 6        41.105                                  
  22525035.363 7 118369882.296 7      3278.832 7        44.352    22525048.527 7
  92236339.475 7      2554.754 7        43.501                                  
  22716427.535 7 119375650.907 7      3101.215 7        46.025    22716438.453 7
  93020040.142 7      2416.395 7        44.741                                  
  23304061.414 7 122463630.706 7     -3138.766 7        43.135    23304075.352 6
  95426241.889 6     -2445.834 6        39.615                                  
  21792807.383 7 114521966.781 7     -1908.512 7        47.443    21792817.832 7
  89237938.104 7     -1487.355 7        44.741                                  
  20307093.688 8 106714497.045 8      -897.164 8        50.389    20307101.215 7
  83154188.344 7      -698.957 7        44.741                                  
  22157145.602 7 116436592.940 7      -648.258 7        45.702    22157159.570 7
  90729871.683 7      -505.070 7        44.741                                  
 22  6 17  4 14 30.0000000  0  9G02G03G06G11G12G14G17G19G24          0.000000000
  22611313.926 7 118823283.100 7      2786.035 7        46.058    22611324.203 7
  92589619.804 7      2170.939 7        43.925                                  
  23995940.621 6 126099534.055 6      -796.074 6        39.597    23995955.918 7
  98259447.203 7      -620.467 7        44.741                                  
  20287438.012 8 106611228.537 8       972.930 8        51.216    20287451.020 7
  83073719.527 7       758.068 7        44.741                                  
  22506342.266 7 118271656.296 7      3269.785 7        42.171    22506355.801 6
  92159799.821 6      2548.066 6        41.642                                  
  22698738.371 7 119282692.639 7      3096.035 7        46.397    22698749.504 7
  92947605.161 7      2412.521 7        44.741                                  
  23321999.848 7 122557893.285 7     -3145.000 7        43.157    23322013.070 6
  95499693.093 6     -2450.623 6        39.252                                  
  21803715.570 7 114579291.687 7     -1912.930 7        47.443    21803725.855 7
  89282606.811 7     -1490.584 7        44.741                                  
  20312242.426 8 106741556.210 8      -907.012 8        50.037    20312250.480 7
  83175273.403 7      -706.834 7        44.741                                  
  22160897.762 7 116456309.030 7      -666.367 7        46.304    22160910.684 7
  90745234.851 7      -519.275 7        44.741                                  
 22  6 17  4 15  0.0000000  0  9G02G03G06G11G12G14G17G19G24          0.000000000
  22595440.438 7 118739869.516 7      2775.037 7        45.379    22595449.551 7
  92524622.296 7      2162.275 7        42.101                                  
  24000543.012 6 126123723.553 6      -816.584 6        39.346    24000559.055 7
  98278296.111 7      -635.654 7        44.741                                  
  20281939.258 8 106582333.408 8       953.885 8        51.305    20281952.395 7
  83051203.869 7       743.271 7        44.741                                  
  22487704.527 7 118173711.947 7      3260.115 7        43.387    22487717.477 6
  92083479.665 6      2540.303 6        41.927                                  
  22681081.523 7 119189907.545 7      3090.369 7        45.843    22681092.328 7
  92875305.164 7      2407.490 7        44.741                                  
  23339979.043 7 122652375.222 7     -3153.303 7        43.407    23339992.168 6
  95573315.265 6     -2457.139 6        38.789                                  
  21814648.777 7 114636747.223 7     -1917.170 7        47.005    21814659.180 7
  89327377.348 7     -1493.955 7        44.741                                  
  20317451.953 8 106768932.583 8      -917.404 8        50.290    20317459.797 7
  83196605.626 7      -714.736 7        44.741                                  
  22164757.793 7 116476593.014 7      -685.568 7        46.824    22164770.715 7
  90761040.550 7      -534.033 7        44.741                                  
 22  6 17  4 15 30.0000000  0  9G02G03G06G11G12G14G17G19G24          0.000000000
  22579629.137 7 118656778.995 7      2764.313 7        46.567    22579638.395 7
  92459876.514 7      2154.016 7        43.784                                  
  24005256.957 6 126148492.678 6      -835.551 6        39.024    24005272.539 7
  98297596.718 7      -650.945 7        44.741                                  
  20276548.195 8 106554000.381 8       934.996 8        51.458    20276560.930 7
  83029128.196 7       728.586 7        44.741                                  
  22469120.246 7 118076051.244 7      3250.660 7        43.739    22469134.441 7
  92007380.523 7      2533.020 7        42.239                                  
  22663457.820 7 119097297.780 7      3084.098 7        45.593    22663469.152 7
  92803141.735 7      2403.273 7        44.741                                  
  23357999.824 7 122747075.113 7     -3160.414 7        43.346    23358012.773 6
  95647107.275 6     -2462.625 6        38.713                                  
  21825607.398 7 114694332.830 7     -1921.762 7        47.662    21825617.813 7
  89372249.211 7     -1497.371 7        44.741                                  
  20322721.383 8 106796625.144 8      -928.363 8        49.912    20322729.340 7
  83218184.235 7      -723.387 7        44.741                                  
  22168725.227 7 116497443.594 7      -704.438 7        46.377    22168738.766 7
  90777287.765 7      -548.895 7        44.741                                  
 22  6 17  4 16  0.0000000  0  9G02G03G06G11G12G14G17G19G24          0.000000000
  22563878.832 7 118574012.945 7      2753.531 7        46.273    22563889.133 7
  92395383.573 7      2145.600 7        44.342                                  
  24010080.266 6 126173840.445 6      -854.184 6        39.241    24010096.008 7
  98317348.226 7      -666.139 7        44.741                                  
  20271263.063 8 106526229.071 8       916.227 8        51.438    20271276.527 7
  83007488.234 7       713.959 7        44.741                                  
  22450589.379 7 117978675.811 7      3241.070 7        42.006    22450602.785 6
  91931503.630 6      2525.443 6        40.547                                  
  22645868.500 7 119004864.554 7      3077.926 7        45.072    22645879.418 7
  92731115.900 7      2398.725 7        44.741                                  
  23376062.285 7 122841991.278 7     -3167.641 7        43.701    23376075.406 6
  95721067.803 6     -2468.326 6        38.700                                  
  21836590.672 7 114752047.355 7     -1926.254 7        47.715    21836600.402 7
  89417221.524 7     -1500.787 7        44.741                                  
  20328051.668 8 106824632.534 8      -938.734 8        49.607    20328058.707 7
  83240008.149 7      -731.490 7        44.741                                  
  22172800.883 7 116518859.177 7      -723.539 7        46.335    22172814.016 7
  90793975.198 7      -563.795 7        44.741                                  
 22  6 17  4 16 30.0000000  0  9G02G03G06G11G12G14G17G19G24          0.000000000
  22548190.867 7 118491573.600 7      2742.189 7        46.178    22548200.629 7
  92331145.193 7      2136.650 7        43.612                                  
  24015012.711 6 126199767.199 6      -874.920 6        37.179    24015028.980 7
  98337550.799 7      -681.025 7        43.102                                  
  20266086.059 8 106499020.619 8       897.189 8        51.829    20266098.652 7
  82986285.869 7       699.072 7        44.741                                  
  22432114.988 7 117881588.594 7      3230.568 7        44.134    22432128.738 7
  91855851.309 7      2517.646 7        42.419                                  
  22628313.758 7 118912611.034 7      3071.857 7        46.252    22628323.746 7
  92659230.098 7      2393.291 7        44.741                                  
  23394165.477 7 122937123.423 7     -3175.467 7        43.448    23394179.301 6
  95795196.607 6     -2474.307 6        38.359                                  
  21847597.363 7 114809891.223 7     -1930.428 7        47.213    21847607.668 7
  89462294.647 7     -1504.482 7        44.741                                  
  20333440.715 8 106852954.778 8      -949.705 8        50.024    20333448.258 7
  83262077.428 7      -740.107 7        44.741                                  
  22176983.664 7 116540839.284 7      -742.127 7        47.014    22176998.059 7
  90811102.565 7      -578.604 7        44.741                                  
 22  6 17  4 17  0.0000000  0  9G02G03G06G11G12G14G17G19G24          0.000000000
  22532565.926 7 118409461.558 7      2731.541 7        45.935    22532575.383 7
  92267161.855 7      2128.455 7        43.521                                  
  24020056.824 6 126226271.114 6      -892.463 6        38.554    24020072.406 7
  98358203.217 7      -695.822 7        43.973                                  
  20261014.719 8 106472374.276 8       878.768 8        51.322    20261028.285 7
  82965523.493 7       684.959 7        44.741                                  
  22413694.887 7 117784790.604 7      3221.873 7        43.527    22413707.465 6
  91780424.366 6      2510.389 6        41.993                                  
  22610792.707 7 118820538.266 7      3066.053 7        45.820    22610802.648 7
  92587485.154 7      2388.826 7        44.741                                  
  23412309.371 7 123032469.219 7     -3181.623 7        43.795    23412321.148 6
  95869491.882 6     -2479.182 6        38.657                                  
  21858629.160 7 114867862.106 7     -1934.533 7        47.546    21858639.434 7
  89507466.735 7     -1507.229 7        44.741                                  
  20338890.352 8 106881589.999 8      -959.709 8        50.340    20338897.891 7
  83284390.577 7      -747.736 7        44.741                                  
  22181272.969 7 116563381.807 7      -760.646 7        46.606    22181286.934 7
  90828668.130 7      -592.580 7        44.741                                  
 22  6 17  4 17 30.0000000  0  9G02G03G06G11G12G14G17G19G24          0.000000000
  22517002.324 7 118327678.083 7      2720.744 7        44.917    22517010.898 6
  92203434.574 6      2120.031 6        41.505                                  
  24025211.074 6 126253352.197 6      -913.260 6        39.294    24025226.371 7
  98379305.271 7      -710.457 7        43.660                                  
  20256051.367 8 106446290.602 8       860.080 8        51.276    20256064.734 7
  82945199.573 7       670.227 7        44.741                                  
  22395329.691 7 117688284.364 7      3211.682 7        42.632    22395343.598 7
  91705224.786 7      2502.805 7        42.296                                  
  22593306.809 7 118728648.394 7      3059.865 7        45.901    22593316.738 7
  92515882.674 7      2384.680 7        44.741                                  
  23430493.859 7 123128027.883 7     -3188.475 7        43.739    23430505.176 6
  95943953.063 6     -2484.422 6        37.137                                  
  21869684.949 7 114925960.282 7     -1938.826 7        46.842    21869695.195 7
  89552738.003 7     -1510.652 7        44.741                                  
  20344398.609 8 106910537.940 8      -969.803 8        49.684    20344406.496 7
  83306947.409 7      -755.613 7        44.741                                  
  22185669.688 7 116586485.832 7      -779.275 7        46.987    22185683.281 7
  90846671.251 7      -606.941 7        44.741                                  
 22  6 17  4 18  0.0000000  0  9G02G03G06G11G12G14G17G19G24          0.000000000
  22501503.313 7 118246224.354 7      2709.336 7        46.025    22501512.441 7
  92139964.174 7      2111.193 7        44.167                                  
  24030473.410 6 126281009.268 6      -932.383 6        40.231    24030488.219 7
  98400856.242 7      -726.053 7        44.287                                  
  20251194.672 8 106420769.471 8       841.211 8        51.656    20251207.910 7
  82925311.991 7       655.295 7        44.741                                  
  22377021.926 7 117592071.590 7      3201.445 7        43.905    22377034.746 7
  91630253.846 7      2495.178 7        42.303                                  
  22575856.020 7 118636943.753 7      3053.867 7        45.182    22575866.324 7
  92444424.588 7      2379.572 7        44.741                                  
  23448718.176 7 123223797.867 7     -3196.230 7        43.923    23448730.754 6
  96018578.908 6     -2490.564 6        37.340                                  
  21880765.117 7 114984184.873 7     -1942.793 7        47.475    21880775.305 7
  89598107.775 7     -1513.943 7        44.741                                  
  20349966.160 8 106939797.371 8      -980.508 8        49.802    20349974.305 7
  83329746.955 7      -764.041 7        44.741                                  
  22190172.063 7 116610149.807 7      -797.871 7        45.506    22190185.672 7
  90865110.709 7      -622.244 7        44.741                                  
 22  6 17  4 18 30.0000000  0  9G02G03G06G11G12G14G17G19G24          0.000000000
  22486064.863 7 118165102.682 7      2698.736 7        44.621    22486074.250 7
  92076752.623 7      2102.887 7        42.152                                  
  24035846.535 6 126309242.477 6      -950.971 6        40.189    24035860.602 7
  98422856.093 7      -740.551 7        42.854                                  
  20246445.480 8 106395811.827 8       822.486 8        51.272    20246458.672 7
  82905863.478 7       640.758 7        44.741                                  
  22358768.719 7 117496155.093 7      3192.643 7        42.680    22358782.523 6
  91555513.794 6      2487.379 6        41.789                                  
  22558440.617 7 118545427.016 7      3047.545 7        45.262    22558450.563 7
  92373112.896 7      2374.625 7        44.741                                  
  23466982.598 7 123319778.790 7     -3203.256 7        42.407    23466995.176 6
  96093369.083 6     -2496.078 6        36.253                                  
  21891868.648 7 115042535.979 7     -1947.455 7        47.014    21891878.922 7
  89643576.120 7     -1517.270 7        44.741                                  
  20355593.852 8 106969368.489 8      -990.736 8        49.862    20355601.336 7
  83352789.385 7      -772.055 7        44.741                                  
  22194782.082 7 116634373.137 7      -816.830 7        45.714    22194795.332 7
  90883986.043 7      -636.430 7        44.741                                  
 22  6 17  4 19  0.0000000  0  9G02G03G06G11G12G14G17G19G24          0.000000000
  22470692.055 7 118084314.567 7      2686.734 7        46.346    22470700.887 7
  92013800.881 7      2093.537 7        43.029                                  
  24041328.945 6 126338050.910 6      -969.711 6        40.273    24041342.898 7
  98445304.195 7      -756.365 7        42.494                                  
  20241803.563 8 106371417.504 8       803.492 8        51.956    20241816.672 7
  82886855.921 7       626.154 7        44.741                                  
  22340573.563 7 117400536.712 7      3182.379 7        44.384    22340587.656 7
  91481006.071 7      2479.475 7        42.815                                  
  22541061.516 7 118454100.053 7      3041.012 7        44.786    22541071.961 7
  92301949.075 7      2369.338 7        44.741                                  
  23485287.047 7 123415969.015 7     -3209.789 7        42.775    23485300.012 5
  96168322.346 5     -2501.189 5        35.803                                  
  21902996.176 7 115101012.732 7     -1952.172 7        47.321    21903006.277 7
  89689142.403 7     -1520.701 7        44.741                                  
  20361280.023 8 106999249.962 8     -1001.352 8        50.244    20361287.609 7
  83376073.637 7      -780.252 7        44.741                                  
  22199497.809 7 116659154.381 7      -835.766 7        45.431    22199511.602 7
  90903296.064 7      -651.326 7        44.741                                  
 22  6 17  4 19 30.0000000  0  9G02G03G06G11G12G14G17G19G24          0.000000000
  22455381.871 7 118003861.143 7      2675.766 7        45.494    22455392.430 7
  91951109.998 7      2084.996 7        43.607                                  
  24046920.055 6 126367433.766 6      -989.352 6        40.595    24046934.492 7
  98468199.868 7      -770.746 7        43.315                                  
  20237268.629 8 106347586.563 8       784.828 8        51.580    20237281.980 7
  82868287.364 7       611.695 7        44.741                                  
  22322435.594 7 117305218.479 7      3172.211 7        44.065    22322447.484 7
  91406732.126 7      2471.930 7        42.366                                  
  22523718.281 7 118362964.975 7      3034.730 7        43.701    22523730.656 7
  92230934.767 7      2364.918 7        44.741                                  
  23503631.508 7 123512367.338 7     -3216.461 7        42.868    23503644.516 6
  96243437.743 6     -2506.313 6        36.767                                  
  21914147.551 7 115159614.349 7     -1955.504 7        47.346    21914157.895 7
  89734805.977 7     -1523.793 7        44.741                                  
  20367024.813 8 107029441.076 8     -1011.871 8        49.912    20367033.227 7
  83399599.177 7      -788.480 7        44.741                                  
  22204319.797 7 116684492.002 7      -853.980 7        46.014    22204332.418 7
  90923039.646 7      -665.453 7        44.741                                  
 22  6 17  4 20  0.0000000  0  9G02G03G06G11G12G14G17G19G24          0.000000000
  22440136.867 7 117923743.560 7      2664.922 7        46.721    22440144.625 7
  91888680.788 7      2076.566 7        43.197                                  
  24052620.418 6 126397390.181 6     -1008.184 6        40.059    24052635.973 7
  98491542.524 7      -785.621 7        43.229                                  
  20232840.660 8 106324319.085 8       766.445 8        51.495    20232854.281 7
  82850155.871 7       597.309 7        44.741                                  
  22304354.512 7 117210202.259 7      3162.715 7        43.905    22304367.703 7
  91332693.595 7      2464.262 7        43.260                                  
  22506413.328 7 118272023.771 7      3028.535 7        44.757    22506425.359 7
  92160071.563 7      2359.770 7        44.741                                  
  23522014.109 7 123608972.423 7     -3223.516 7        42.433    23522028.262 6
  96318714.275 6     -2511.693 6        36.563                                  
  21925323.043 7 115218340.278 7     -1959.277 7        47.136    21925333.242 7
  89780566.411 7     -1526.813 7        44.741                                  
  20372828.918 8 107059941.016 8     -1021.836 8        49.894    20372837.004 7
  83423365.337 7      -796.227 7        44.741                                  
  22209247.465 7 116710384.669 7      -872.324 7        46.528    22209259.699 7
  90943215.730 7      -679.723 7        44.741                                  
 22  6 17  4 20 30.0000000  0  9G02G03G06G11G12G14G17G19G24          0.000000000
  22424954.320 7 117843963.605 7      2653.395 7        46.210    22424962.805 7
  91826514.658 7      2067.625 7        42.852                                  
  24058430.887 6 126427919.735 6     -1028.520 6        41.502    24058444.578 7
  98515331.688 7      -800.207 7        42.978                                  
  20228520.359 8 106301615.366 8       747.086 8        51.907                  
         0.000 0         0.000 0         0.000                                  
  22286331.871 7 117115490.453 7      3151.344 7        45.832    22286343.348 7
  91258892.270 7      2456.023 7        43.608                                  
  22489145.211 7 118181278.978 7      3021.559 7        44.697    22489156.316 7
  92089361.399 7      2354.207 7        44.741                                  
  23540437.555 7 123705783.244 7     -3230.160 7        43.407    23540450.391 6
  96394151.122 6     -2517.023 6        37.032                                  
  21936521.348 7 115277190.282 7     -1964.223 7        46.787    21936531.906 7
  89826423.514 7     -1530.539 7        44.741                                  
  20378691.898 8 107090749.154 8     -1032.309 8        50.077    20378699.539 7
  83447371.678 7      -804.406 7        44.741                                  
  22214279.223 7 116736831.208 7      -891.137 7        45.666    22214292.445 7
  90963823.425 7      -694.309 7        44.741                                  
 22  6 17  4 21  0.0000000  0  9G02G03G06G11G12G14G17G19G24          0.000000000
  22409837.590 7 117764522.040 7      2642.844 7        45.617    22409847.336 7
  91764612.216 7      2059.363 7        44.730                                  
  24064349.387 6 126459020.913 6     -1045.789 6        41.037    24064363.406 7
  98539566.389 7      -815.010 7        43.514                                  
  20224307.379 8 106279474.918 8       728.977 8        51.381    20224320.332 7
  82815211.382 7       567.957 7        44.741                                  
  22268366.469 7 117021084.448 7      3142.277 7        44.082    22268379.422 7
  91185329.214 7      2448.426 7        44.103                                  
  22471915.016 7 118090732.114 7      3015.715 7        45.327    22471926.176 7
  92018805.447 7      2349.461 7        44.741                                  
  23558898.777 7 123802798.018 7     -3237.313 7        42.090    23558911.871 6
  96469746.863 6     -2522.607 6        36.847                                  
  21947744.121 7 115336163.300 7     -1967.625 7        46.635    21947754.410 7
  89872376.456 7     -1533.018 7        44.741                                  
  20384612.688 8 107121864.042 8     -1041.902 8        49.783    20384620.371 7
  83471617.045 7      -811.826 7        44.741                                  
  22219416.297 7 116763829.720 7      -908.309 7        44.496    22219429.762 7
  90984861.206 7      -707.959 7        44.741                                  
 22  6 17  4 21 30.0000000  0  9G02G03G06G11G12G14G17G19G24          0.000000000
  22394784.137 7 117685420.391 7      2630.525 7        45.544    22394792.980 7
  91702974.655 7      2049.721 7        43.344                                  
  24070375.520 6 126490693.328 6     -1065.803 6        40.822    24070390.559 7
  98564246.146 7      -830.516 7        43.294                                  
  20220201.605 8 106257898.077 8       709.295 8        51.492    20220214.254 7
  82798396.266 7       552.865 7        44.741                                  
  22250460.625 7 116926986.631 7      3131.092 7        46.315    22250472.543 7
  91112006.315 7      2439.643 7        44.623                                  
  22454722.770 7 118000385.668 7      3007.557 7        45.797    22454734.129 7
  91948405.667 7      2343.314 7        44.741                                  
  23577398.809 7 123900015.777 7     -3244.457 7        42.433    23577412.156 6
  96545500.771 6     -2528.152 6        36.924                                  
  21958989.535 7 115395258.758 7     -1972.660 7        47.378    21958999.992 7
  89918424.834 7     -1537.098 7        44.741                                  
  20390591.602 8 107153285.246 8     -1052.893 8        50.120    20390599.930 7
  83496101.100 7      -820.359 7        44.741                                  
  22224658.859 7 116791379.099 7      -928.205 7        44.727    22224672.555 7
  91006328.238 7      -723.367 7        44.741                                  
 22  6 17  4 22  0.0000000  0  9G02G03G06G11G12G14G17G19G24          0.000000000
  22379796.930 7 117606659.847 7      2619.516 7        46.080    22379806.430 7
  91641602.867 7      2041.160 7        43.924                                  
  24076511.684 6 126522935.992 6     -1084.430 6        41.002    24076525.691 7
  98589370.235 7      -845.266 7        43.577                                  
  20216202.852 8 106236884.710 8       690.551 8        51.065    20216215.688 7
  82782023.217 7       538.152 7        44.741                                  
  22232612.578 7 116833198.862 7      3120.902 7        44.202    22232625.484 7
  91038924.988 7      2431.746 7        44.100                                  
  22437569.004 7 117910241.717 7      3001.137 7        45.222    22437579.320 7
  91878163.655 7      2338.875 7        44.741                                  
  23595936.891 6 123997435.110 6     -3251.227 6        41.406    23595950.414 6
  96621411.779 6     -2533.469 6        37.007                                  
  21970257.973 7 115454476.370 7     -1976.051 7        46.325    21970268.637 7
  89964568.378 7     -1539.719 7        44.741                                  
  20396629.605 8 107185011.788 8     -1063.043 8        49.665    20396637.547 7
  83520823.065 7      -828.352 7        44.741                                  
  22230005.730 7 116819477.703 7      -946.070 7        44.202    22230020.168 7
  91028223.236 7      -737.238 7        44.741                                  
 22  6 17  4 22 30.0000000  0  9G02G03G06G11G12G14G17G19G24          0.000000000
  22364874.020 7 117528242.278 7      2607.602 7        45.443    22364883.820 7
  91580498.320 7      2031.912 7        43.832                                  
  24082756.074 6 126555748.18916     -1103.531 6        41.656    24082769.383 7
  98614938.16017      -859.807 7        44.018                                  
  20212311.043 8 106216435.028 8       671.605 8        51.062                  
         0.000 0         0.000 0         0.000                                  
  22214825.398 7 116739723.35417      3110.375 7        45.969    22214837.859 7
  90966087.01717      2423.494 7        44.741                                  
  22420454.070 7 117820302.706 7      2994.223 7        45.738    22420464.273 7
  91808081.363 7      2333.182 7        44.741                                  
  23614513.516 6 124095054.90716     -3257.594 6        40.710    23614527.898 5
  96697478.96415     -2538.342 5        35.547                                  
  21981549.504 7 115513815.61517     -1980.387 7        46.220    21981560.410 7
  90010806.69317     -1543.049 7        44.741                                  
  20402724.465 8 107217043.242 8     -1073.160 8        49.616    20402733.180 7
  83545782.626 7      -836.291 7        44.741                                  
  22235457.535 7 116848124.354 7      -964.391 7        44.512    22235471.559 7
  91050545.275 7      -751.740 7        44.741                                  
 22  6 17  4 23  0.0000000  0  9G02G03G06G11G12G14G17G19G24          0.000000000
  22350018.305 7 117450168.481 7      2596.615 7        47.722    22350027.090 7
  91519661.684 7      2023.334 7        44.741                                  
  24089108.445 7 126589128.783 7     -1122.057 7        42.062    24089122.324 7
  98640948.972 7      -874.615 7        44.741                                  
  20208527.211 8 106196548.694 8       653.432 8        51.521    20208540.004 7
  82750593.580 7       509.193 7        44.741                                  
  22197096.969 7 116646561.841 7      3099.818 7        46.124    22197109.391 7
  90893493.699 7      2415.639 7        44.741                                  
  22403378.715 7 117730570.512 7      2987.631 7        45.773    22403388.660 7
  91738160.213 7      2328.041 7        44.741                                  
  23633127.434 6 124192873.687 6     -3264.205 6        40.672    23633142.730 5
  96773701.205 5     -2543.561 5        35.494                                  
  21992864.875 7 115573275.375 7     -1983.619 7        46.199    21992875.406 7
  90057138.936 7     -1546.119 7        44.741                                  
  20408878.223 8 107249378.551 8     -1082.916 8        50.112    20408886.508 7
  83570978.963 7      -843.912 7        44.741                                  
  22241012.168 7 116877317.217 7      -982.037 7        44.117    22241026.391 7
  91073292.926 7      -765.260 7        44.741                                  
 22  6 17  4 23 30.0000000  0  9G02G03G06G11G12G14G17G19G24          0.000000000
  22335226.449 7 117372439.919 7      2585.668 7        46.557    22335236.094 7
  91459094.009 7      2014.781 7        44.741                                  
  24095567.602 6 126623077.027 6     -1141.285 6        41.470    24095582.266 7
  98667402.093 7      -888.832 7        44.615                                  
  20204850.020 8 106177225.817 8       634.945 8        51.502    20204863.000 7
  82735535.802 7       494.762 7        44.741                                  
  22179428.395 7 116553716.453 7      3089.750 7        45.262    22179441.719 7
  90821146.720 7      2407.730 7        44.741                                  
  22386342.461 7 117641047.198 7      2980.980 7        44.757    22386352.738 7
  91668401.840 7      2322.633 7        44.741                                  
  23651779.594 6 124290890.327 6     -3270.309 6        41.002    23651794.750 5
  96850077.622 5     -2548.324 5        35.820                                  
  22004202.605 7 115632855.601 7     -1987.535 7        46.210    22004213.180 7
  90103565.021 7     -1548.773 7        44.741                                  
  20415089.113 8 107282017.117 8     -1092.613 8        49.966    20415097.113 7
  83596411.595 7      -851.293 7        44.741                                  
  22246670.867 7 116907054.991 7      -999.742 7        42.775    22246686.293 7
  91096465.183 7      -779.359 7        44.741                                  
 22  6 17  4 24  0.0000000  0  9G02G03G06G11G12G14G17G19G24          0.000000000
  22320501.816 8 117295057.832 8      2573.943 8        48.027    22320509.801 7
  91398796.366 7      2005.605 7        44.741                                  
  24102135.617 6 126657591.885 6     -1159.768 6        40.634    24102151.426 7
  98694296.756 7      -904.160 7        44.741                                  
  20201280.262 8 106158466.277 8       615.975 8        51.987    20201293.125 7
  82720917.979 7       479.883 7        44.741                                  
  22161822.320 7 116461189.134 7      3078.982 7        47.179    22161834.266 7
  90749047.594 7      2399.258 7        44.741                                  
  22369346.961 7 117551735.293 7      2974.256 7        45.353    22369356.762 7
  91598808.194 7      2317.324 7        44.741                                  
  23670469.500 6 124389103.458 6     -3277.287 6        41.564    23670484.152 6
  96926607.131 6     -2553.730 6        36.407                                  
  22015563.344 7 115692555.545 7     -1991.975 7        46.721    22015573.805 7
  90150084.420 7     -1552.227 7        44.741                                  
  20421357.066 8 107314958.042 8     -1102.912 8        49.463    20421365.266 7
  83622079.834 7      -859.473 7        44.741                                  
  22252433.418 7 116937336.058 7     -1018.420 7        43.448    22252448.000 7
  91120060.804 7      -793.633 7        44.741                                  
 22  6 17  4 24 30.0000000  0  9G02G03G06G11G12G14G17G19G24          0.000000000
  22305841.641 7 117218023.557 7      2562.258 7        46.606    22305851.039 7
  91338769.717 7      1996.506 7        44.741                                  
  24108811.305 6 126692672.259 6     -1178.387 6        41.242    24108827.703 7
  98721632.087 7      -918.455 7        44.741                                  
  20197817.457 8 106140269.839 8       597.238 8        51.262    20197830.477 7
  82706738.942 7       465.295 7        44.741                                  
  22144275.121 7 116368981.756 7      3068.273 7        46.397    22144287.711 7
  90677197.770 7      2390.900 7        44.741                                  
  22352391.301 7 117462636.482 7      2966.828 7        44.932    22352402.691 7
  91529380.610 7      2311.447 7        44.741                                  
  23689197.105 6 124487511.677 6     -3283.484 6        41.687    23689210.398 5
  97003288.646 5     -2558.533 5        35.795                                  
  22026946.324 7 115752374.637 7     -1995.379 7        46.134    22026957.543 7
  90196696.668 7     -1555.369 7        44.741                                  
  20427683.180 8 107348200.491 8     -1113.016 8        48.848    20427691.094 7
  83647983.020 7      -867.361 7        44.741                                  
  22258299.063 7 116968158.780 7     -1036.336 7        44.219    22258312.887 7
  91144078.494 7      -807.557 7        44.741                                  
 22  6 17  4 25  0.0000000  0  9G02G03G06G11G12G14G17G19G24          0.000000000
  22291249.402 7 117141338.185 7      2550.385 7        47.403    22291259.273 7
  91279014.960 7      1987.320 7        44.741                                  
  24115594.422 7 126728317.186 7     -1197.584 7        42.090    24115610.375 7
  98749407.322 7      -933.109 7        44.741                                  
  20194461.938 8 106122636.345 8       578.334 8        51.893    20194475.063 7
  82692999.568 7       450.621 7        44.741                                  
  22126790.563 7 116277096.192 7      3057.455 7        47.752    22126802.484 7
  90605598.689 7      2382.633 7        44.741                                  
  22335477.684 7 117373753.495 7      2959.174 7        45.086    22335489.188 7
  91460121.164 7      2306.070 7        44.741                                  
  23707959.305 6 124586113.595 6     -3289.811 6        41.037    23707974.762 5
  97080121.156 5     -2563.441 5        35.053                                  
  22038352.316 7 115812312.139 7     -1999.771 7        46.587    22038363.074 7
  90243401.157 7     -1558.344 7        44.741                                  
  20434066.070 8 107381743.329 8     -1123.111 8        49.513    20434074.430 7
  83674120.283 7      -875.199 7        44.741                                  
  22264267.844 7 116999521.550 7     -1054.068 7        44.946    22264281.695 7
  91168517.001 7      -821.605 7        44.741                                  
 22  6 17  4 25 30.0000000  0  9G02G03G06G11G12G14G17G19G24          0.000000000
  22276723.332 7 117065003.133 7      2537.596 7        47.196    22276732.477 7
  91219533.158 7      1977.313 7        44.741                                  
  24122485.063 6 126764525.796 6     -1217.326 6        41.893    24122500.273 7
  98777621.803 7      -948.723 7        44.741                                  
  20191213.230 8 106105565.872 8       558.729 8        51.561    20191226.684 7
  82679697.920 7       435.438 7        44.741                                  
  22109367.027 7 116185534.598 7      3045.564 7        47.362    22109378.473 7
  90534252.076 7      2373.289 7        44.741                                  
  22318605.621 7 117285088.503 7      2951.131 7        45.630    22318617.383 7
  91391031.639 7      2299.227 7        44.741                                  
  23726759.203 6 124684908.186 6     -3297.482 6        40.059    23726774.172 5
  97157103.737 5     -2569.504 5        35.150                                  
  22049780.402 7 115872368.060 7     -2004.924 7        46.702    22049791.191 7
  90290197.926 7     -1562.375 7        44.741                                  
  20440505.547 8 107415586.037 8     -1134.377 8        48.934    20440514.645 7
  83700491.204 7      -883.996 7        44.741                                  
  22270338.285 7 117031422.941 7     -1073.068 7        45.248    22270352.234 7
  91193375.194 7      -836.086 7        44.741                                  
 22  6 17  4 26  0.0000000  0  9G02G03G06G11G12G14G17G19G24          0.000000000
  22262263.688 7 116989019.184 7      2527.227 7        46.557    22262274.105 7
  91160324.974 7      1969.266 7        44.741                                  
  24129482.055 7 126801296.722 7     -1235.020 7        42.090    24129497.422 7
  98806274.427 7      -962.354 7        44.741                                  
  20188072.016 8 106089057.888 8       541.348 8        51.212                  
         0.000 0         0.000 0         0.000                                  
  22092005.195 7 116094298.627 7      3036.074 7        47.427    22092016.453 7
  90463159.167 7      2365.613 7        44.741                                  
  22301774.805 7 117196643.374 7      2944.766 7        45.494    22301785.992 7
  91322113.379 7      2294.949 7        44.741                                  
  23745595.621 6 124783893.698 6     -3302.246 6        40.146    23745611.000 6
  97234235.093 6     -2573.174 6        36.820                                  
  22061231.559 7 115932541.413 7     -2007.500 7        46.693    22061241.332 7
  90337086.191 7     -1564.111 7        44.741                                  
  20447002.859 8 107449727.745 8     -1142.734 8        49.041    20447011.086 7
  83727095.122 7      -890.498 7        44.741                                  
  22276510.922 7 117063861.008 7     -1090.078 7        44.667    22276525.531 7
  91218651.565 7      -849.150 7        44.741                                  
 22  6 17  4 26 30.0000000  0  9G02G03G06G11G12G14G17G19G24          0.000000000
  22247870.926 7 116913388.070 7      2514.357 7        46.438    22247880.055 7
  91101391.717 7      1959.270 7        44.741                                  
  24136586.563 6 126838629.270 6     -1253.748 6        41.687    24136601.031 7
  98835364.645 7      -976.824 7        44.741                                  
  20185037.602 8 106073112.607 8       521.936 8        51.614    20185051.039 7
  82654410.682 7       406.789 7        44.741                                  
  22074705.230 7 116003390.548 7      3024.279 7        46.987    22074717.965 7
  90392321.784 7      2356.848 7        44.741                                  
  22284986.250 7 117108420.730 7      2936.350 7        45.761    22284997.082 7
  91253368.520 7      2288.195 7        44.741                                  
  23764468.578 6 124883069.233 6     -3309.236 6        41.037    23764482.887 6
  97311514.550 6     -2578.660 6        36.734                                  
  22072704.520 7 115992831.854 7     -2011.854 7        46.606    22072714.379 7
  90384065.716 7     -1567.781 7        44.741                                  
  20453556.605 8 107484168.151 8     -1153.318 8        49.257    20453565.020 7
  83753931.786 7      -898.523 7        44.741                                  
  22282784.781 7 117096834.477 7     -1108.064 7        43.795    22282800.395 7
  91244345.161 7      -863.621 7        44.741                                  
 22  6 17  4 27  0.0000000  0  9G02G03G06G11G12G14G17G19G24          0.000000000
  22233546.570 7 116838110.943 7      2503.160 7        46.577    22233556.473 7
  91042734.284 7      1950.504 7        44.741                                  
  24143797.543 7 126876522.317 7     -1272.777 7        42.845    24143812.367 7
  98864891.670 7      -991.957 7        44.741                                  
  20182110.234 8 106057729.703 8       502.984 8        51.480    20182123.969 7
  82642423.028 7       391.969 7        44.741                                  
  22057468.813 7 115912812.189 7      3013.453 7        47.789    22057481.063 7
  90321741.335 7      2348.004 7        44.741                                  
  22268241.496 7 117020422.549 7      2929.176 7        46.996    22268251.414 7
  91184798.542 7      2282.457 7        44.741                                  
  23783376.750 6 124982433.380 6     -3315.258 6        41.950    23783392.332 6
  97388940.972 6     -2583.322 6        36.833                                  
  22084199.387 7 116053239.033 7     -2015.961 7        47.362    22084209.289 7
  90431136.189 7     -1570.688 7        44.741                                  
  20460167.457 8 107518906.307 8     -1163.207 8        49.621    20460175.543 7
  83781000.476 7      -906.410 7        44.741                                  
  22289161.250 7 117130341.658 7     -1125.727 7        43.586    22289176.617 7
  91270454.596 7      -877.367 7        44.741                                  
 22  6 17  4 27 30.0000000  0  9G02G03G06G11G12G14G17G19G24          0.000000000
  22219289.266 7 116763188.468 7      2491.191 7        47.338    22219298.840 7
  90984353.198 7      1941.172 7        44.741                                  
  24151115.066 7 126914974.400 7     -1291.816 7        42.913    24151130.277 7
  98894854.271 7     -1006.504 7        44.741                                  
  20179289.695 8 106042908.651 8       484.141 8        50.981    20179303.477 7
  82630874.165 7       377.539 7        44.741                                  
  22040295.152 7 115822565.237 7      3002.227 7        46.616    22040306.758 7
  90251419.102 7      2339.609 7        44.741                                  
  22251538.754 7 116932650.943 7      2921.641 7        46.263    22251549.082 7
  91116405.135 7      2276.621 7        44.741                                  
  23802320.637 6 125081984.553 6     -3321.641 6        41.002    23802336.379 6
  97466513.125 6     -2588.242 6        36.069                                  
  22095716.227 7 116113762.058 7     -2019.551 7        46.220    22095726.516 7
  90478296.946 7     -1573.867 7        44.741                                  
  20466834.199 8 107553940.759 8     -1173.086 8        49.616    20466842.285 7
  83808300.037 7      -914.082 7        44.741                                  
  22295639.395 7 117164380.521 7     -1143.711 7        44.682    22295653.246 7
  91296978.354 7      -891.191 7        44.741                                  
 22  6 17  4 28  0.0000000  0  9G02G03G06G11G12G14G17G19G24          0.000000000
  22205099.293 7 116688622.166 7      2478.977 7        46.879    22205109.723 7
  90926249.653 7      1931.730 7        44.741                                  
  24158537.551 7 126953984.492 7     -1309.695 7        42.278    24158552.734 7
  98925251.713 7     -1020.850 7        44.741                                  
  20176576.691 8 106028649.293 8       465.852 8        52.073    20176590.102 7
  82619763.005 7       363.059 7        42.499                                  
  22023184.957 7 115732651.667 7      2991.340 7        47.067    22023197.793 7
  90181356.658 7      2330.832 7        44.741                                  
  22234880.156 7 116845108.161 7      2913.801 7        46.325    22234890.613 7
  91048190.018 7      2270.500 7        44.741                                  
  23821300.086 6 125181721.433 6     -3326.865 6        40.315    23821314.922 5
  97544230.004 5     -2592.334 5        35.236                                  
  22107255.754 7 116174400.428 7     -2023.406 7        47.005    22107265.742 7
  90525547.582 7     -1576.670 7        44.741                                  
  20473557.250 8 107589271.009 8     -1182.508 8        49.717    20473565.680 7
  83835830.084 7      -921.396 7        44.741                                  
  22302217.641 7 117198949.487 7     -1161.531 7        45.301    22302231.289 7
  91323915.208 7      -904.893 7        44.741                                  
 22  6 17  4 28 30.0000000  0  9G02G03G06G11G12G14G17G19G24          0.000000000
  22190977.902 7 116614413.036 7      2468.523 7        46.712    22190987.875 7
  90868424.406 7      1923.494 7        44.741                                  
  24166067.398 7 126993551.371 7     -1327.551 7        42.704    24166081.508 7
  98956083.007 7     -1034.475 7        44.335                                  
  20173970.051 8 106014951.311 8       447.664 8        51.956    20173983.504 7
  82609090.253 7       348.963 7        44.741                                  
  22006139.055 7 115643073.312 7      2980.516 7        47.569    22006150.816 7
  90111555.418 7      2322.811 7        44.730                                  
  22218264.672 7 116757796.211 7      2907.117 7        46.861    22218275.617 7
  90980154.794 7      2265.408 7        44.741                                  
  23840314.063 6 125281642.651 6     -3332.609 6        40.231    23840329.730 5
  97622090.515 5     -2596.875 5        34.714                                  
  22118816.500 7 116235153.765 7     -2026.281 7        47.049    22118826.777 7
  90572887.813 7     -1579.180 7        44.741                                  
  20480337.012 8 107624896.330 8     -1191.848 8        50.257    20480344.883 7
  83863590.063 7      -928.811 7        44.741                                  
  22308896.234 7 117234046.750 7     -1178.020 7        45.405    22308909.727 7
  91351263.710 7      -918.146 7        44.741                                  
 22  6 17  4 29  0.0000000  0  9G02G03G06G11G12G14G17G19G24          0.000000000
  22176924.379 7 116540562.678 7      2455.445 7        46.805    22176934.793 7
  90810878.765 7      1913.354 7        44.741                                  
  24173703.035 7 127033674.191 7     -1347.016 7        43.092    24173717.070 7
  98987347.475 7     -1048.971 7        44.511                                  
  20171470.199 8 106001814.663 8       428.551 8        52.020    20171483.480 7
  82598851.915 7       334.018 7        44.741                                  
  21989157.012 7 115553832.345 7      2969.234 7        47.280    21989168.832 7
  90042017.051 7      2313.803 7        44.741                                  
  22201694.875 7 116670717.977 7      2898.590 7        47.403    22201704.906 7
  90912301.659 7      2258.607 7        44.741                                  
  23859364.566 6 125381747.116 6     -3339.457 6        41.406    23859377.660 5
  97700093.832 5     -2602.174 5        33.817                                  
  22130399.469 7 116296021.726 7     -2031.215 7        46.933    22130409.801 7
  90620317.320 7     -1582.486 7        44.741                                  
  20487171.762 8 107660816.092 8     -1202.074 8        49.684    20487179.973 7
  83891579.480 7      -936.705 7        44.741                                  
  22315675.176 7 117269670.898 7     -1197.094 7        45.481    22315689.699 7
  91379022.762 7      -932.232 7        44.741                                  
 22  6 17  4 29 30.0000000  0  9G02G03G06G11G12G14G17G19G24          0.000000000
  22162939.836 7 116467071.882 7      2444.252 7        46.852    22162949.652 7
  90753613.279 7      1904.607 7        44.741                                  
  24181443.141 7 127074351.080 7     -1364.598 7        42.558    24181456.820 7
  99019043.719 7     -1063.305 7        43.585                                  
  20169076.965 8 105989238.438 8       410.404 8        52.166    20169090.172 7
  82589052.271 7       319.762 7        44.741                                  
  21972239.516 7 115464930.070 7      2958.002 7        47.600    21972251.621 7
  89972742.626 7      2304.881 7        44.741                                  
  22185168.883 7 116583874.998 7      2891.459 7        47.049    22185179.184 7
  90844631.862 7      2252.830 7        44.741                                  
  23878447.855 6 125482032.858 6     -3345.535 6        41.002    23878461.379 5
  97778238.444 5     -2606.918 5        33.737                                  
  22142003.773 7 116357003.321 7     -2034.090 7        46.712    22142014.391 7
  90667835.400 7     -1585.180 7        44.741                                  
  20494062.902 8 107697028.906 8     -1211.336 8        49.548    20494071.074 7
  83919797.231 7      -943.793 7        44.741                                  
  22322554.012 7 117305819.525 7     -1213.504 7        44.682    22322568.836 7
  91407190.491 7      -945.336 7        44.741                                  
 22  6 17  4 30  0.0000000  0  9G02G03G06G11G12G14G17G19G24          0.000000000
  22149023.680 7 116393941.778 7      2431.420 7        47.271    22149032.105 7
  90696628.810 7      1894.590 7        44.741                                  
  24189288.973 6 127115581.483 6     -1383.385 6        40.895    24189304.027 7
  99051171.286 7     -1078.281 7        43.664                                  
  20166790.316 8 105977222.916 8       391.264 8        51.947                  
         0.000 0         0.000 0         0.000                                  
  21955386.824 7 115376368.925 7      2946.225 7        46.587    21955400.031 7
  89903734.014 7      2295.840 7        44.741                                  
  22168689.230 7 116497270.303 7      2882.553 7        47.949    22168698.789 7
  90777147.723 7      2246.094 7        44.741                                  
  23897566.328 6 125582499.130 6     -3351.918 6        41.470    23897579.676 5
  97856523.704 5     -2611.855 5        33.518                                  
  22153630.379 7 116418098.844 7     -2038.092 7        46.888    22153640.797 7
  90715442.274 7     -1588.223 7        44.741                                  
  20501009.688 8 107733534.844 8     -1221.705 8        49.636    20501018.016 7
  83948243.398 7      -951.836 7        44.741                                  
  22329532.707 7 117342491.480 7     -1231.002 7        45.630    22329547.074 7
  91435765.997 7      -959.336 7        44.741                                  
 22  6 17  4 30 30.0000000  0  9G02G03G06G11G12G14G17G19G24          0.000000000
  22135175.344 7 116321173.663 7      2419.918 7        45.924    22135185.504 7
  90639926.457 7      1885.627 7        44.741                                  
  24197238.691 6 127157364.042 6     -1401.021 6        37.956    24197254.918 6
  99083729.140 6     -1093.045 6        41.388                                  
  20164610.699 8 105965767.661 8       372.709 8        52.166                  
         0.000 0         0.000 0         0.000                                  
  21938599.527 7 115288150.764 7      2934.762 7        46.759    21938611.504 7
  89834992.652 7      2286.994 7        44.741                                  
  22152254.367 7 116410905.956 7      2874.879 7        47.507    22152264.340 7
  90709850.890 7      2240.080 7        44.741                                  
  23916717.707 6 125683144.508 6     -3357.330 6        40.315    23916733.035 5
  97934948.519 5     -2616.072 5        32.701                                  
  22165277.449 7 116479307.506 7     -2041.842 7        45.738    22165288.180 7
  90763137.301 7     -1591.268 7        44.741                                  
  20508012.422 8 107770332.976 8     -1231.373 8        49.853    20508020.695 7
  83976917.258 7      -959.490 7        44.741                                  
  22336610.137 7 117379684.885 7     -1248.170 7        45.262    22336624.945 7
  91464747.837 7      -972.791 7        44.741                                  
 22  6 17  4 31  0.0000000  0  9G02G03G06G11G12G14G17G19G24          0.000000000
  22121396.855 7 116248768.275 7      2407.658 7        45.593    22121407.730 7
  90583506.737 7      1876.094 7        44.741                                  
  24205294.738 6 127199697.318 6     -1419.705 6        38.616    24205310.637 6
  99116716.033 6     -1105.898 6        41.362                                  
  20162536.984 8 105954872.076 8       354.064 8        52.037    20162550.551 7
  82562273.329 7       275.781 7        44.741                                  
  21921877.207 7 115200277.085 7      2923.947 7        46.759    21921888.996 7
  89766519.742 7      2277.910 7        44.741                                  
  22135865.883 7 116324783.866 7      2866.994 7        47.204    22135875.324 7
  90642742.814 7      2233.906 7        44.741                                  
  23935904.164 6 125783967.424 6     -3363.609 6        39.346    23935920.074 5
  98013511.651 5     -2620.977 5        33.043                                  
  22176946.141 7 116540628.836 7     -2045.721 7        45.443    22176957.848 7
  90810920.103 7     -1594.180 7        44.741                                  
  20515070.406 8 107807422.384 8     -1240.799 8        49.755    20515078.891 7
  84005818.078 7      -966.934 7        44.741                                  
  22343787.316 7 117417397.693 7     -1265.486 7        45.666    22343800.996 7
  91494134.401 7      -986.055 7        44.741                                  
 22  6 17  4 31 30.0000000  0  9G02G03G06G11G12G14G17G19G24          0.000000000
  22107688.445 7 116176727.183 7      2395.053 7        47.229    22107697.262 7
  90527370.887 7      1866.205 7        44.741                                  
  24213455.500 6 127242580.042 6     -1439.186 6        38.795    24213470.695 6
  99150131.107 6     -1120.963 6        40.871                                  
  20160570.270 8 105944535.736 8       335.072 8        52.387    20160583.391 7
  82554218.051 7       261.186 7        44.741                                  
  21905221.105 7 115112749.928 7      2911.635 7        46.356    21905233.137 7
  89698316.813 7      2268.588 7        44.740                                  
  22119523.152 7 116238906.405 7      2858.197 7        47.280    22119533.426 7
  90575825.359 7      2227.182 7        44.741                                  
  23955124.070 6 125884966.507 6     -3369.832 6        40.748    23955139.723 5
  98092212.032 5     -2625.848 5        34.892                                  
  22188636.551 7 116602062.265 7     -2050.104 7        45.785    22188648.227 7
  90858790.255 7     -1597.313 7        44.741                                  
  20522183.020 8 107844801.940 8     -1250.963 8        49.645    20522191.688 7
  84034944.984 7      -974.713 7        44.741                                  
  22351062.336 7 117455628.088 7     -1283.150 7        46.102    22351075.930 7
  91523924.293 7      -999.752 7        44.741                                  
 22  6 17  4 32  0.0000000  0  9G02G03G06G11G12G14G17G19G24          0.000000000
  22094049.230 7 116105051.021 7      2383.354 7        46.833    22094058.676 7
  90471519.361 7      1857.213 7        44.741                                  
  24221719.793 6 127286010.570 6     -1456.508 6        37.346    24221734.602 6
  99183973.046 6     -1135.268 6        38.751                                  
  20158709.668 8 105934757.995 8       316.400 8        52.001    20158722.887 7
  82546601.041 7       246.471 7        44.741                                  
  21888631.477 7 115025570.712 7      2900.014 7        46.210    21888644.195 7
  89630385.030 7      2259.693 7        44.741                                  
  22103227.863 7 116153275.679 7      2850.189 7        46.693    22103238.980 7
  90509100.156 7      2220.924 7        44.741                                  
  23974376.535 6 125986139.981 6     -3375.395 6        40.015    23974393.160 5
  98171048.298 5     -2630.092 5        34.289                                  
  22200348.785 7 116663606.823 7     -2053.266 7        46.091    22200359.016 7
  90906747.028 7     -1599.740 7        44.741                                  
  20529351.512 8 107882470.799 8     -1260.863 8        49.503    20529359.770 7
  84064297.337 7      -982.416 7        44.741                                  
  22358434.879 7 117494373.934 7     -1300.082 7        45.353    22358448.574 7
  91554115.846 7     -1013.197 7        44.741                                  
 22  6 17  4 32 30.0000000  0  9G02G03G06G11G12G14G17G19G24          0.000000000
  22080479.230 7 116033740.816 7      2370.908 7        47.775    22080488.973 7
  90415953.048 7      1847.479 7        44.741                                  
  24230088.789 6 127329987.713 6     -1474.619 6        37.662    24230103.797 6
  99218240.909 6     -1148.791 6        38.194                                  
  20156955.051 8 105925538.474 8       298.291 8        52.526    20156968.660 7
  82539417.014 7       232.596 7        44.741                                  
  21872108.488 7 114938741.427 7      2888.545 7        46.547    21872120.148 7
  89562725.877 7      2250.916 7        44.543                                  
  22086980.754 7 116067893.938 7      2842.061 7        47.119    22086990.969 7
  90442568.983 7      2214.549 7        44.741                                  
  23993663.441 6 126087486.697 6     -3380.947 6        40.785    23993678.383 5
  98250019.533 5     -2634.455 5        33.971                                  
  22212081.301 7 116725262.569 7     -2056.748 7        45.666    22212092.176 7
  90954790.428 7     -1602.521 7        44.741                                  
  20536574.629 8 107920428.412 8     -1269.736 8        49.862    20536582.414 7
  84093874.670 7      -989.396 7        44.741                                  
  22365905.543 7 117533633.418 7     -1316.885 7        44.960    22365920.195 7
  91584707.604 7     -1026.076 7        44.741                                  
 22  6 17  4 33  0.0000000  0  9G02G03G06G11G12G14G17G19G24          0.000000000
  22066979.418 7 115962798.070 7      2358.596 7        47.722    22066987.832 7
  90360673.019 7      1837.877 7        44.741                                  
  24238561.168 6 127374510.429 6     -1493.357 6        37.179    24238575.449 6
  99252933.948 6     -1163.607 6        38.137                                  
  20155306.828 8 105916877.123 8       279.162 8        52.732    20155320.234 7
  82532666.917 7       217.545 7        44.741                                  
  21855651.680 7 114852264.218 7      2876.779 7        45.469    21855664.773 7
  89495341.107 7      2241.490 7        44.374                                  
  22070780.512 7 115982764.151 7      2833.400 7        46.577    22070791.586 7
  90376234.110 7      2207.857 7        44.741                                  
  24012980.906 6 126189005.593 6     -3387.283 6        41.242    24012995.672 5
  98329125.014 5     -2639.525 5        33.724                                  
  22223835.066 7 116787029.219 7     -2060.896 7        46.252    22223846.598 7
  91002920.258 7     -1605.971 7        44.741                                  
  20543852.621 8 107958674.243 8     -1279.764 8        49.939    20543860.121 7
  84123676.606 7      -997.377 7        44.741                                  
  22373474.730 7 117573405.072 7     -1334.275 7        46.210    22373488.496 7
  91615698.479 7     -1039.877 7        44.741                                  
 22  6 17  4 33 30.0000000  0  9G02G03G06G11G12G14G17G19G24          0.000000000
  22053549.559 7 115892223.666 7      2346.580 7        47.110    22053558.820 7
  90305680.021 7      1828.527 7        44.741                                  
  24247137.848 6 127419577.104 6     -1511.057 6        37.427    24247151.730 6
  99288050.819 6     -1178.094 6        38.920                                  
  20153764.762 8 105908773.141 8       260.838 8        52.051    20153778.113 7
  82526353.135 7       203.410 7        44.741                                  
  21839263.539 7 114766140.646 7      2864.842 7        46.356    21839275.945 7
  89428231.896 7      2232.492 7        44.741                                  
  22054629.188 7 115897888.031 7      2825.018 7        46.335    22054640.867 7
  90310096.915 7      2201.320 7        44.741                                  
  24032332.836 6 126290695.004 6     -3392.502 6        41.276    24032346.887 5
  98408363.342 5     -2643.543 5        34.428                                  
  22235610.137 7 116848906.138 7     -2064.260 7        45.340    22235621.266 7
  91051136.000 7     -1608.348 7        44.741                                  
  20551185.117 8 107997207.360 8     -1289.064 8        49.582    20551193.059 7
  84153702.386 7     -1004.461 7        44.741                                  
  22381139.340 7 117613686.681 7     -1351.154 7        44.667    22381154.023 7
  91647086.712 7     -1052.879 7        44.741                                  
 22  6 17  4 34  0.0000000  0  9G02G03G06G11G12G14G17G19G24          0.000000000
  22040190.000 7 115822018.518 7      2334.125 7        47.767    22040198.703 7
  90250974.751 7      1818.844 7        44.741                                  
  24255817.164 6 127465186.572 6     -1528.746 6        38.232    24255830.902 6
  99323590.604 6     -1191.313 6        39.359                                  
  20152328.910 8 105901226.212 8       242.641 8        52.566    20152342.086 7
  82520472.425 7       189.000 7        44.741                                  
  21822942.406 7 114680372.708 7      2853.031 7        46.577    21822954.113 7
  89361399.769 7      2223.395 7        44.741                                  
  22038526.559 7 115813267.849 7      2816.605 7        47.153    22038538.250 7
  90244159.167 7      2194.742 7        44.741                                  
  24051715.855 6 126392553.625 6     -3397.281 6        41.175    24051731.023 5
  98487733.487 5     -2647.270 5        34.767                                  
  22247405.563 7 116910893.044 7     -2067.848 7        45.773    22247417.098 7
  91099437.457 7     -1611.332 7        44.741                                  
  20558572.313 8 108036027.025 8     -1298.434 8        50.081    20558580.152 7
  84183951.449 7     -1011.762 7        44.741                                  
  22388901.293 7 117654476.479 7     -1367.789 7        44.621    22388915.676 7
  91678870.913 7     -1065.629 7        44.741                                  
 22  6 17  4 34 30.0000000  0  9G02G03G06G11G12G14G17G19G24          0.000000000
  22026900.285 7 115752183.721 7      2321.881 7        46.417    22026909.715 7
  90196558.076 7      1809.279 7        44.741                                  
  24264599.090 6 127511337.158 6     -1547.141 6        37.662    24264612.543 6
  99359552.087 6     -1204.861 6        39.095                                  
  20150998.387 8 105894235.687 8       223.582 8        51.967    20151011.938 7
  82515025.271 7       174.240 7        44.741                                  
  21806689.543 7 114594961.991 7      2840.963 7        46.996    21806701.707 7
  89294846.018 7      2213.771 7        44.741                                  
  22022473.594 7 115728906.305 7      2807.369 7        47.221    22022484.699 7
  90178422.923 7      2187.795 7        44.741                                  
  24071131.371 6 126494580.059 6     -3403.371 6        41.107    24071146.598 5
  98567234.384 5     -2651.932 5        33.933                                  
  22259222.184 7 116972989.308 7     -2071.750 7        45.114    22259233.387 7
  91147824.136 7     -1614.256 7        44.741                                  
  20566013.754 8 108075132.505 8     -1308.254 8        49.320    20566021.652 7
  84214423.234 7     -1019.412 7        44.741                                  
  22396760.277 7 117695772.392 7     -1384.836 7        45.431    22396773.902 7
  91711049.515 7     -1079.080 7        44.741                                  
 22  6 17  4 35  0.0000000  0  9G02G03G06G11G12G14G17G19G24          0.000000000
  22013681.805 7 115682720.252 7      2309.539 7        47.419    22013691.277 7
  90142430.755 7      1799.699 7        44.741                                  
  24273483.734 6 127558027.288 6     -1564.699 6        37.585    24273498.129 6
  99395934.015 6     -1219.188 6        38.780                                  
  20149773.727 8 105887800.772 8       205.398 8        52.541    20149787.020 7
  82510009.073 7       160.148 7        44.741                                  
  21790504.910 7 114509910.09217      2829.422 7        47.395    21790517.461 7
  89228571.87617      2204.855 7        44.741                                  
  22006469.973 8 115644805.210 8      2799.363 8        48.560    22006480.848 7
  90112889.657 7      2181.242 7        44.741                                  
  24090578.488 6 126596772.56416     -3408.625 6        41.656    24090592.441 5
  98646864.67315     -2656.102 5        34.617                                  
  22271059.957 7 117035194.42317     -2075.031 7        46.014    22271070.547 7
  91196295.61517     -1616.941 7        44.741                                  
  20573509.402 8 108114522.790 8     -1317.297 8        49.498    20573517.559 7
  84245116.935 7     -1026.492 7        44.741                                  
  22404714.824 7 117737572.192 7     -1401.184 7        45.980    22404728.563 7
  91743620.760 7     -1092.000 7        44.741                                  
 22  6 17  4 35 30.0000000  0  9G02G03G06G11G12G14G17G19G24          0.000000000
  22000534.898 8 115613628.905 8      2296.443 8        48.048    22000543.555 7
  90088593.399 7      1789.496 7        44.741                                  
  24282469.996 6 127605255.732 6     -1583.693 6        36.731    24282485.207 6
  99432735.385 6     -1234.410 6        38.455                                  
  20148655.125 8 105881921.138 8       186.639 8        52.675    20148668.164 7
  82505428.563 7       145.375 7        44.741                                  
  21774388.273 7 114425218.976 7      2816.639 7        47.196    21774400.766 7
  89162578.846 7      2194.828 7        44.741                                  
  21990515.887 8 115560967.270 8      2789.568 8        48.523    21990526.316 7
  90047561.434 7      2173.969 7        44.741                                  
  24110056.824 7 126699130.024 7     -3415.568 7        42.704    24110070.188 5
  98726623.526 5     -2661.441 5        34.145                                  
  22282917.648 7 117097508.083 7     -2079.338 7        46.178    22282928.996 7
  91244851.689 7     -1619.977 7        44.741                                  
  20581058.883 8 108154197.195 8     -1327.307 8        49.903    20581067.340 7
  84276032.033 7     -1034.195 7        44.741                                  
  22412764.121 7 117779874.170 7     -1418.967 7        46.377    22412778.203 7
  91776583.318 7     -1105.660 7        44.741                                  
 22  6 17  4 36  0.0000000  0  9G02G03G06G11G12G14G17G19G24          0.000000000
  21987457.691 7 115544910.400 7      2284.688 7        47.921    21987467.035 7
  90035046.558 7      1780.258 7        44.741                                  
  24291560.449 6 127653020.607 6     -1600.471 6        38.298    24291575.402 6
  99469954.765 6     -1247.400 6        40.297                                  
  20147641.715 8 105876595.858 8       168.398 8        52.361    20147654.820 7
  82501279.006 7       131.154 7        44.741                                  
  21758341.195 7 114340890.056 7      2805.059 7        47.213    21758353.113 7
  89096868.041 7      2185.805 7        44.741                                  
  21974612.328 8 115477394.363 8      2781.582 8        48.178    21974622.773 7
  89982439.740 7      2167.113 7        44.741                                  
  24129565.371 6 126801650.567 6     -3419.611 6        41.978    24129581.008 5
  98806509.447 5     -2664.646 5        34.347                                  
  22294795.957 7 117159929.564 7     -2082.268 7        45.617    22294807.191 7
  91293491.763 7     -1622.400 7        44.741                                  
  20588663.609 8 108194154.751 8     -1336.408 8        50.006    20588671.223 7
  84307167.765 7     -1041.326 7        44.741                                  
  22420909.309 7 117822675.935 7     -1435.100 7        46.102    22420923.762 7
  91809935.280 7     -1118.123 7        44.741                                  
 22  6 17  4 36 30.0000000  0  9G02G03G06G11G12G14G17G19G24          0.000000000
  21974452.453 8 115476566.540 8      2272.076 8        48.434    21974462.023 7
  89981791.659 7      1770.473 7        44.741                                  
  24300751.629 6 127701321.012 6     -1618.646 6        39.693    24300767.098 6
  99507591.400 6     -1261.793 6        41.299                                  
  20146733.609 8 105871824.829 8       150.025 8        52.395    20146747.074 7
  82497561.314 7       116.898 7        44.741                                  
  21742363.078 7 114256925.608 7      2792.975 7        47.483    21742375.641 7
  89031441.276 7      2176.332 7        44.741                                  
  21958759.418 8 115394089.279 8      2772.154 8        48.504    21958770.508 7
  89917526.690 7      2160.512 7        44.741                                  
  24149105.242 6 126904333.379 6     -3425.189 6        41.533    24149120.996 5
  98886521.831 5     -2668.980 5        33.895                                  
  22306695.297 7 117222459.057 7     -2086.088 7        45.519    22306705.684 7
  91342216.012 7     -1625.367 7        44.741                                  
  20596320.559 8 108234395.311 8     -1345.795 8        50.090    20596328.699 7
  84338524.020 7     -1048.629 7        44.741                                  
  22429148.641 7 117865975.991 7     -1451.010 7        44.889    22429162.793 7
  91843675.524 7     -1130.855 7        44.741                                  
 22  6 17  4 37  0.0000000  0  9G02G03G06G11G12G14G17G19G24          0.000000000
  21961517.977 7 115408597.525 7      2258.729 7        47.722    21961527.922 7
  89928828.852 7      1760.000 7        44.741                                  
  24310044.480 6 127750154.928 6     -1637.443 6        40.672    24310060.734 7
  99545643.760 7     -1275.898 7        42.674                                  
  20145930.895 8 105867606.992 8       130.760 8        51.820                  
         0.000 0         0.000 0         0.000                                  
  21726453.578 7 114173326.915 7      2779.920 7        46.407    21726466.898 7
  88966299.501 7      2166.035 7        44.741                                  
  21942958.523 8 115311053.950 8      2762.771 8        48.006    21942968.898 7
  89852823.891 7      2152.813 7        44.741                                  
  24168675.957 6 127007176.573 6     -3431.193 6        41.309    24168691.340 5
  98966659.166 5     -2673.633 5        34.882                                  
  22318614.168 7 117285095.750 7     -2090.061 7        45.301    22318625.559 7
  91391023.798 7     -1628.887 7        44.741                                  
  20604031.957 8 108274917.704 8     -1356.154 8        49.755    20604040.027 7
  84370099.895 7     -1056.836 7        44.741                                  
  22437482.488 7 117909771.884 7     -1469.143 7        44.151    22437496.668 7
  91877802.165 7     -1145.000 7        44.741                                  
 22  6 17  4 37 30.0000000  0  9G02G03G06G11G12G14G17G19G24          0.000000000
  21948655.695 7 115341004.611 7      2246.076 7        47.877    21948664.867 7
  89876159.100 7      1750.189 7        44.741                                  
  24319439.145 6 127799521.005 6     -1654.705 6        41.533    24319452.754 6
  99584110.788 6     -1289.400 6        41.751                                  
  20145233.430 8 105863941.869 8       112.424 8        52.291    20145246.797 7
  82491417.770 7        87.611 7        44.741                                  
  21710616.414 8 114090095.923 8      2767.521 8        48.245    21710629.051 7
  88901444.207 7      2156.596 7        44.741                                  
  21927209.078 8 115228290.809 8      2753.674 8        48.479    21927219.395 7
  89788333.173 7      2145.639 7        44.741                                  
  24188277.082 6 127110178.891 6     -3436.365 6        40.858    24188292.180 5
  99046920.448 5     -2677.740 5        33.830                                  
  22330553.867 7 117347839.388 7     -2093.846 7        45.301    22330565.258 7
  91439914.911 7     -1631.393 7        44.741                                  
  20611796.664 8 108315720.959 8     -1365.467 8        49.935    20611804.305 7
  84401894.616 7     -1064.010 7        44.741                                  
  22445910.570 7 117954061.635 7     -1485.193 7        44.889    22445924.750 7
  91912313.627 7     -1157.154 7        44.741                                  
 22  6 17  4 38  0.0000000  0  9G02G03G06G11G12G14G17G19G24          0.000000000
  21935864.660 8 115273788.434 8      2234.240 8        48.370    21935874.020 7
  89823782.932 7      1740.867 7        44.741                                  
  24328933.676 6 127849417.442 6     -1672.148 6        40.710    24328949.043 7
  99622991.162 7     -1303.059 7        42.718                                  
  20144641.555 8 105860828.602 8        94.629 8        52.656    20144654.348 7
  82488991.848 7        73.582 7        44.741                                  
  21694848.496 8 114007234.038 8      2755.725 8        48.985    21694860.316 7
  88836876.562 7      2147.430 7        44.741                                  
  21911512.133 8 115145802.141 8      2744.533 8        48.819    21911522.105 7
  89724056.322 7      2138.738 7        44.741                                  
  24207907.387 6 127213338.703 6     -3442.012 6        41.276    24207922.484 5
  99127304.500 5     -2682.102 5        32.384                                  
  22342513.871 7 117410689.331 7     -2096.387 7        45.379    22342525.262 7
  91488888.840 7     -1634.016 7        44.741                                  
  20619614.586 8 108356804.469 8     -1374.375 8        49.862    20619622.371 7
  84433907.727 7     -1071.066 7        44.741                                  
  22454433.078 7 117998843.048 7     -1500.703 7        45.405    22454447.000 7
  91947208.197 7     -1169.602 7        44.741                                  
 22  6 17  4 38 30.0000000  0  9G02G03G06G11G12G14G17G19G24          0.000000000
  21923145.883 8 115206950.541 8      2221.408 8        48.807    21923155.727 7
  89771701.503 7      1730.930 7        44.741                                  
  24338529.941 6 127899843.099 6     -1689.570 6        40.710    24338543.551 7
  99662283.796 7     -1316.199 7        42.186                                  
  20144153.559 8 105858266.883 8        76.330 8        52.291    20144166.781 7
  82486994.704 7        59.543 7        44.741                                  
  21679150.688 8 113924743.414 8      2743.342 8        48.591    21679162.309 7
  88772598.209 7      2137.650 7        44.741                                  
  21895867.840 8 115063590.580 8      2735.627 8        49.443    21895877.828 7
  89659995.413 7      2131.693 7        44.741                                  
  24227567.734 6 127316654.902 6     -3446.641 6        39.834    24227582.832 5
  99207810.468 5     -2685.711 5        30.437                                  
  22354494.477 7 117473645.255 7     -2100.684 7        45.248    22354504.938 7
  91537945.340 7     -1636.648 7        44.741                                  
  20627485.305 8 108398167.756 8     -1383.633 8        49.341    20627493.777 7
  84466138.833 7     -1078.055 7        44.741                                  
  22463047.730 7 118044114.378 7     -1517.422 7        45.288    22463061.969 7
  91982484.480 7     -1182.215 7        44.741                                  
 22  6 17  4 39  0.0000000  0  9G02G03G06G11G12G14G17G19G24          0.000000000
  21910498.875 8 115140491.601 8      2208.979 8        48.212    21910509.148 7
  89719915.366 7      1721.227 7        44.741                                  
  24348225.020 6 127950796.174 6     -1707.232 6        39.448    24348241.074 6
  99701987.457 6     -1329.887 6        41.530                                  
  20143770.816 8 105856255.829 8        57.826 8        52.048    20143784.008 7
  82485428.652 7        45.152 7        44.741                                  
  21663524.793 8 113842625.587 8      2731.088 8        49.844    21663536.340 7
  88708610.328 7      2127.945 7        44.741                                  
  21880276.430 8 114981658.100 8      2726.166 8        49.041    21880286.531 7
  89596151.938 7      2124.703 7        44.741                                  
  24247257.785 6 127420125.866 6     -3450.904 6        38.491    24247273.340 5
  99288436.961 5     -2689.008 5        30.632                                  
  22366494.625 7 117536707.080 7     -2103.268 7        44.903    22366505.441 7
  91587084.384 7     -1639.105 7        44.741                                  
  20635409.621 8 108439809.887 8     -1392.760 8        49.665    20635417.945 7
  84498587.221 7     -1085.297 7        44.741                                  
  22471755.332 7 118089873.310 7     -1533.541 7        45.003    22471769.098 7
  92018140.750 7     -1194.887 7        44.741                                  
 22  6 17  4 39 30.0000000  0  9G02G03G06G11G12G14G17G19G24          0.000000000
  21897924.563 8 115074411.664 8      2196.162 8        49.188    21897932.703 7
  89668424.574 7      1711.354 7        44.741                                  
  24358021.125 6 128002274.536 6     -1724.035 6        38.736    24358037.926 6
  99742100.401 6     -1343.510 6        41.521                                  
  20143492.535 8 105854794.180 8        39.344 8        51.956    20143505.945 7
  82484288.729 7        30.689 7        44.741                                  
  21647968.586 7 113760881.672 7      2718.350 7        47.885    21647981.281 7
  88644913.818 7      2117.955 7        44.741                                  
  21864738.539 8 114900006.933 8      2716.709 8        48.724    21864749.230 7
  89532527.713 7      2117.174 7        44.741                                  
  24266977.316 6 127523749.791 6     -3456.672 6        39.079    24266992.527 5
  99369182.653 5     -2693.414 5        31.693                                  
  22378514.520 7 117599873.832 7     -2107.531 7        45.392    22378526.027 7
  91636305.179 7     -1642.318 7        44.741                                  
  20643386.883 8 108481729.893 8     -1402.082 8        49.407    20643395.242 7
  84531252.156 7     -1092.611 7        44.741                                  
  22480555.375 7 118136117.223 7     -1549.270 7        45.031    22480569.055 7
  92054174.908 7     -1207.494 7        44.741                                  
 22  6 17  4 40  0.0000000  0  9G02G03G06G11G12G14G17G19G24          0.000000000
  21885422.652 8 115008712.411 8      2184.010 8        48.658    21885431.641 7
  89617230.381 7      1701.832 7        44.741                                  
  24367915.680 6 128054276.974 6     -1741.518 6        37.346    24367932.637 6
  99782621.729 6     -1357.055 6        40.058                                  
  20143319.000 8 105853881.638 8        21.803 8        52.034    20143332.277 7
  82483577.648 7        17.105 7        44.741                                  
  21632485.215 8 113679513.768 8      2706.568 8        49.428    21632497.352 7
  88581510.341 7      2108.805 7        44.741                                  
  21849255.453 8 114818639.569 8      2707.896 8        49.755    21849266.230 7
  89469124.603 7      2110.152 7        44.741                                  
  24286724.465 6 127627525.446 6     -3461.088 6        39.834    24286741.262 5
  99450046.590 5     -2696.977 5        34.145                                  
  22390555.313 7 117663145.495 7     -2110.365 7        46.199    22390566.102 7
  91685607.729 7     -1644.262 7        44.741                                  
  20651416.520 8 108523927.316 8     -1410.600 8        49.621    20651425.137 7
  84564133.243 7     -1099.164 7        44.741                                  
  22489446.996 7 118182844.434 7     -1564.857 7        44.831    22489460.734 7
  92090585.668 7     -1219.457 7        44.741                                  
 22  6 17  4 40 30.0000000  0  9G02G03G06G11G12G14G17G19G24          0.000000000
  21872992.340 8 114943394.821 8      2170.877 8        48.535    21873001.527 7
  89566333.615 7      1691.721 7        44.741                                  
  24377910.875 6 128106802.069 6     -1760.256 6        36.335    24377928.074 6
  99823550.291 6     -1371.191 6        39.001                                  
  20143249.824 8 105853517.576 8         2.947 8        52.288    20143262.730 7
  82483292.969 7         2.344 7        44.741                                  
  21617073.297 8 113598523.744 8      2693.221 8        49.665    21617084.398 7
  88518401.259 7      2098.596 7        44.741                                  
  21833825.363 8 114737558.572 8      2698.025 8        49.204    21833836.625 7
  89405944.654 7      2102.111 7        44.741                                  
  24306501.566 6 127731451.611 6     -3466.545 6        39.880    24306517.793 5
  99531027.757 5     -2701.191 5        34.628                                  
  22402615.035 7 117726521.893 7     -2114.279 7        46.069    22402626.570 7
  91734991.869 7     -1647.734 7        44.741                                  
  20659499.148 8 108566401.284 8     -1420.568 8        49.341    20659508.094 7
  84597229.809 7     -1106.934 7        44.741                                  
  22498431.246 7 118230052.879 7     -1581.682 7        46.188    22498444.441 7
  92127371.439 7     -1232.598 7        44.741                                  
 22  6 17  4 41  0.0000000  0  9G02G03G06G11G12G14G17G19G24          0.000000000
  21860636.223 8 114878459.076 8      2158.637 8        49.736    21860646.109 7
  89515734.369 7      1682.076 7        44.741                                  
  24388006.594 6 128159847.564 6     -1777.223 6        38.232    24388022.406 6
  99864884.409 6     -1384.408 6        39.784                                  
  20143284.895 8 105853700.853 8       -15.133 8        52.193    20143297.656 7
  82483436.795 7       -11.811 7        44.741                                  
  21601733.566 8 113517912.789 8      2680.824 8        49.068    21601744.914 7
  88455587.561 7      2089.029 7        44.741                                  
  21818451.434 8 114656766.021 8      2688.305 8        49.315    21818462.781 7
  89342989.446 7      2094.752 7        44.741                                  
  24326306.930 6 127835526.305 6     -3471.227 6        40.517    24326322.742 5
  99612124.702 5     -2704.799 5        34.193                                  
  22414695.871 7 117790002.253 7     -2117.379 7        46.528    22414706.285 7
  91784457.035 7     -1650.033 7        44.741                                  
  20667634.367 8 108609150.665 8     -1429.352 8        49.361    20667642.996 7
  84630540.995 7     -1113.803 7        44.741                                  
  22507505.578 7 118277739.977 7     -1597.262 7        45.392    22507519.371 7
  92164530.173 7     -1244.623 7        44.741                                  
 22  6 17  4 41 30.0000000  0  9G02G03G06G11G12G14G17G19G24          0.000000000
  21848351.449 8 114813906.113 8      2145.604 8        48.724    21848361.496 7
  89465433.431 7      1671.930 7        44.741                                  
  24398199.129 6 128213411.927 6     -1794.768 6        37.346    24398214.969 6
  99906622.834 6     -1397.855 6        39.701                                  
  20143423.648 8 105854430.745 8       -33.479 8        51.678                  
         0.000 0         0.000 0         0.000                                  
  21586466.902 8 113437682.654 8      2667.947 8        49.830    21586477.449 7
  88393070.617 7      2078.727 7        44.741                                  
  21803132.828 8 114576264.145 8      2678.592 8        49.262    21803142.715 7
  89280260.736 7      2087.281 7        44.741                                  
  24346140.145 6 127939748.306 6     -3477.287 6        40.315    24346155.996 5
  99693336.458 5     -2709.574 5        33.152                                  
  22426795.395 7 117853586.173 7     -2120.900 7        46.616    22426806.109 7
  91834002.919 7     -1652.992 7        44.741                                  
  20675821.758 8 108652175.303 8     -1438.557 8        49.156    20675830.598 7
  84664066.676 7     -1120.980 7        44.741                                  
  22516670.285 7 118325903.636 7     -1613.439 7        44.786    22516684.781 7
  92202060.254 7     -1257.074 7        44.741                                  
 22  6 17  4 42  0.0000000  0  9G02G03G06G11G12G14G17G19G24          0.000000000
  21836141.047 8 114749737.201 8      2132.109 8        49.533    21836149.820 7
  89415431.722 7      1661.318 7        44.741                                  
  24408490.504 6 128267493.840 6     -1812.051 6        37.885    24408506.316 6
  99948764.530 6     -1411.748 6        40.572                                  
  20143666.539 8 105855706.754 8       -51.953 8        51.635    20143679.617 7
  82484999.825 7       -40.635 7        44.741                                  
  21571271.605 8 113357835.295 8      2654.805 8        48.848    21571283.426 7
  88330851.928 7      2068.447 7        44.741                                  
  21787869.133 8 114496055.845 8      2667.910 8        48.923    21787879.207 7
  89217760.804 7      2079.111 7        44.741                                  
  24366000.934 6 128044116.374 6     -3481.875 6        39.079    24366016.844 5
  99774662.034 5     -2713.193 5        31.219                                  
  22438914.625 7 117917273.717 7     -2124.805 7        47.049    22438925.172 7
  91883629.533 7     -1655.986 7        44.741                                  
  20684061.336 8 108695474.328 8     -1448.320 8        49.621    20684070.152 7
  84697806.149 7     -1128.564 7        44.741                                  
  22525925.816 7 118374542.028 7     -1629.590 7        44.335    22525940.027 7
  92239960.258 7     -1270.088 7        44.741                                  
 22  6 17  4 42 30.0000000  0  9G02G03G06G11G12G14G17G19G24          0.000000000
  21824003.480 8 114685953.139 8      2119.271 8        49.493    21824012.184 7
  89365729.891 7      1651.420 7        44.741                                  
  24418881.477 6 128322091.404 6     -1828.521 6        39.346    24418894.883 6
  99991308.072 6     -1424.986 6        39.979                                  
  20144013.168 8 105857527.938 8       -69.889 8        51.814    20144026.063 7
  82486418.930 7       -54.557 7        44.741                                  
  21556150.285 8 113278372.242 8      2642.006 8        49.443    21556162.277 7
  88268932.714 7      2058.705 7        44.741                                  
  21772662.531 8 114416143.348 8      2658.627 8        49.935    21772672.262 7
  89155491.362 7      2071.459 7        44.741                                  
  24385889.055 6 128148629.042 6     -3486.627 6        37.263    24385904.438 4
  99856100.249 4     -2716.803 4        27.069                                  
  22451053.176 7 117981064.521 7     -2128.150 7        46.664    22451064.309 7
  91933336.606 7     -1658.639 7        44.741                                  
  20692352.574 8 108739047.001 8     -1457.096 8        48.877    20692361.188 7
  84731758.859 7     -1135.436 7        44.741                                  
  22535271.930 7 118423652.818 7     -1645.572 7        44.384    22535286.008 7
  92278228.324 7     -1281.920 7        44.741                                  
 22  6 17  4 43  0.0000000  0  9G02G03G06G11G12G14G17G19G24          0.000000000
  21811938.695 8 114622554.308 8      2106.908 8        48.670    21811948.457 7
  89316328.238 7      1641.781 7        44.741                                  
  24429368.691 6 128377202.566 6     -1845.338 6        38.096    24429382.742 6
 100034251.728 6     -1437.711 6        41.031                                  
  20144462.633 8 105859893.081 8       -87.896 8        51.242    20144476.227 7
  82488262.891 7       -68.434 7        44.741                                  
  21541102.605 8 113199294.748 8      2629.621 8        49.220    21541114.184 7
  88207313.926 7      2049.027 7        44.741                                  
  21757512.539 8 114336528.869 8      2649.055 8        49.493    21757523.000 7
  89093454.117 7      2064.164 7        44.741                                  
  24405804.457 5 128253284.383 5     -3490.553 5        35.785    24405819.340 4
  99937649.653 4     -2719.918 4        24.851                                  
  22463211.848 7 118044957.990 7     -2131.139 7        46.438    22463222.867 7
  91983123.658 7     -1660.777 7        44.741                                  
  20700696.277 8 108782892.413 8     -1466.178 8        49.035    20700704.434 7
  84765924.097 7     -1142.496 7        44.741                                  
  22544705.988 7 118473233.326 7     -1660.221 7        43.304    22544720.629 7
  92316862.436 7     -1293.551 7        44.741                                  
 22  6 17  4 43 30.0000000  0  9G02G03G06G11G12G14G17G19G24          0.000000000
  21799948.039 8 114559541.474 8      2093.168 8        49.412    21799957.125 7
  89267227.362 7      1631.063 7        44.741                                  
  24439952.645 6 128432825.464 6     -1863.357 6        38.096    24439968.301 6
 100077594.225 6     -1451.594 6        41.001                                  
  20145016.414 8 105862801.338 8      -106.734 8        51.941    20145029.578 7
  82490529.058 7       -83.039 7        44.741                                  
  21526128.340 8 113120604.370 8      2615.902 8        49.335    21526139.758 7
  88145996.778 7      2038.387 7        44.741                                  
  21742419.648 8 114257214.377 8      2638.148 8        50.081    21742429.980 7
  89031650.664 7      2055.535 7        44.741                                  
  24425747.051 5 128358080.974 5     -3495.311 5        34.874    24425763.266 3
 100019309.148 3     -2723.666 3        18.618                                  
  22475390.707 7 118108953.759 7     -2135.701 7        47.395    22475400.895 7
  92032990.439 7     -1663.996 7        44.741                                  
  20709091.781 8 108827009.849 8     -1475.779 8        49.118    20709099.266 7
  84800301.300 7     -1150.012 7        44.741                                  
  22554230.348 7 118523281.403 7     -1677.049 7        44.319    22554244.645 7
  92355860.869 7     -1306.613 7        44.741                                  
 22  6 17  4 44  0.0000000  0  9G02G03G06G11G12G14G17G19G24          0.000000000
  21788030.070 8 114496915.662 8      2081.344 8        48.083    21788038.883 7
  89218428.045 7      1621.865 7        44.741                                  
  24450634.758 6 128488958.470 6     -1879.320 6        38.554    24450649.766 6
 100121334.210 6     -1464.521 6        40.974                                  
  20145672.934 8 105866251.814 8      -124.047 8        51.899    20145686.152 7
  82493216.746 7       -96.650 7        44.741                                  
  21511227.188 8 113042302.733 8      2603.844 8        48.096    21511238.965 7
  88084982.590 7      2028.701 7        44.741                                  
  21727383.707 8 114178202.430 8      2628.883 8        49.309    21727393.879 7
  88970082.945 7      2048.311 7        44.741                                  
  24445715.688 5 128463017.376 5     -3500.512 5        31.864    24445731.969 2
 100101077.511 2     -2727.666 2        14.639                                  
  22487587.445 7 118173051.401 7     -2137.699 7        46.635    22487598.363 7
  92082936.619 7     -1665.908 7        44.741                                  
  20717538.941 8 108871398.601 8     -1484.125 8        49.488    20717546.637 7
  84834889.916 7     -1156.494 7        44.741                                  
  22563843.277 7 118573794.685 7     -1691.352 7        45.327    22563856.871 7
  92395221.817 7     -1318.076 7        44.741                                  
 22  6 17  4 44 30.0000000  0  9G02G03G06G11G12G14G17G19G24          0.000000000
  21776186.691 8 114434677.309 8      2067.641 8        49.193    21776196.305 7
  89169930.683 7      1611.146 7        44.741                                  
  24461413.781 6 128545599.451 6     -1896.578 6        40.672    24461427.977 6
 100165470.011 6     -1478.248 6        41.492                                  
  20146432.945 8 105870243.375 8      -142.281 8        52.136    20146445.867 7
  82496328.059 7      -110.982 7        44.741                                  
  21496401.633 8 112964391.215 8      2590.453 8        49.007    21496412.551 7
  88024272.333 7      2018.432 7        44.741                                  
  21712406.758 8 114099495.293 8      2618.266 8        49.684    21712415.816 7
  88908752.724 7      2040.189 7        44.741                                  
  24465710.832 5 128568091.767 5     -3503.023 5        31.242    24465727.730 1
 100182953.434 1     -2729.635 1        11.629                                  
  22499804.543 7 118237250.731 7     -2141.930 7        47.767    22499815.418 7
  92132962.014 7     -1669.166 7        44.741                                  
  20726036.938 8 108916057.636 8     -1493.512 8        49.563    20726045.391 7
  84869689.137 7     -1163.951 7        44.741                                  
  22573543.387 7 118624770.753 7     -1707.047 7        44.772    22573557.227 7
  92434943.385 7     -1330.279 7        44.741                                  
 22  6 17  4 45  0.0000000  0  8G02G03G06G11G12G17G19G24             0.000000000
  21764417.168 8 114372827.665 8      2055.600 8        48.990    21764426.641 7
  89121736.173 7      1601.832 7        44.741                                  
  24472288.410 6 128602747.315 6     -1913.150 6        40.015    24472302.020 6
 100210000.823 6     -1491.156 6        40.527                                  
  20147295.148 8 105874775.805 8      -159.771 8        52.139    20147308.113 7
  82499858.823 7      -124.516 7        44.741                                  
  21481650.070 8 112886871.992 8      2578.002 8        48.688    21481661.461 7
  87963867.789 7      2008.648 7        44.741                                  
  21697487.352 8 114021095.914 8      2608.432 8        49.273    21697497.555 7
  88847662.332 7      2032.711 7        44.741                                  
  22512040.406 7 118301551.355 7     -2144.537 7        47.238    22512050.824 7
  92183066.330 7     -1671.098 7        44.741                                  
  20734586.465 8 108960986.935 8     -1501.861 8        49.283    20734595.594 7
  84904698.946 7     -1170.355 7        44.741                                  
  22583331.809 7 118676207.987 7     -1721.979 7        45.405    22583345.758 7
  92475024.300 7     -1341.605 7        44.741                                  
 22  6 17  4 45 30.0000000  0  8G02G03G06G11G12G17G19G24             0.000000000
  21752720.707 7 114311366.983 7      2042.619 7        47.685    21752730.637 7
  89073844.770 7      1591.678 7        44.741                                  
  24483260.000 6 128660399.537 6     -1929.314 6        40.015    24483274.297 6
 100254924.575 6     -1503.205 6        41.578                                  
  20148260.035 8 105879847.459 8      -177.576 8        51.873    20148273.313 7
  82503810.760 7      -138.342 7        44.741                                  
  21466973.438 8 112809746.009 8      2564.729 8        48.700    21466984.211 7
  87903769.667 7      1998.533 7        44.741                                  
  21682627.273 8 113943006.122 8      2598.381 8        48.603    21682636.945 7
  88786813.191 7      2024.510 7        44.741                                  
  22524296.102 7 118365953.057 7     -2148.064 7        47.093    22524305.961 7
  92233249.428 7     -1673.693 7        44.741                                  
  20743187.453 8 109006185.231 8     -1510.486 8        48.259    20743196.410 7
  84939918.365 7     -1177.014 7        44.741                                  
  22593206.453 7 118728103.350 7     -1736.971 7        43.092    22593221.363 7
  92515462.182 7     -1353.537 7        44.741                                  
 22  6 17  4 46  0.0000000  0  8G02G03G06G11G12G17G19G24             0.000000000
  21741100.445 8 114250295.994 8      2029.510 8        49.193    21741109.660 7
  89026257.004 7      1581.473 7        44.741                                  
  24494325.961 6 128718554.596 6     -1945.236 6        40.231    24494340.227 6
 100300240.215 6     -1517.201 6        41.410                                  
  20149327.875 8 105885457.698 8      -195.432 8        51.852    20149340.938 7
  82508182.377 7      -152.377 7        44.741                                  
  21452372.141 8 112733015.120 8      2551.385 8        48.172    21452383.844 7
  87843979.372 7      1988.387 7        44.741                                  
  21667826.363 8 113865228.507 8      2587.752 8        48.383    21667836.336 7
  88726207.283 7      2016.512 7        44.741                                  
  22536570.332 7 118430455.289 7     -2151.447 7        47.238    22536580.191 7
  92283510.869 7     -1676.322 7        44.741                                  
  20751839.879 8 109051651.895 8     -1519.709 8        48.877    20751848.508 7
  84975346.902 7     -1184.232 7        44.741                                  
  22603168.316 7 118780454.835 7     -1751.916 7        43.070    22603183.211 7
  92556255.497 7     -1365.521 7        44.741                                  
 22  6 17  4 46 30.0000000  0  8G02G03G06G11G12G17G19G24             0.000000000
  21729552.320 7 114189615.550 7      2016.201 7        47.789    21729562.750 7
  88978973.576 7      1571.184 7        44.741                                  
  24505488.098 6 128777210.550 6     -1964.033 6        39.834    24505502.637 6
 100345946.125 6     -1530.223 6        41.485                                  
  20150497.762 8 105891605.502 8      -214.150 8        52.384                  
         0.000 0         0.000 0         0.000                                  
  21437845.984 8 112656680.710 8      2537.529 8        49.182    21437858.293 7
  87784498.072 7      1977.355 7        44.741                                  
  21653085.570 8 113787765.457 8      2576.338 8        48.597    21653096.762 7
  88665846.476 7      2007.961 7        44.741                                  
  22548864.184 7 118495058.146 7     -2155.674 7        47.427    22548874.688 7
  92333850.709 7     -1679.734 7        44.741                                  
  20760542.840 8 109097386.276 8     -1529.502 8        49.107    20760551.066 7
  85010984.062 7     -1191.707 7        44.741                                  
  22613217.629 7 118833260.063 7     -1768.037 7        44.269    22613232.367 7
  92597402.343 7     -1377.566 7        44.741                                  
 22  6 17  4 47  0.0000000  0  8G02G03G06G11G12G17G19G24             0.000000000
  21718079.820 8 114129326.023 8      2002.801 8        48.441    21718089.566 7
  88931994.757 7      1560.715 7        44.741                                  
  24516743.891 6 128836365.225 6     -1980.734 6        38.911    24516760.449 6
 100392040.621 6     -1543.428 6        41.637                                  
  20151769.887 8 105898289.499 8      -231.906 8        52.483                  
         0.000 0         0.000 0         0.000                                  
  21423396.176 8 112580744.073 8      2524.363 8        49.320    21423407.191 7
  87725326.681 7      1967.102 7        44.741                                  
  21638404.953 7 113710618.957 7      2565.945 7        47.775    21638415.398 7
  88605732.365 7      1999.426 7        44.741                                  
  22561176.137 7 118559760.571 7     -2158.703 7        46.508    22561186.914 7
  92384268.119 7     -1682.002 7        44.741                                  
  20769296.527 8 109143387.355 8     -1538.117 8        49.294    20769304.582 7
  85046829.048 7     -1198.525 7        44.741                                  
  22623352.582 7 118886516.355 7     -1782.180 7        44.903    22623366.477 7
  92638900.715 7     -1389.111 7        44.741                                  
 22  6 17  4 47 30.0000000  0  8G02G03G06G11G12G17G19G24             0.000000000
  21706681.609 8 114069428.543 8      1990.156 8        48.083    21706691.355 7
  88885321.422 7      1550.801 7        44.741                                  
  24528095.152 6 128896017.11416     -1996.854 6        39.548    24528111.793 7
 100438522.55017     -1555.449 7        42.796                                  
  20153143.633 8 105905509.179 8      -249.549 8        52.098    20153156.883 7
  82523807.903 7      -194.355 7        44.741                                  
  21409021.652 8 112505207.08318      2511.387 8        49.750    21409034.086 7
  87666466.73317      1956.895 7        44.741                                  
  21623786.027 8 113633791.845 8      2555.664 8        48.968    21623795.656 7
  88545867.109 7      1991.230 7        44.741                                  
  22573508.148 7 118624563.33317     -2161.736 7        46.749    22573518.723 7
  92434763.70917     -1684.668 7        44.741                                  
  20778100.750 8 109189654.982 8     -1546.502 8        49.231    20778109.379 7
  85082881.737 7     -1205.078 7        44.741                                  
  22633571.984 7 118940221.794 7     -1797.576 7        44.559    22633585.793 7
  92680749.050 7     -1400.508 7        44.741                                  
 22  6 17  4 48  0.0000000  0  8G02G03G06G11G12G17G19G24             0.000000000
  21695358.320 8 114009923.565 8      1976.877 8        48.285    21695368.254 7
  88838953.944 7      1540.377 7        44.741                                  
  24539540.504 6 128956163.769 6     -2012.557 6        38.854    24539556.344 6
 100485390.036 6     -1568.412 6        41.755                                  
  20154619.199 8 105913263.071 8      -267.166 8        52.506    20154632.352 7
  82529849.909 7      -208.119 7        44.741                                  
  21394723.766 8 112430070.907 8      2497.992 8        49.602    21394735.832 7
  87607919.104 7      1946.588 7        44.741                                  
  21609227.145 8 113557286.137 8      2544.887 8        48.962    21609237.547 7
  88486252.292 7      1983.346 7        44.741                                  
  22585858.414 7 118689465.323 7     -2164.803 7        46.721    22585868.875 7
  92485336.600 7     -1686.537 7        44.741                                  
  20786955.137 8 109236187.960 8     -1555.154 8        48.894    20786964.152 7
  85119141.182 7     -1211.752 7        44.741                                  
  22643876.180 7 118994373.559 7     -1812.166 7        44.528    22643890.434 7
  92722945.182 7     -1412.240 7        44.741                                  
 22  6 17  4 48 30.0000000  0  8G02G03G06G11G12G17G19G24             0.000000000
  21684110.016 8 113950811.972 8      1963.162 8        48.479    21684119.648 7
  88792892.997 7      1529.748 7        44.741                                  
  24551081.020 6 129016804.012 6     -2030.686 6        39.597    24551096.547 7
 100532642.115 7     -1581.367 7        42.646                                  
  20156196.367 8 105921550.601 8      -285.725 8        52.744                  
         0.000 0         0.000 0         0.000                                  
  21380502.156 8 112355337.380 8      2483.787 8        48.905    21380514.535 7
  87549685.252 7      1935.354 7        44.741                                  
  21594729.652 7 113481104.859 7      2533.162 7        47.949    21594740.512 7
  88426890.313 7      1973.830 7        44.741                                  
  22598227.719 7 118754466.575 7     -2169.084 7        46.448    22598238.152 7
  92535986.899 7     -1690.352 7        44.741                                  
  20795861.047 8 109282985.850 8     -1564.963 8        49.057    20795869.945 7
  85155607.052 7     -1219.492 7        44.741                                  
  22654265.949 7 119048969.751 7     -1828.303 7        43.739    22654280.344 7
  92765487.603 7     -1424.434 7        44.741                                  
 22  6 17  4 49  0.0000000  0  8G02G03G06G11G12G17G19G24             0.000000000
  21672936.746 8 113892094.239 8      1950.059 8        48.325    21672945.730 7
  88747138.942 7      1519.486 7        44.741                                  
  24562713.879 6 129077935.455 6     -2045.723 6        40.273    24562728.535 7
 100580276.981 7     -1594.793 7        42.521                                  
  20157874.609 8 105930370.485 8      -303.398 8        52.335    20157887.977 7
  82543181.370 7      -236.432 7        44.741                                  
  21366358.152 8 112281007.847 8      2470.332 8        49.289    21366369.770 7
  87491766.166 7      1924.857 7        44.741                                  
  21580296.172 8 113405250.174 8      2522.480 8        48.945    21580306.461 7
  88367782.771 7      1965.619 7        44.741                                  
  22610616.105 7 118819566.827 7     -2172.148 7        46.528    22610625.664 7
  92586714.294 7     -1692.488 7        44.741                                  
  20804817.086 8 109330048.001 8     -1573.633 8        49.118    20804825.441 7
  85192278.856 7     -1226.316 7        44.741                                  
  22664739.336 7 119104007.685 7     -1842.480 7        43.468    22664753.773 7
  92808374.229 7     -1435.809 7        44.741                                  
 22  6 17  4 49 30.0000000  0  8G02G03G06G11G12G17G19G24             0.000000000
  21661837.059 7 113833770.212 7      1937.506 7        47.499    21661846.516 7
  88701691.686 7      1509.758 7        44.741                                  
  24574439.504 6 129139555.551 6     -2061.828 6        39.346    24574454.242 7
 100628292.623 7     -1606.727 7        42.536                                  
  20159653.914 8 105939720.973 8      -320.461 8        52.315    20159666.820 7
  82550465.473 7      -249.598 7        42.346                                  
  21352290.168 8 112207083.055 8      2457.564 8        49.257    21352301.816 7
  87434162.479 7      1914.973 7        44.741                                  
  21565922.828 7 113329723.794 7      2511.842 7        47.577    21565933.848 7
  88308931.095 7      1957.570 7        44.741                                  
  22623022.844 7 118884765.364 7     -2175.031 7        45.642    22623032.703 7
  92637518.306 7     -1694.891 7        44.741                                  
  20813822.816 8 109377373.234 8     -1581.809 8        49.057    20813831.387 7
  85229155.643 7     -1232.586 7        44.741                                  
  22675296.758 7 119159484.345 7     -1856.184 7        44.253    22675310.309 7
  92851602.756 7     -1446.668 7        44.741                                  
 22  6 17  4 50  0.0000000  0  8G02G03G06G11G12G17G19G24             0.000000000
  21650814.512 8 113775841.457 8      1924.412 8        49.013    21650824.199 7
  88656552.421 7      1499.504 7        44.741                                  
  24586258.148 6 129201663.043 6     -2077.639 6        40.517    24586272.828 7
 100676688.025 7     -1619.637 7        43.828                                  
  20161534.395 8 105949601.697 8      -338.029 8        52.833    20161547.070 7
  82558165.739 7      -263.484 7        44.741                                  
  21338300.180 8 112133565.208 8      2443.768 8        49.636    21338311.641 7
  87376875.857 7      1904.484 7        44.741                                  
  21551614.320 8 113254528.710 8      2501.053 8        48.865    21551624.609 7
  88250337.546 7      1949.113 7        44.741                                  
  22635448.055 7 118950062.496 7     -2178.205 7        46.210    22635459.059 7
  92688399.108 7     -1697.137 7        44.741                                  
  20822878.211 8 109424961.496 8     -1590.686 8        49.145    20822886.969 7
  85266237.388 7     -1239.441 7        44.741                                  
  22685936.465 7 119215397.991 7     -1870.900 7        44.742    22685950.633 7
  92895171.773 7     -1457.801 7        44.741                                  
 22  6 17  4 50 30.0000000  0  8G02G03G06G11G12G17G19G24             0.000000000
  21639865.746 8 113718308.000 8      1910.877 8        48.517    21639874.973 7
  88611721.193 7      1488.982 7        44.741                                  
  24598169.461 6 129264255.475 6     -2094.982 6        39.241    24598184.398 7
 100725461.265 7     -1632.229 7        42.417                                  
  20163515.270 8 105960011.030 8      -355.803 8        52.891    20163528.160 7
  82566277.904 7      -277.287 7        42.579                                  
  21324387.980 8 112060455.183 8      2430.174 8        49.926    21324399.770 7
  87319907.059 7      1893.553 7        44.741                                  
  21537368.859 8 113179666.709 8      2489.334 8        49.057    21537379.145 7
  88192003.542 7      1940.018 7        44.741                                  
  22647892.957 7 119015457.564 7     -2181.779 7        46.528    22647904.133 7
  92739356.202 7     -1699.768 7        44.741                                  
  20831983.922 8 109472811.586 8     -1599.553 8        48.905    20831992.563 7
  85303523.180 7     -1246.486 7        44.741                                  
  22696659.258 7 119271745.638 7     -1885.549 7        44.134    22696673.395 7
  92939078.971 7     -1469.416 7        44.741                                  
 22  6 17  4 51  0.0000000  0  8G02G03G06G11G12G17G19G24             0.000000000
  21628993.098 8 113661170.458 8      1898.119 8        48.784    21629002.316 7
  88567198.478 7      1479.053 7        44.741                                  
  24610171.633 6 129327330.532 6     -2110.885 6        38.676    24610187.742 7
 100774610.646 7     -1644.539 7        42.946                                  
  20165596.164 8 105970947.722 8      -373.307 8        52.675    20165609.602 7
  82574800.012 7      -291.082 7        44.741                                  
  21310553.188 8 111987754.360 8      2416.381 8        49.035    21310565.223 7
  87263257.091 7      1883.076 7        44.741                                  
  21523186.926 8 113105140.373 8      2478.666 8        48.819    21523197.184 7
  88133931.123 7      1931.299 7        44.741                                  
  22660355.602 7 119080950.033 7     -2184.576 7        46.091    22660366.660 7
  92790389.232 7     -1702.137 7        44.741                                  
  20841138.707 8 109520922.344 8     -1607.896 8        48.585    20841147.637 7
  85341012.062 7     -1252.918 7        44.741                                  
  22707463.750 7 119328524.739 7     -1899.771 7        44.368    22707477.574 7
  92983322.365 7     -1480.379 7        44.741                                  
 22  6 17  4 51 30.0000000  0  8G02G03G06G11G12G17G19G24             0.000000000
  21618195.984 8 113604430.129 8      1885.666 8        48.712    21618204.012 7
  88522985.271 7      1469.354 7        44.741                                  
  24622266.648 6 129390887.200 6     -2125.953 6        39.548    24622281.844 7
 100824135.260 7     -1656.389 7        43.423                                  
  20167777.770 8 105982411.555 8      -390.055 8        52.558    20167791.078 7
  82583732.858 7      -303.869 7        44.741                                  
  21296797.074 8 111915464.957 8      2403.498 8        49.182    21296808.664 7
  87206927.728 7      1872.986 7        44.741                                  
  21509069.074 8 113030952.804 8      2468.029 8        48.934    21509079.133 7
  88076122.660 7      1922.947 7        44.741                                  
  22672837.105 7 119146540.343 7     -2186.949 7        46.842    22672847.512 7
  92841498.502 7     -1704.182 7        44.741                                  
  20850343.551 8 109569294.207 8     -1615.816 8        48.712    20850352.238 7
  85378704.409 7     -1259.104 7        44.741                                  
  22718349.641 7 119385733.676 7     -1913.219 7        42.868    22718364.707 7
  93027900.704 7     -1490.607 7        44.741                                  
 22  6 17  4 52  0.0000000  0  8G02G03G06G11G12G17G19G24             0.000000000
  21607473.961 8 113548086.677 8      1871.701 8        49.309    21607482.820 7
  88479081.313 7      1458.521 7        44.741                                  
  24634451.637 6 129454922.553 6     -2142.596 6        38.364    24634467.609 7
 100874032.908 7     -1669.018 7        42.619                                  
  20170059.082 8 105994400.479 8      -408.299 8        52.374    20170072.605 7
  82593075.897 7      -318.197 7        44.741                                  
  21283119.344 8 111843587.542 8      2389.104 8        49.309    21283130.293 7
  87150919.414 7      1861.588 7        44.741                                  
  21495017.305 8 112957105.762 8      2455.959 8        49.309    21495026.492 7
  88018579.549 7      1913.717 7        44.741                                  
  22685337.188 7 119212227.576 7     -2191.111 7        46.796    22685347.090 7
  92892683.289 7     -1707.416 7        44.741                                  
  20859598.020 8 109617925.778 8     -1625.447 8        48.603    20859606.320 7
  85416599.122 7     -1266.557 7        44.741                                  
  22729318.063 7 119443369.170 7     -1927.928 7        43.720    22729333.145 7
  93072811.426 7     -1502.748 7        44.741                                  
 22  6 17  4 52 30.0000000  0  8G02G03G06G11G12G17G19G24             0.000000000
  21596827.793 8 113492140.568 8      1858.234 8        48.772    21596836.879 7
  88435486.982 7      1447.943 7        44.741                                  
  24646727.652 6 129519434.355 6     -2158.719 6        38.428    24646744.137 7
 100924301.819 7     -1681.996 7        43.410                                  
  20172440.004 8 106006913.109 8      -425.887 8        51.944    20172453.527 7
  82602825.015 7      -331.977 7        44.741                                  
  21269520.047 8 111772123.335 8      2375.227 8        49.074    21269531.320 7
  87095233.058 7      1850.854 7        44.741                                  
  21481028.938 8 112883601.366 8      2444.426 8        48.096    21481039.297 7
  87961303.438 7      1904.525 7        44.741                                  
  22697855.023 7 119278011.365 7     -2194.480 7        46.428    22697865.383 7
  92943943.326 7     -1710.004 7        44.741                                  
  20868902.016 8 109666815.917 8     -1634.168 8        48.795    20868909.813 7
  85454695.333 7     -1273.461 7        44.741                                  
  22740366.063 6 119501428.488 6     -1942.605 6        41.950    22740381.887 7
  93118052.362 7     -1513.578 7        44.741                                  
 22  6 17  4 53  0.0000000  0  8G02G03G06G11G12G17G19G24             0.000000000
  21586257.297 8 113436593.054 8      1844.609 8        48.724    21586266.199 7
  88392203.251 7      1437.324 7        44.741                                  
  24659094.504 6 129584421.253 6     -2173.613 6        39.079    24659110.430 7
 100974940.892 7     -1694.260 7        44.141                                  
  20174920.922 8 106019948.987 8      -443.301 8        52.405    20174934.059 7
  82612981.854 7      -345.568 7        44.741                                  
  21256000.141 8 111701074.398 8      2361.113 8        49.299    21256010.730 7
  87039870.286 7      1839.863 7        44.741                                  
  21467107.230 8 112810442.595 8      2432.715 8        48.178    21467117.434 7
  87904296.656 7      1895.527 7        44.741                                  
  22710391.586 7 119343892.094 7     -2197.676 7        46.124    22710402.176 7
  92995278.873 7     -1712.189 7        44.741                                  
  20878254.352 8 109715964.917 8     -1642.676 8        48.795    20878262.906 7
  85492993.237 7     -1280.100 7        44.741                                  
  22751495.027 7 119559909.848 7     -1956.738 7        42.775    22751510.164 7
  93163622.160 7     -1524.611 7        44.741                                  
 22  6 17  4 53 30.0000000  0  8G02G03G06G11G12G17G19G24             0.000000000
  21575763.383 8 113381443.840 8      1832.281 8        49.493    21575770.723 7
  88349229.875 7      1427.719 7        44.741                                  
  24671550.961 6 129649880.535 6     -2188.188 6        39.188    24671566.945 7
 101025948.119 7     -1705.758 7        43.565                                  
  20177500.746 8 106033506.311 8      -459.887 8        52.230    20177513.895 7
  82623545.991 7      -358.238 7        44.741                                  
  21242558.961 8 111630441.523 8      2348.238 8        49.361    21242570.410 7
  86984831.726 7      1829.633 7        44.741                                  
  21453251.086 8 112737631.477 8      2422.164 8        48.006    21453261.574 7
  87847560.756 7      1887.230 7        44.741                                  
  22722947.203 7 119409869.306 7     -2200.395 7        46.664    22722957.734 7
  93046689.634 7     -1714.469 7        44.741                                  
  20887656.082 8 109765371.353 8     -1650.531 8        48.504    20887664.738 7
  85531491.732 7     -1286.031 7        44.741                                  
  22762703.719 7 119618810.097 7     -1969.906 7        44.682    22762717.730 7
  93209518.399 7     -1534.820 7        44.741                                  
 22  6 17  4 54  0.0000000  0  8G02G03G06G11G12G17G19G24             0.000000000
  21565343.977 8 113326693.902 8      1818.854 8        48.676    21565353.020 7
  88306567.630 7      1417.270 7        44.741                                  
  24684096.949 6 129715810.230 6     -2205.443 6        40.103    24684112.563 7
 101077321.804 7     -1718.453 7        43.220                                  
  20180179.543 8 106047583.840 8      -477.396 8        52.243    20180192.840 7
  82634516.507 7      -372.027 7        44.741                                  
  21229197.301 8 111560225.955 8      2334.223 8        49.096    21229208.531 7
  86930118.341 7      1818.656 7        44.741                                  
  21439462.578 8 112665170.316 8      2410.082 8        48.034    21439472.180 7
  87791097.531 7      1878.148 7        44.741                                  
  22735520.238 7 119475942.400 7     -2203.666 7        45.494    22735531.027 7
  93098175.114 7     -1717.066 7        44.741                                  
  20897106.707 8 109815034.720 8     -1659.525 8        48.923    20897115.348 7
  85570190.457 7     -1293.219 7        44.741                                  
  22773991.359 7 119678126.736 7     -1983.568 7        44.481    22774005.656 7
  93255739.106 7     -1545.777 7        44.741                                  
 22  6 17  4 54 30.0000000  0  8G02G03G06G11G12G17G19G24             0.000000000
  21555001.750 8 113272343.631 8      1804.756 8        49.193    21555010.836 7
  88264216.822 7      1406.326 7        44.741                                  
  24696731.996 6 129782208.134 6     -2221.631 6        39.788    24696748.035 7
 101129060.411 7     -1730.783 7        43.187                                  
  20182957.414 8 106062180.451 8      -495.322 8        51.998    20182970.668 7
  82645890.487 7      -385.920 7        44.741                                  
  21215915.105 8 111490429.182 8      2319.406 8        48.871    21215926.781 7
  86875731.275 7      1807.420 7        44.741                                  
  21425740.520 7 112593061.600 7      2397.707 7        47.782    21425751.195 7
  87734908.962 7      1868.006 7        44.741                                  
  22748111.496 7 119542111.378 7     -2207.080 7        45.003    22748122.602 7
  93149735.260 7     -1720.021 7        44.741                                  
  20906606.750 8 109864954.696 8     -1668.291 8        48.766    20906614.375 7
  85609089.105 7     -1299.963 7        44.741                                  
  22785357.609 7 119737857.333 7     -1997.979 7        43.070    22785371.945 7
  93302282.337 7     -1556.877 7        44.741                                  
 22  6 17  4 55  0.0000000  0  8G02G03G06G11G12G17G19G24             0.000000000
  21544735.066 8 113218393.440 8      1791.301 8        48.894    21544743.066 7
  88222177.759 7      1395.904 7        44.741                                  
  24709456.891 6 129849072.356 6     -2236.434 6        38.491    24709471.172 6
 101181162.330 6     -1742.533 6        41.867                                  
  20185833.297 8 106077295.011 8      -512.859 8        51.454                  
         0.000 0         0.000 0         0.000                                  
  21202713.320 8 111421052.802 8      2304.992 8        48.676    21202724.996 7
  86821671.802 7      1796.139 7        44.741                                  
  21412086.277 7 112521307.848 7      2385.266 7        47.921    21412096.754 7
  87678996.965 7      1858.678 7        44.741                                  
  22760721.918 7 119608375.780 7     -2211.102 7        45.195    22760731.891 7
  93201369.801 7     -1722.865 7        44.741                                  
  20916154.434 8 109915130.016 8     -1677.195 8        48.830    20916162.730 7
  85648186.742 7     -1306.947 7        44.741                                  
  22796802.402 7 119797999.445 7     -2011.707 7        43.488    22796816.500 7
  93349146.267 7     -1567.748 7        44.741                                  
 22  6 17  4 55 30.0000000  0  8G02G03G06G11G12G17G19G24             0.000000000
  21534544.809 8 113164843.505 8      1778.379 8        49.096    21534553.695 7
  88180450.571 7      1385.707 7        44.741                                  
  24722268.090 6 129916400.405 6     -2252.070 6        37.585    24722283.473 6
 101233625.633 6     -1754.428 6        41.316                                  
  20188807.781 8 106092925.855 8      -529.453 8        51.546    20188821.160 7
  82669846.967 7      -412.670 7        44.741                                  
  21189591.684 8 111352097.601 8      2291.719 8        49.096    21189602.773 7
  86767940.528 7      1785.551 7        44.741                                  
  21398500.023 7 112449911.207 7      2374.082 7        47.906    21398510.266 7
  87623363.246 7      1849.770 7        44.741                                  
  22773349.242 7 119674735.789 7     -2213.867 7        45.222    22773359.832 7
  93253078.812 7     -1724.896 7        44.741                                  
  20925750.641 8 109965560.351 8     -1685.273 8        48.573    20925759.070 7
  85687483.070 7     -1313.236 7        44.741                                  
  22808324.344 7 119858550.088 7     -2025.098 7        43.048    22808339.656 7
  93396328.533 7     -1577.807 7        44.741                                  
 22  6 17  4 56  0.0000000  0  8G02G03G06G11G12G17G19G24             0.000000000
  21524430.984 8 113111694.018 8      1765.779 8        49.074    21524439.371 7
  88139035.415 7      1376.037 7        44.741                                  
  24735168.168 6 129984189.680 6     -2266.506 6        39.188    24735182.191 6
 101286448.432 6     -1765.994 6        40.232                                  
  20191880.164 8 106109071.377 8      -545.861 8        51.601    20191893.332 7
  82682427.899 7      -425.682 7        44.741                                  
  21176550.199 8 111283564.591 8      2277.967 8        48.664    21176561.043 7
  86714538.219 7      1775.002 7        44.741                                  
  21384982.043 8 112378873.814 8      2362.654 8        48.390    21384992.316 7
  87568009.458 7      1841.252 7        44.741                                  
  22785995.477 7 119741190.436 7     -2215.920 7        44.202    22786005.797 7
  93304861.599 7     -1726.697 7        44.741                                  
  20935395.664 8 110016244.653 8     -1692.697 8        48.055    20935404.281 7
  85726977.301 7     -1318.943 7        44.741                                  
  22819924.578 7 119919506.430 7     -2038.088 7        43.795    22819939.559 7
  93443826.888 7     -1588.025 7        44.741                                  
 22  6 17  4 56 30.0000000  0  8G02G03G06G11G12G17G19G24             0.000000000
  21514393.059 8 113058946.010 8      1751.809 8        49.161    21514401.871 7
  88097933.119 7      1365.004 7        44.741                                  
  24748156.734 6 130052438.556 6     -2282.037 6        39.645    24748170.645 7
 101339629.344 7     -1778.336 7        42.177                                  
  20195050.480 8 106125730.768 8      -563.738 8        51.797    20195063.387 7
  82695408.228 7      -439.273 7        44.741                                  
  21163589.047 8 111215455.480 8      2263.410 8        48.968    21163600.422 7
  86661466.230 7      1763.617 7        44.741                                  
  21371533.375 8 112308198.668 8      2349.738 8        48.491    21371543.477 7
  87512937.924 7      1831.293 7        44.741                                  
  22798659.227 7 119807739.988 7     -2219.400 7        44.590    22798669.773 7
  93356718.346 7     -1729.566 7        44.741                                  
  20945088.539 8 110067182.844 8     -1702.037 8        48.305    20945097.754 7
  85766669.362 7     -1326.285 7        44.741                                  
  22831600.992 7 119980866.300 7     -2052.213 7        43.777    22831615.430 7
  93491639.671 7     -1598.785 7        44.741                                  
 22  6 17  4 57  0.0000000  0  8G02G03G06G11G12G17G19G24             0.000000000
  21504432.188 8 113006599.987 8      1737.986 8        49.722    21504440.445 7
  88057144.035 7      1354.254 7        44.741                                  
  24761229.660 6 130121144.981 6     -2298.129 6        39.645    24761246.059 7
 101393166.701 7     -1790.533 7        43.125                                  
  20198318.316 8 106142902.787 8      -581.018 8        51.838    20198331.566 7
  82708791.017 7      -452.760 7        44.741                                  
  21150709.961 8 111147771.699 8      2248.631 8        49.853    21150719.961 7
  86608725.648 7      1752.203 7        44.741                                  
  21358154.039 8 112237887.798 8      2337.518 8        48.597    21358164.156 7
  87458150.259 7      1821.207 7        44.741                                  
  22811341.367 7 119874384.380 7     -2223.324 7        44.512    22811351.582 7
  93408648.991 7     -1733.014 7        44.741                                  
  20954830.285 8 110118373.822 8     -1710.803 8        48.409    20954838.867 7
  85806558.411 7     -1333.150 7        44.741                                  
  22843353.750 7 120042627.211 7     -2065.629 7        44.417    22843367.473 7
  93539765.003 7     -1609.459 7        44.741                                  
 22  6 17  4 57 30.0000000  0  8G02G03G06G11G12G17G19G24             0.000000000
  21494547.199 8 112954656.104 8      1724.648 8        48.766    21494556.602 7
  88016668.331 7      1343.912 7        44.741                                  
  24774391.773 6 130190306.532 6     -2313.088 6        39.834    24774406.168 7
 101447058.782 7     -1802.572 7        42.724                                  
  20201682.926 8 106160585.994 8      -598.264 8        51.158    20201696.574 7
  82722571.137 7      -466.264 7        44.741                                  
  21137910.762 8 111080514.303 8      2234.570 8        48.819    21137922.180 7
  86556317.317 7      1741.275 7        44.741                                  
  21344843.715 8 112167943.466 8      2325.156 8        48.312    21344853.590 7
  87403648.216 7      1811.881 7        44.741                                  
  22824041.578 7 119941123.043 7     -2226.213 7        43.547    22824052.438 7
  93460653.041 7     -1735.268 7        44.741                                  
  20964619.574 7 110169816.771 7     -1719.162 7        47.722    20964628.488 7
  85846643.789 7     -1339.564 7        44.741                                  
  22855182.531 7 120104786.430 7     -2079.064 7        44.219    22855196.781 7
  93588200.671 7     -1620.053 7        44.741                                  
 22  6 17  4 58  0.0000000  0  8G02G03G06G11G12G17G19G24             0.000000000
  21484739.430 8 112903114.645 8      1711.473 8        49.523    21484748.000 7
  87976506.184 7      1333.674 7        44.741                                  
  24787638.109 6 130259920.873 6     -2327.572 6        39.397    24787653.336 6
 101501303.646 6     -1813.592 6        41.959                                  
  20205145.066 8 106178778.827 8      -614.973 8        51.148    20205158.531 7
  82736747.375 7      -479.139 7        44.741                                  
  21125193.500 8 111013684.426 8      2220.125 8        49.182    21125204.961 7
  86504242.126 7      1730.373 7        44.741                                  
  21331603.883 8 112098368.406 8      2312.996 8        48.560    21331614.188 7
  87349433.903 7      1802.268 7        44.741                                  
  22836760.051 7 120007956.052 7     -2229.467 7        44.219    22836771.082 7
  93512730.623 7     -1737.088 7        44.741                                  
  20974456.895 8 110221511.307 8     -1727.338 8        48.364    20974465.621 7
  85886925.211 7     -1345.936 7        44.741                                  
  22867086.809 7 120167341.119 7     -2091.674 7        44.636    22867099.816 7
  93636944.522 7     -1630.486 7        44.741                                  
 22  6 17  4 58 30.0000000  0  8G02G03G06G11G12G17G19G24             0.000000000
  21475007.879 8 112851975.771 8      1698.008 8        48.934    21475016.422 7
  87936657.723 7      1323.258 7        44.741                                  
  24800971.121 6 130329985.478 6     -2343.105 6        40.273    24800986.402 7
 101555899.396 7     -1825.961 7        43.280                                  
  20208703.324 8 106197479.692 8      -631.641 8        50.774    20208717.262 7
  82751318.472 7      -492.289 7        44.741                                  
  21112557.617 8 110947282.945 8      2206.426 8        48.974    21112568.992 7
  86452500.764 7      1719.332 7        44.741                                  
  21318434.695 8 112029164.843 8      2300.762 8        48.151    21318445.398 7
  87295509.067 7      1792.691 7        44.741                                  
  22849495.652 7 120074882.760 7     -2232.305 7        44.512    22849507.156 7
  93564881.212 7     -1739.438 7        44.741                                  
  20984341.816 7 110273456.734 7     -1735.566 7        47.978    20984350.215 7
  85927402.129 7     -1352.309 7        44.741                                  
  22879064.309 7 120230288.437 7     -2104.805 7        43.567    22879078.891 7
  93685994.279 7     -1639.926 7        44.741                                  
 22  6 17  4 59  0.0000000  0  8G02G03G06G11G12G17G19G24             0.000000000
  21465353.668 8 112801240.028 8      1684.184 8        49.834    21465361.852 7
  87897123.416 7      1312.377 7        44.741                                  
  24814390.051 6 130400498.376 6     -2358.590 6        40.556    24814404.977 7
 101610844.403 7     -1837.369 7        42.726                                  
  20212358.523 8 106216687.386 8      -649.000 8        51.345    20212372.316 7
  82766285.499 7      -505.807 7        44.741                                  
  21100003.504 8 110881311.352 8      2191.684 8        49.156    21100015.078 7
  86401094.366 7      1707.729 7        44.741                                  
  21305337.121 8 111960334.956 8      2287.543 8        48.652    21305347.121 7
  87241875.391 7      1782.768 7        44.741                                  
  22862249.348 7 120141903.202 7     -2235.660 7        44.465    22862260.469 7
  93617104.829 7     -1741.939 7        44.741                                  
  20994275.027 8 110325652.661 8     -1743.922 8        48.597    20994282.840 7
  85968074.262 7     -1358.990 7        44.741                                  
  22891117.570 7 120293625.906 7     -2118.355 7        44.030    22891132.355 7
  93735348.070 7     -1650.357 7        44.741                                  
 22  6 17  4 59 30.0000000  0  8G02G03G06G11G12G17G19G24             0.000000000
  21455775.375 8 112750907.396 8      1671.986 8        49.268    21455783.090 7
  87857903.198 7      1302.854 7        44.741                                  
  24827892.344 6 130471456.896 6     -2372.740 6        39.346    24827907.395 6
 101666136.699 6     -1848.203 6        41.278                                  
  20216109.957 8 106236400.171 8      -664.654 8        51.422                  
         0.000 0         0.000 0         0.000                                  
  21087531.750 8 110815770.438 8      2178.256 8        49.513    21087542.910 7
  86350023.562 7      1697.326 7        44.741                                  
  21292310.883 8 111891880.669 8      2276.498 8        48.819    21292320.801 7
  87188534.401 7      1773.654 7        44.741                                  
  22875020.297 7 120209017.142 7     -2237.643 7        44.048    22875031.016 7
  93669401.366 7     -1744.102 7        44.741                                  
  21004254.109 8 110378097.309 8     -1751.490 8        48.331    21004262.566 7
  86008940.175 7     -1364.805 7        44.741                                  
  22903243.461 7 120357350.509 7     -2129.850 7        43.795    22903259.031 7
  93785003.512 7     -1659.336 7        44.741                                  
 22  6 17  5  0  0.0000000  0  8G02G03G06G11G12G17G19G24             0.000000000
  21446273.992 8 112700979.076 8      1657.033 8        48.357    21446283.594 7
  87818998.032 7      1291.270 7        44.741                                  
  24841479.844 6 130542859.48716     -2387.654 6        39.645    24841495.887 7
 101721775.06617     -1860.684 7        42.708                                  
  20219957.047 8 106256617.403 8      -682.713 8        51.182    20219970.340 7
  82797397.783 7      -531.973 7        44.741                                  
  21075142.055 8 110750662.13418      2162.561 8        49.304    21075153.273 7
  86299289.84017      1685.313 7        44.741                                  
  21279355.980 7 111823805.380 7      2262.287 7        47.877    21279366.266 7
  87135488.741 7      1763.066 7        44.741                                  
  22887810.063 7 120276224.58617     -2242.088 7        44.816    22887820.938 7
  93721770.69217     -1747.090 7        44.741                                  
  21014281.484 7 110430791.321 7     -1761.170 7        47.921    21014290.184 7
  86050000.403 7     -1372.285 7        44.741                                  
  22915443.258 7 120421460.335 7     -2143.865 7        43.547    22915458.641 7
  93834959.146 7     -1670.469 7        44.741                                  
 22  6 17  5  0 30.0000000  0  8G02G03G06G11G12G17G19G24             0.000000000
  21436850.148 8 112651454.723 8      1644.369 8        49.582    21436859.164 7
  87780407.678 7      1281.268 7        44.741                                  
  24855151.320 6 130614703.491 6     -2402.525 6        40.015    24855167.574 6
 101777757.283 6     -1871.428 6        41.732                                  
  20223899.992 8 106277337.188 8      -699.166 8        51.817    20223913.227 7
  82813543.057 7      -544.748 7        44.741                                  
  21062834.621 8 110685987.174 8      2148.646 8        49.572    21062846.027 7
  86248893.821 7      1674.178 7        44.741                                  
  21266474.602 8 111756111.094 8      2250.424 8        48.795    21266484.648 7
  87082739.956 7      1753.553 7        44.741                                  
  22900616.691 7 120343525.044 7     -2244.654 7        44.590    22900627.895 7
  93774212.534 7     -1749.553 7        44.741                                  
  21024356.773 8 110483733.431 8     -1768.619 8        48.466    21024364.887 7
  86091253.965 7     -1378.205 7        44.741                                  
  22927715.723 7 120485952.228 7     -2155.924 7        44.012    22927731.020 7
  93885212.497 7     -1679.611 7        44.741                                  
 22  6 17  5  1  0.0000000  0  8G02G03G06G11G12G17G19G24             0.000000000
  21427503.051 8 112602334.974 8      1630.461 8        48.848    21427510.820 7
  87742132.558 7      1270.527 7        44.741                                  
  24868906.129 6 130686986.721 6     -2416.941 6        38.165    24868922.715 6
 101834081.836 6     -1882.949 6        40.135                                  
  20227938.285 8 106298558.176 8      -715.672 8        51.103    20227951.535 7
  82830080.879 7      -557.695 7        44.741                                  
  21050610.090 8 110621746.820 8      2134.289 8        49.423    21050621.195 7
  86198836.427 7      1662.773 7        44.741                                  
  21253666.113 8 111688800.071 8      2237.238 8        48.718    21253675.613 7
  87030289.815 7      1743.398 7        44.741                                  
  22913441.543 7 120410918.563 7     -2248.270 7        43.507    22913451.945 7
  93826726.898 7     -1752.266 7        44.741                                  
  21034478.336 8 110536923.127 8     -1776.844 8        48.842    21034486.680 7
  86132700.445 7     -1384.570 7        44.741                                  
  22940060.648 7 120550823.659 7     -2168.621 7        43.720    22940075.129 7
  93935761.578 7     -1689.922 7        44.741                                  
 22  6 17  5  1 30.0000000  0  8G02G03G06G11G12G17G19G24             0.000000000
  21418232.402 8 112553619.431 8      1616.922 8        48.609    21418241.461 7
  87704172.426 7      1259.953 7        44.741                                  
  24882745.113 6 130759706.344 6     -2431.535 6        40.437    24882761.281 7
 101890746.407 7     -1894.441 7        43.167                                  
  20232071.488 8 106320278.420 8      -732.531 8        51.351    20232084.652 7
  82847003.750 7      -570.750 7        44.741                                  
  21038469.020 8 110557941.705 8      2119.266 8        49.463    21038480.395 7
  86149118.162 7      1651.398 7        44.741                                  
  21240929.922 8 111621874.295 8      2223.738 8        48.622    21240940.152 7
  86978139.885 7      1733.098 7        44.741                                  
  22926283.320 7 120478404.507 7     -2251.730 7        43.663    22926294.797 7
  93879313.245 7     -1754.109 7        44.741                                  
  21044646.582 8 110590359.479 8     -1785.266 8        48.338    21044655.984 7
  86174339.124 7     -1391.102 7        44.741                                  
  22952476.582 7 120616071.358 7     -2181.340 7        43.263    22952492.309 7
  93986603.845 7     -1699.754 7        44.741                                  
 22  6 17  5  2  0.0000000  0  8G02G03G06G11G12G17G19G24             0.000000000
  21409039.656 8 112505309.170 8      1603.760 8        49.074    21409047.910 7
  87666528.075 7      1249.637 7        44.741                                  
  24896665.430 6 130832860.390 6     -2445.908 6        39.241    24896681.742 6
 101947749.495 6     -1905.441 6        41.811                                  
  20236299.043 8 106342496.854 8      -748.955 8        51.199    20236312.566 7
  82864316.807 7      -583.801 7        44.741                                  
  21026409.852 8 110494573.286 8      2105.127 8        49.150    21026421.730 7
  86099740.226 7      1640.145 7        44.741                                  
  21228268.340 8 111555336.447 8      2211.416 8        49.018    21228278.371 7
  86926292.234 7      1723.113 7        44.741                                  
  22939143.328 7 120545983.124 7     -2254.209 7        43.995    22939154.645 7
  93931971.856 7     -1756.418 7        44.741                                  
  21054862.250 8 110644042.292 8     -1793.721 8        48.772    21054871.109 7
  86216169.844 7     -1397.766 7        44.741                                  
  22964964.691 7 120681693.034 7     -2193.506 7        44.742    22964979.832 7
  94037737.542 7     -1709.309 7        44.741                                  
 22  6 17  5  2 30.0000000  0 10G02G03G06G11G12G17G19G20G24G25       0.000000000
  21399923.270 8 112457403.466 8      1590.254 8        48.962    21399932.043 7
  87629198.990 7      1239.105 7        44.741                                  
  24910668.262 6 130906445.989 6     -2459.668 6        39.741    24910684.320 7
 102005088.826 7     -1916.656 7        43.040                                  
  20240621.996 8 106365211.388 8      -765.039 8        51.387    20240634.801 7
  82882015.429 7      -596.285 7        44.741                                  
  21014434.348 8 110431642.117 8      2090.332 8        49.220    21014445.410 7
  86050702.984 7      1629.047 7        44.741                                  
  21215680.973 8 111489188.565 8      2198.574 8        48.945    21215690.488 7
  86874748.443 7      1713.246 7        44.741                                  
  22952021.027 7 120613653.617 7     -2256.836 7        44.012    22952032.977 7
  93984702.062 7     -1758.980 7        44.741                                  
  21065124.375 8 110697969.878 8     -1801.387 8        48.523    21065132.461 7
  86258191.315 7     -1403.668 7        44.741                                  
  23908910.051 6 125642169.862 6      3533.438 6        40.785    23908924.859 5
  97903049.884 5      2753.246 5        31.049                                  
  22977522.871 7 120747685.383 7     -2205.820 7        44.417    22977538.195 7
  94089160.061 7     -1718.746 7        44.741                                  
  24414264.070 6 128297820.372 6      3586.641 6        36.124    24414280.668 5
  99972399.491 5      2793.520 5        34.157                                  
 22  6 17  5  3  0.0000000  0 10G02G03G06G11G12G17G19G20G24G25       0.000000000
  21390884.180 8 112409903.276 8      1576.266 8        48.778    21390893.191 7
  87592185.872 7      1228.203 7        44.741                                  
  24924752.398 6 130980461.310 6     -2474.691 6        38.854    24924769.555 7
 102062763.054 7     -1928.691 7        42.266                                  
  20245038.840 8 106388421.079 8      -782.230 8        51.355                  
         0.000 0         0.000 0         0.000                                  
  21002542.289 8 110369149.856 8      2075.484 8        48.279    21002553.594 7
  86002007.737 7      1617.170 7        44.741                                  
  21203167.609 7 111423433.326 7      2184.703 7        47.467    21203177.813 7
  86823510.603 7      1702.463 7        44.741                                  
  22964915.926 7 120681416.421 7     -2260.629 7        43.346    22964927.070 7
  94037504.127 7     -1761.250 7        44.741                                  
  21075432.887 8 110752142.396 8     -1809.730 8        48.144    21075441.156 7
  86300403.636 7     -1410.156 7        44.741                                  
  23888743.703 6 125536198.561 6      3531.502 6        37.585    23888759.801 5
  97820475.035 5      2751.799 5        31.541                                  
  22990150.758 7 120814046.164 7     -2218.207 7        44.286    22990165.523 7
  94140869.688 7     -1728.613 7        44.741                                  
  24393805.387 6 128190308.357 6      3581.678 6        36.731    24393821.855 6
  99888623.954 6      2790.764 6        36.312                                  
 22  6 17  5  3 30.0000000  0 10G02G03G06G11G12G17G19G20G24G25       0.000000000
  21381922.297 8 112362808.756 8      1562.580 8        49.085    21381930.953 7
  87555488.865 7      1217.633 7        44.741                                  
  24938918.891 6 131054903.852 6     -2488.652 6        39.397    24938935.875 7
 102120770.155 7     -1938.969 7        42.970                                  
  20249548.918 8 106412124.291 8      -798.455 8        51.956    20249562.055 7
  82918571.914 7      -622.074 7        44.741                                  
  20990734.164 8 110307097.425 8      2060.900 8        49.112    20990746.141 7
  85953655.224 7      1606.090 7        44.741                                  
  21190730.313 8 111358073.184 8      2171.877 8        48.370    21190740.441 7
  86772580.650 7      1692.301 7        44.741                                  
  22977827.789 7 120749271.527 7     -2263.672 7        43.905    22977838.594 7
  94090378.197 7     -1763.969 7        44.741                                  
  21085788.125 8 110806559.366 8     -1818.066 8        48.676    21085796.742 7
  86342806.434 7     -1416.684 7        44.741                                  
  23868588.453 6 125430279.396 6      3529.611 6        41.806    23868603.105 5
  97737940.686 5      2750.328 5        33.546                                  
  23002847.840 7 120880772.568 7     -2230.410 7        43.304    23002863.781 7
  94192864.217 7     -1737.992 7        44.741                                  
  24373365.672 6 128082893.744 6      3579.455 6        38.554    24373381.039 6
  99804924.320 6      2788.629 6        38.814                                  
 22  6 17  5  4  0.0000000  0 10G02G03G06G11G12G17G19G20G24G25       0.000000000
  21373037.637 8 112316120.168 8      1549.250 8        49.397    21373045.922 7
  87519108.180 7      1207.133 7        44.741                                  
  24953166.043 6 131129771.090 6     -2502.645 6        39.079    24953182.070 7
 102179108.245 7     -1950.484 7        42.080                                  
  20254153.820 8 106436319.314 8      -814.969 8        52.538    20254166.313 7
  82937425.171 7      -634.996 7        44.741                                  
  20979009.848 8 110245485.707 8      2046.379 8        49.407    20979021.238 7
  85905646.136 7      1594.203 7        44.741                                  
  21178368.230 8 111293110.236 8      2158.605 8        48.688    21178378.117 7
  86721960.176 7      1681.957 7        44.741                                  
  22990757.492 7 120817218.022 7     -2266.941 7        43.026    22990769.168 7
  94143323.399 7     -1765.914 7        44.741                                  
  21096189.824 8 110861219.713 8     -1826.551 8        48.396    21096198.797 7
  86385398.863 7     -1423.355 7        44.741                                  
  23848442.891 6 125324415.024 6      3527.668 6        40.967    23848458.043 5
  97655449.167 5      2748.771 5        34.059                                  
  23015614.563 7 120947861.721 7     -2242.898 7        43.178    23015630.090 7
  94245141.379 7     -1747.320 7        44.741                                  
  24352943.508 6 127975578.678 6      3575.305 6        39.448    24352959.664 6
  99721302.258 6      2785.275 6        40.067                                  
 22  6 17  5  4 30.0000000  0 10G02G03G06G11G12G17G19G20G24G25       0.000000000
  21364230.855 8 112269837.304 8      1536.381 8        49.853    21364238.637 7
  87483043.623 7      1197.098 7        44.741                                  
  24967492.645 6 131205060.803 6     -2516.410 6        38.364    24967509.789 6
 102237775.468 6     -1960.871 6        40.610                                  
  20258851.051 8 106461004.716 8      -830.551 8        52.251    20258864.086 7
  82956662.534 7      -647.199 7        44.741                                  
  20967369.273 8 110184315.883 8      2031.986 8        49.035    20967380.918 7
  85857981.353 7      1583.270 7        44.741                                  
  21166081.738 8 111228546.995 8      2145.834 8        48.013    21166092.500 7
  86671651.180 7      1672.137 7        44.741                                  
  23003704.402 7 120885255.911 7     -2268.793 7        42.656    23003716.223 7
  94196339.876 7     -1768.059 7        44.741                                  
  21106636.777 8 110916123.098 8     -1833.852 8        48.117    21106646.391 7
  86428180.687 7     -1428.957 7        44.741                                  
  23828308.234 6 125218608.108 6      3526.557 6        40.858    23828323.930 5
  97573002.382 5      2747.879 5        33.375                                  
  23028450.004 7 121015310.842 7     -2253.656 7        43.663    23028465.773 7
  94297699.042 7     -1756.496 7        44.741                                  
  24332541.844 6 127868365.492 6      3572.299 6        38.795    24332557.500 6
  99637759.581 6      2783.797 6        40.670                                  
 22  6 17  5  5  0.0000000  0 10G02G03G06G11G12G17G19G20G24G25       0.000000000
  21355500.707 8 112223960.756 8      1522.619 8        49.898    21355509.250 7
  87447295.691 7      1186.539 7        44.741                                  
  24981899.750 6 131280770.679 6     -2530.623 6        36.915    24981915.617 6
 102296770.107 6     -1971.725 6        40.524                                  
  20263641.660 8 106486179.132 8      -847.107 8        52.379    20263654.496 7
  82976277.953 7      -660.180 7        43.507                                  
  20955813.922 8 110123589.133 8      2016.994 8        49.885    20955825.926 7
  85810661.843 7      1571.520 7        44.741                                  
  21153872.172 8 111164385.848 8      2132.111 8        48.298    21153882.945 7
  86621655.521 7      1661.461 7        44.741                                  
  23016669.711 7 120953385.284 7     -2272.381 7        44.253    23016680.473 7
  94249427.641 7     -1770.982 7        44.741                                  
  21117131.461 8 110971269.154 8     -1841.717 8        48.259    21117140.418 7
  86471151.604 7     -1435.006 7        44.741                                  
  23808185.828 7 125112861.448 7      3524.457 7        42.632    23808199.648 5
  97490602.563 5      2746.285 5        34.714                                  
  23041353.785 7 121083117.395 7     -2265.408 7        43.682    23041368.566 7
  94350535.212 7     -1765.494 7        44.741                                  
  24312159.867 6 127761256.626 6      3569.340 6        37.427    24312175.234 6
  99554298.221 6      2781.051 6        39.687                                  
 22  6 17  5  5 30.0000000  0 10G02G03G06G11G12G17G19G20G24G25       0.000000000
  21346847.707 8 112178490.500 8      1509.133 8        49.533    21346856.234 7
  87411864.355 7      1175.832 7        44.741                                  
  24996386.855 6 131356898.083 6     -2544.969 6        38.616    24996402.539 6
 102356090.116 6     -1982.508 6        40.961                                  
  20268524.582 8 106511840.681 8      -863.387 8        52.171                  
         0.000 0         0.000 0         0.000                                  
  20944342.008 8 110063306.168 8      2002.258 8        49.204    20944353.625 7
  85763688.131 7      1559.934 7        44.741                                  
  21141740.316 8 111100628.838 8      2118.547 8        48.842    21141750.277 7
  86571974.749 7      1651.008 7        44.741                                  
  23029652.066 7 121021606.095 7     -2275.340 7        44.368    23029662.840 7
  94302586.636 7     -1772.820 7        44.741                                  
  21127671.520 8 111026656.633 8     -1850.242 8        48.658    21127680.508 7
  86514310.643 7     -1441.727 7        44.741                                  
  23788074.453 7 125007177.759 7      3522.219 7        42.278    23788088.875 5
  97408251.843 5      2744.604 5        34.799                                  
  23054323.688 7 121151278.325 7     -2277.488 7        44.496    23054338.914 7
  94403647.556 7     -1774.754 7        44.741                                  
  24291797.227 6 127654254.168 6      3564.602 6        36.538    24291813.781 6
  99470919.729 6      2778.100 6        40.591                                  
 22  6 17  5  6  0.0000000  0 10G02G03G06G11G12G17G19G20G24G25       0.000000000
  21338272.398 8 112133426.339 8      1495.355 8        49.880    21338280.727 7
  87376749.434 7      1165.275 7        44.741                                  
  25010953.520 6 131433440.332 6     -2558.941 6        39.693    25010966.984 6
 102415733.397 6     -1993.436 6        40.871                                  
  20273500.367 8 106537987.553 8      -879.566 8        52.496    20273513.074 7
  83016646.128 7      -685.311 7        44.741                                  
  20932955.371 8 110003467.762 8      1987.406 8        50.120    20932966.434 7
  85717060.830 7      1548.498 7        44.741                                  
  21129685.156 8 111037278.145 8      2104.867 8        48.778    21129694.816 7
  86522610.598 7      1640.412 7        44.741                                  
  23042651.586 7 121089917.785 7     -2278.277 7        44.831    23042662.102 7
  94355816.464 7     -1775.604 7        44.741                                  
  21138257.078 8 111082284.662 8     -1857.965 8        48.491    21138266.137 7
  86557657.104 7     -1447.635 7        44.741                                  
  23767976.094 7 124901559.228 7      3520.199 7        43.366    23767990.391 6
  97325951.878 6      2742.951 6        36.385                                  
  23067361.414 7 121219790.566 7     -2289.469 7        43.468    23067376.895 7
  94457033.654 7     -1784.158 7        44.741                                  
  24271456.039 6 127547359.895 6      3561.469 6        37.346    24271472.254 6
  99387625.647 6      2775.275 6        40.086                                  
 22  6 17  5  6 30.0000000  0 10G02G03G06G11G12G17G19G20G24G25       0.000000000
  21329774.258 8 112088769.138 8      1481.467 8        49.498    21329783.059 7
  87341951.647 7      1154.496 7        44.741                                  
  25025596.922 6 131510395.407 6     -2572.205 6        39.448    25025612.301 6
 102475698.388 6     -2005.211 6        41.031                                  
  20278568.344 8 106564618.629 8      -896.287 8        52.779    20278581.051 7
  83037399.611 7      -698.316 7        44.741                                  
  20921653.203 8 109944075.354 8      1972.072 8        49.150    20921664.492 7
  85670781.057 7      1536.488 7        44.741                                  
  21117706.879 8 110974336.678 8      2090.256 8        48.252    21117717.738 7
  86473565.327 7      1629.223 7        44.741                                  
  23055667.746 7 121158320.512 7     -2282.088 7        43.720    23055678.848 7
  94409117.190 7     -1778.473 7        44.741                                  
  21148888.754 8 111138153.476 8     -1866.873 8        48.409    21148897.254 7
  86601191.226 7     -1454.723 7        44.741                                  
  23747890.227 7 124796009.160 7      3516.605 7        42.583    23747903.535 5
  97243705.308 5      2740.221 5        35.003                                  
  23080465.004 7 121288651.851 7     -2302.127 7        42.845    23080481.145 7
  94510691.676 7     -1793.414 7        44.741                                  
  24251137.219 6 127440576.760 6      3557.777 6        38.554    24251152.160 6
  99304418.088 6      2771.314 6        41.534                                  
 22  6 17  5  7  0.0000000  0 10G02G03G06G11G12G17G19G20G24G25       0.000000000
  21321354.004 8 112044518.221 8      1468.611 8        50.024    21321362.262 7
  87307470.443 7      1144.457 7        44.741                                  
  25040318.352 6 131587760.403 6     -2584.846 6        37.737    25040333.992 6
 102535982.772 6     -2014.723 6        41.460                                  
  20283728.086 8 106591731.726 8      -911.447 8        52.904    20283740.633 7
  83058527.681 7      -710.289 7        44.741                                  
  20910435.789 8 109885129.346 8      1957.732 8        48.945    20910447.750 7
  85624849.135 7      1525.512 7        44.741                                  
  21105807.773 8 110911806.104 8      2077.615 8        48.298    21105818.352 7
  86424840.236 7      1619.105 7        44.741                                  
  23068702.121 7 121226813.704 7     -2284.611 7        44.786    23068713.027 7
  94462488.408 7     -1779.879 7        44.741                                  
  21159565.980 8 111194261.656 8     -1874.123 8        48.069    21159574.980 7
  86644911.851 7     -1460.309 7        44.741                                  
  23727818.145 7 124690529.624 7      3514.588 7        43.263    23727831.723 5
  97161513.669 5      2738.637 5        35.023                                  
  23093635.316 7 121357858.751 7     -2312.268 7        42.458    23093650.301 7
  94564619.050 7     -1801.773 7        44.741                                  
  24230837.906 6 127333906.409 6      3554.354 6        39.079    24230853.043 7
  99221298.416 7      2770.004 7        42.064                                  
 22  6 17  5  7 30.0000000  0 10G02G03G06G11G12G17G19G20G24G25       0.000000000
  21313010.289 8 112000674.824 8      1454.238 8        49.128    21313018.988 7
  87273306.784 7      1133.158 7        44.741                                  
  25055118.605 6 131665533.730 6     -2599.670 6        38.795    25055134.445 6
 102596585.310 6     -2025.885 6        41.882                                  
  20288978.527 8 106619326.111 8      -928.088 8        52.533    20288991.863 7
  83080029.792 7      -723.521 7        44.741                                  
  20899304.926 8 109826631.628 8      1941.875 8        49.548    20899316.074 7
  85579266.524 7      1513.063 7        44.741                                  
  21093987.641 8 110849689.579 8      2062.539 8        48.466    21093997.699 7
  86376437.752 7      1607.672 7        44.741                                  
  23081753.078 7 121295397.931 7     -2288.322 7        43.995    23081763.410 7
  94515930.584 7     -1783.463 7        44.741                                  
  21170288.258 8 111250609.430 8     -1882.814 8        48.165    21170297.203 7
  86688819.167 7     -1467.115 7        44.741                                  
  23707760.203 7 124585124.268 7      3511.895 7        43.157    23707773.668 6
  97079379.840 6      2736.520 6        36.085                                  
  23106869.859 7 121427409.385 7     -2324.318 7        42.680    23106885.258 7
  94618814.232 7     -1811.197 7        44.741                                  
  24210561.180 6 127227352.139 6      3548.789 6        39.597    24210576.605 7
  99138269.215 7      2765.660 7        42.852                                  
 22  6 17  5  8  0.0000000  0 10G02G03G06G11G12G17G19G20G24G25       0.000000000
  21304744.957 8 111957238.356 8      1441.254 8        49.866    21304753.387 7
  87239460.212 7      1123.020 7        44.741                                  
  25069995.105 6 131743712.206 6     -2612.320 6        38.616    25070010.973 7
 102657503.555 7     -2036.063 7        43.387                                  
  20294320.953 8 106647399.419 8      -943.492 8        52.634    20294333.805 7
  83101904.086 7      -735.281 7        44.741                                  
  20888257.891 8 109768582.347 8      1927.445 8        49.839    20888269.293 7
  85534033.342 7      1502.141 7        44.741                                  
  21082246.750 8 110787988.759 8      2050.004 8        49.199    21082256.809 7
  86328359.225 7      1597.414 7        44.741                                  
  23094820.609 7 121364072.540 7     -2290.875 7        42.959    23094832.184 7
  94569443.177 7     -1784.637 7        44.741                                  
  21181056.730 8 111307195.546 8     -1890.035 8        48.312    21181065.531 7
  86732912.212 7     -1472.879 7        44.741                                  
  23687716.406 7 124479795.104 7      3509.379 7        43.092    23687729.328 5
  96997305.372 5      2734.563 5        34.661                                  
  23120169.914 7 121497300.103 7     -2334.938 7        44.012    23120185.598 7
  94673274.449 7     -1819.949 7        44.741                                  
  24190306.461 6 127120915.392 6      3546.352 6        39.294    24190322.391 7
  99055331.530 7      2763.078 7        43.501                                  
 22  6 17  5  8 30.0000000  0 10G02G03G06G11G12G17G19G20G24G25       0.000000000
  21296556.652 8 111914208.921 8      1427.402 8        49.372    21296564.781 7
  87205930.801 7      1112.238 7        44.741                                  
  25084948.199 6 131822293.487 6     -2627.246 6        37.346    25084964.883 7
 102718735.667 7     -2046.746 7        43.678                                  
  20299753.570 8 106675950.170 8      -959.629 8        52.171    20299766.809 7
  83124152.421 7      -747.820 7        44.741                                  
  20877296.895 8 109710982.597 8      1912.344 8        49.320    20877308.441 7
  85489150.447 7      1490.070 7        44.741                                  
  21070585.176 8 110726705.812 8      2035.723 8        49.063    21070594.691 7
  86280606.316 7      1586.203 7        44.741                                  
  23107906.781 7 121432837.443 7     -2293.750 7        43.284    23107918.258 7
  94623026.123 7     -1787.332 7        44.741                                  
  21191869.887 8 111364019.499 8     -1898.086 8        48.055    21191878.258 7
  86777190.563 7     -1478.973 7        44.741                                  
  23667688.246 7 124374544.981 7      3507.051 7        43.701    23667700.695 5
  96915292.532 5      2732.727 5        35.170                                  
  23133533.828 7 121567528.351 7     -2346.465 7        43.157    23133549.727 7
  94727997.652 7     -1828.621 7        44.741                                  
  24170073.969 6 127014598.690 6      3541.367 6        38.232    24170090.898 7
  98972487.453 7      2759.602 7        43.473                                  
 22  6 17  5  9  0.0000000  0 10G02G03G06G11G12G17G19G20G24G25       0.000000000
  21288446.141 8 111871586.379 8      1413.570 8        49.645    21288453.824 7
  87172718.447 7      1101.488 7        44.741                                  
  25099978.652 6 131901274.955 6     -2640.432 6        37.812    25099995.164 7
 102780279.602 7     -2056.852 7        42.545                                  
  20305277.141 8 106704976.608 8      -975.764 8        51.767    20305290.293 7
  83146769.401 7      -760.445 7        44.741                                  
  20866421.988 8 109653833.202 8      1896.949 8        49.518    20866434.094 7
  85444618.477 7      1478.227 7        44.741                                  
  21059002.820 8 110665843.658 8      2021.324 8        48.383    21059012.582 7
  86233181.268 7      1575.121 7        44.741                                  
  23121008.930 7 121501692.313 7     -2297.873 7        42.533    23121021.063 7
  94676679.173 7     -1790.035 7        44.741                                  
  21202728.355 8 111421080.737 8     -1906.486 8        48.041    21202736.398 7
  86821653.842 7     -1485.621 7        44.741                                  
  23647675.633 7 124269376.532 7      3503.961 7        44.417    23647687.367 6
  96833343.299 6      2730.277 6        36.077                                  
  23146961.941 7 121638091.127 7     -2358.010 7        43.048    23146977.840 7
  94782981.539 7     -1837.672 7        44.741                                  
  24149866.320 6 126908404.179 6      3537.242 6        38.364    24149882.418 7
  98889738.594 7      2756.508 7        43.043                                  
 22  6 17  5  9 30.0000000  0 10G02G03G06G11G12G17G19G20G24G25       0.000000000
  21280412.234 8 111829370.978 8      1400.264 8        49.438    21280421.480 7
  87139823.354 7      1091.074 7        44.741                                  
  25115084.574 6 131980654.035 6     -2653.467 6        40.231    25115100.098 7
 102842133.445 7     -2067.188 7        44.421                                  
  20310891.344 8 106734476.958 8      -991.396 8        52.195    20310904.223 7
  83169756.668 7      -772.480 7        44.741                                  
  20855632.563 8 109597134.919 8      1882.451 8        49.548    20855644.340 7
  85400438.034 7      1466.719 7        44.741                                  
  21047501.656 8 110605403.903 8      2007.529 8        48.825    21047511.473 7
  86186085.353 7      1564.375 7        44.741                                  
  23134129.594 7 121570637.044 7     -2299.912 7        43.887    23134140.426 7
  94730402.266 7     -1792.129 7        44.741                                  
  21213631.953 8 111478378.504 8     -1914.150 8        48.579    21213640.266 7
  86866301.412 7     -1491.406 7        44.741                                  
  23627678.102 7 124164292.485 7      3501.199 7        43.242    23627690.277 5
  96751459.832 5      2728.145 5        34.983                                  
  23160452.496 7 121708985.505 7     -2369.053 7        42.936    23160468.609 7
  94838223.786 7     -1845.840 7        44.741                                  
  24129681.910 6 126802334.130 6      3534.129 6        39.834    24129697.477 7
  98807086.722 7      2753.379 7        44.579                                  
 22  6 17  5 10  0.0000000  0 10G02G03G06G11G12G17G19G20G24G25       0.000000000
  21272456.688 8 111787562.290 8      1387.461 8        49.341    21272464.859 7
  87107245.184 7      1081.195 7        44.741                                  
  25130265.129 6 132060428.160 6     -2665.020 6        40.595    25130281.113 7
 102904295.038 7     -2076.520 7        44.741                                  
  20316595.066 8 106764449.398 8     -1006.465 8        52.288    20316607.832 7
  83193111.799 7      -784.176 7        44.741                                  
  20844929.508 8 109540888.477 8      1868.164 8        49.669    20844940.223 7
  85356609.675 7      1455.531 7        44.741                                  
  21036081.570 8 110545388.919 8      1994.082 8        48.748    21036090.785 7
  86139320.460 7      1554.027 7        44.741                                  
  23147265.938 7 121639671.567 7     -2301.699 7        43.263    23147277.070 7
  94784195.310 7     -1794.059 7        44.741                                  
  21224579.707 8 111535911.859 8     -1921.152 8        48.083    21224588.520 7
  86911132.571 7     -1496.871 7        44.741                                  
  23607697.109 7 124059295.174 7      3499.297 7        43.113    23607710.559 5
  96669643.964 5      2726.801 5        35.753                                  
  23174005.957 7 121780208.482 7     -2378.984 7        42.251    23174021.395 7
  94893722.118 7     -1853.805 7        44.741                                  
  24109521.766 6 126696390.805 6      3529.160 6        40.231    24109536.977 7
  98724533.545 7      2750.805 7        44.741                                  
 22  6 17  5 10 30.0000000  0 10G02G03G06G11G12G17G19G20G24G25       0.000000000
  21264578.203 8 111746160.945 8      1373.609 8        49.948    21264586.734 7
  87074984.414 7      1070.328 7        44.741                                  
  25145520.172 6 132140595.046 6     -2678.129 6        41.175    25145536.828 7
 102966762.700 7     -2087.348 7        44.741                                  
  20322388.156 8 106794892.563 8     -1022.230 8        52.523    20322401.035 7
  83216835.732 7      -796.332 7        44.741                                  
  20834311.957 8 109485095.075 8      1852.652 8        49.397    20834323.789 7
  85313134.336 7      1443.512 7        44.741                                  
  21024741.977 8 110485801.538 8      1979.469 8        48.718    21024751.664 7
  86092888.729 7      1542.379 7        44.741                                  
  23160419.820 7 121708795.893 7     -2305.277 7        43.113    23160431.855 7
  94838058.314 7     -1796.371 7        44.741                                  
  21235573.043 8 111593680.750 8     -1929.418 8        48.383    21235581.500 7
  86956147.277 7     -1503.500 7        44.741                                  
  23587733.508 7 123954387.930 7      3495.680 7        43.263    23587746.617 5
  96587898.276 5      2723.922 5        35.770                                  
  23187621.883 7 121851757.538 7     -2389.730 7        43.366    23187636.906 7
  94949474.534 7     -1862.426 7        44.741                                  
  24089385.742 6 126590576.760 6      3524.938 6        39.971    24089401.340 7
  98642081.150 7      2747.398 7        44.741                                  
 22  6 17  5 11  0.0000000  0 10G02G03G06G11G12G17G19G20G24G25       0.000000000
  21256777.348 8 111705167.199 8      1359.969 8        50.146    21256785.262 7
  87043041.257 7      1059.758 7        44.741                                  
  25160849.410 6 132221152.452 6     -2691.184 6        41.141    25160865.438 7
 103029534.631 7     -2097.098 7        44.741                                  
  20328270.320 8 106825804.952 8     -1037.883 8        52.573    20328283.527 7
  83240923.292 7      -808.641 7        44.741                                  
  20823781.621 8 109429755.785 8      1837.273 8        49.993    20823792.883 7
  85270012.828 7      1431.770 7        44.741                                  
  21013484.734 8 110426643.759 8      1965.066 8        48.548    21013494.750 7
  86046791.782 7      1531.164 7        44.741                                  
  23173590.801 7 121778010.051 7     -2308.195 7        43.026    23173602.406 7
  94891991.274 7     -1798.543 7        44.741                                  
  21246611.238 8 111651684.642 8     -1937.023 8        48.900    21246618.895 7
  87001345.075 7     -1509.383 7        44.741                                  
  23567788.297 7 123849573.389 7      3492.760 7        44.012    23567801.332 5
  96506224.793 5      2721.594 5        35.668                                  
  23201298.836 7 121923629.977 7     -2400.734 7        42.680    23201314.332 7
  95005478.921 7     -1870.750 7        44.741                                  
  24069274.973 6 126484894.603 6      3521.139 6        39.971    24069290.957 7
  98559731.536 7      2743.430 7        44.741                                  
 22  6 17  5 11 30.0000000  0 10G02G03G06G11G12G17G19G20G24G25       0.000000000
  21249053.914 8 111664580.499 8      1346.475 8        50.107    21249062.387 7
  87011415.271 7      1049.150 7        44.741                                  
  25176252.637 6 132302097.379 6     -2703.953 6        40.477    25176268.934 7
 103092608.604 7     -2107.119 7        44.741                                  
  20334241.789 8 106857184.390 8     -1053.621 8        52.251    20334254.910 7
  83265373.775 7      -820.928 7        44.741                                  
  20813337.152 8 109374870.928 8      1822.275 8        49.975    20813348.215 7
  85227245.428 7      1420.049 7        44.741                                  
  21002309.211 8 110367917.635 8      1951.045 8        48.090    21002319.613 7
  86001031.185 7      1519.834 7        44.741                                  
  23186779.109 7 121847313.291 7     -2311.219 7        43.284    23186790.613 7
  94945993.736 7     -1801.064 7        44.741                                  
  21257693.520 8 111709922.560 8     -1944.793 8        48.616    21257701.461 7
  87046725.234 7     -1515.439 7        44.741                                  
  23547860.844 7 123744853.959 7      3489.072 7        43.795    23547874.320 6
  96424625.425 6      2718.701 6        36.563                                  
  23215036.188 7 121995822.456 7     -2411.219 7        42.891    23215052.297 7
  95061732.714 7     -1879.033 7        44.741                                  
  24049189.543 6 126379346.188 6      3516.611 6        39.024    24049205.156 7
  98477486.167 7      2739.756 7        44.567                                  
 22  6 17  5 12  0.0000000  0 10G02G03G06G11G12G17G19G20G24G25       0.000000000
  21241408.109 8 111624401.299 8      1332.307 8        50.315    21241416.324 7
  86980106.829 7      1038.207 7        44.741                                  
  25191729.344 6 132383427.487 6     -2717.791 6        39.971    25191744.852 7
 103155982.640 7     -2117.242 7        44.735                                  
  20340302.188 8 106889029.352 8     -1069.139 8        52.730    20340315.035 7
  83290190.024 7      -833.180 7        44.741                                  
  20802979.469 8 109320441.503 8      1806.760 8        49.412    20802991.246 7
  85184832.928 7      1407.563 7        44.741                                  
  20991216.605 7 110309625.714 7      1935.529 7        47.978    20991226.422 7
  85955608.913 7      1508.109 7        44.741                                  
  23199983.801 7 121916705.885 7     -2315.174 7        42.775    23199996.063 7
  95000065.754 7     -1803.883 7        44.741                                  
  21268819.656 8 111768393.912 8     -1953.299 8        48.848    21268828.445 7
  87092287.304 7     -1522.086 7        44.741                                  
  23527951.488 7 123640232.748 7      3485.783 7        43.199    23527965.523 6
  96343102.623 6      2716.254 6        36.038                                  
  23228834.422 7 122068332.346 7     -2422.381 7        42.607    23228850.492 7
  95118233.820 7     -1887.516 7        44.741                                  
  24029130.516 6 126273934.112 6      3511.115 6        39.971    24029145.668 7
  98395346.949 7      2736.410 7        44.741                                  
 22  6 17  5 12 30.0000000  0 10G02G03G06G11G12G17G19G20G24G25       0.000000000
  21233839.723 8 111584629.402 8      1318.521 8        50.584    21233848.035 7
  86949115.765 7      1027.328 7        44.741                                  
  25207279.172 6 132465140.16416     -2730.443 6        40.556    25207294.582 7
 103219654.86317     -2127.203 7        43.942                                  
  20346449.875 8 106921338.112 8     -1084.975 8        52.568    20346462.738 7
  83315363.658 7      -845.309 7        44.741                                  
  20792708.648 8 109266468.38418      1791.236 8        49.717    20792720.438 7
  85142775.95817      1395.824 7        44.741                                  
  20980206.859 8 110251770.196 8      1921.178 8        48.279    20980217.148 7
  85910526.704 7      1496.977 7        44.741                                  
  23213206.668 7 121986187.66817     -2317.943 7        43.325    23213217.387 7
  95054207.27117     -1806.070 7        44.741                                  
  21279990.301 7 111827098.490 7     -1960.932 7        47.789    21279999.676 7
  87138031.090 7     -1528.043 7        44.741                                  
  23508061.598 7 123535712.25617      3482.193 7        43.605    23508076.035 5
  96261658.25515      2713.500 5        35.886                                  
  23242691.617 6 122141156.749 6     -2433.197 6        41.374    23242708.719 7
  95174979.999 7     -1895.504 7        44.741                                  
  24009097.531 6 126168660.692 6      3506.588 6        40.748    24009112.930 7
  98313315.812 7      2732.348 7        44.741                                  
 22  6 17  5 13  0.0000000  0 10G02G03G06G11G12G17G19G20G24G25       0.000000000
  21226348.766 8 111545264.420 8      1306.182 8        50.282    21226357.238 7
  86918441.758 7      1017.820 7        44.741                                  
  25222901.426 6 132547232.589 6     -2741.318 6        40.967    25222916.293 7
 103283622.974 7     -2136.223 7        44.741                                  
  20352686.297 8 106954108.606 8     -1099.189 8        52.605    20352699.047 7
  83340901.099 7      -856.770 7        44.741                                  
  20782524.703 8 109212951.990 8      1777.217 8        49.568    20782536.320 7
  85101074.911 7      1384.695 7        44.741                                  
  20969281.266 8 110194353.261 8      1906.846 8        48.766    20969291.711 7
  85865786.237 7      1485.867 7        44.741                                  
  23226444.867 7 122055758.351 7     -2319.170 7        43.178    23226456.441 7
  95108418.118 7     -1807.961 7        44.741                                  
  21291206.039 8 111886035.140 8     -1967.686 8        48.298    21291214.797 7
  87183955.698 7     -1533.234 7        44.741                                  
  23488192.043 7 123431294.967 7      3479.324 7        44.168    23488205.969 6
  96180294.335 6      2711.141 6        36.969                                  
  23256609.789 6 122214292.442 6     -2442.842 6        41.656    23256625.859 7
  95231968.751 7     -1903.352 7        44.741                                  
  23989090.613 6 126063528.021 6      3502.898 6        39.294    23989107.109 7
  98231394.361 7      2729.461 7        44.454                                  
 22  6 17  5 13 30.0000000  0 10G02G03G06G11G12G17G19G20G24G25       0.000000000
  21218934.859 8 111506306.386 8      1291.682 8        49.984    21218943.504 7
  86888084.882 7      1006.434 7        44.741                                  
  25238593.859 6 132629702.288 6     -2755.701 6        37.885    25238610.699 7
 103347885.014 7     -2147.316 7        42.704                                  
  20359009.359 8 106987339.071 8     -1115.174 8        52.034    20359022.496 7
  83366793.957 7      -868.977 7        44.741                                  
  20772428.250 8 109159893.103 8      1760.842 8        49.806    20772439.711 7
  85059730.339 7      1372.234 7        44.741                                  
  20958439.449 8 110137376.690 8      1891.740 8        49.289    20958449.180 7
  85821388.928 7      1474.129 7        44.741                                  
  23239700.301 7 122125417.929 7     -2323.416 7        42.798    23239712.809 7
  95162698.194 7     -1810.480 7        44.741                                  
  21302465.629 8 111945203.248 8     -1976.170 8        48.027    21302474.012 7
  87230060.685 7     -1539.914 7        44.741                                  
  23468341.734 7 123326984.053 7      3474.670 7        43.113    23468355.699 6
  96099013.278 6      2707.547 6        36.282                                  
  23270586.406 7 122287736.585 7     -2453.240 7        43.003    23270601.402 7
  95289197.834 7     -1911.535 7        44.741                                  
  23969112.375 6 125958538.441 6      3497.541 6        40.189    23969127.344 7
  98149584.418 7      2724.969 7        44.371                                  
 22  6 17  5 14  0.0000000  0 10G02G03G06G11G12G17G19G20G24G25       0.000000000
  21211599.535 8 111467755.492 8      1278.563 8        50.751    21211607.820 7
  86858045.233 7       996.244 7        44.741                                  
  25254359.148 6 132712546.783 6     -2767.650 6        37.737    25254374.605 6
 103412439.161 6     -2156.590 6        41.059                                  
  20365420.160 8 107021028.059 8     -1130.561 8        51.992    20365433.270 7
  83393045.095 7      -880.613 7        44.741                                  
  20762418.539 8 109107292.758 8      1746.160 8        49.533    20762429.699 7
  85018743.075 7      1360.463 7        44.741                                  
  20947681.367 8 110080843.252 8      1877.625 8        49.665    20947691.184 7
  85777336.926 7      1462.689 7        44.741                                  
  23252974.363 7 122195166.279 7     -2326.361 7        43.586    23252985.652 7
  95217047.446 7     -1812.840 7        44.741                                  
  21313769.027 8 112004602.670 8     -1983.490 8        48.069    21313777.672 7
  87276345.907 7     -1545.555 7        44.741                                  
  23448512.195 7 123222782.062 7      3471.629 7        43.346    23448525.930 5
  96017817.082 5      2705.170 5        35.902                                  
  23284620.574 7 122361486.466 7     -2463.100 7        42.171    23284635.055 7
  95346665.185 7     -1919.070 7        44.741                                  
  23949161.352 6 125853694.746 6      3492.215 6        41.175    23949175.805 7
  98067888.071 7      2721.166 7        44.590                                  
 22  6 17  5 14 30.0000000  0 10G02G03G06G11G12G17G19G20G24G25       0.000000000
  21204340.648 8 111429611.216 8      1265.049 8        50.198    21204348.434 7
  86828322.439 7       985.834 7        44.741                                  
  25270194.727 6 132795763.455 6     -2778.391 6        37.346    25270210.785 6
 103477283.313 6     -2166.158 6        40.923                                  
  20371917.703 8 107055173.580 8     -1145.168 8        52.029                  
         0.000 0         0.000 0         0.000                                  
  20752496.426 8 109055151.518 8      1730.830 8        50.112    20752507.945 7
  84978113.548 7      1348.959 7        44.741                                  
  20937008.023 8 110024754.888 8      1862.881 8        49.553    20937017.723 7
  85733631.706 7      1451.498 7        44.741                                  
  23266262.906 7 122265003.129 7     -2328.801 7        42.845    23266274.984 7
  95271465.666 7     -1814.479 7        44.741                                  
  21325115.668 7 112064232.416 7     -1990.500 7        47.646    21325124.586 7
  87322810.616 7     -1551.021 7        44.741                                  
  23428704.434 7 123118691.624 7      3468.213 7        43.547    23428718.414 6
  95936707.800 6      2702.494 6        36.356                                  
  23298711.719 7 122435538.991 7     -2472.609 7        42.845    23298727.102 7
  95404368.381 7     -1927.057 7        44.741                                  
  23929238.117 6 125748999.018 6      3488.057 6        39.693    23929253.500 7
  97986307.054 7      2717.592 7        43.827                                  
 22  6 17  5 15  0.0000000  0 10G02G03G06G11G12G17G19G20G24G25       0.000000000
  21197159.773 8 111391874.345 8      1251.061 8        51.131    21197167.617 7
  86798917.101 7       974.801 7        44.741                                  
  25286100.305 6 132879349.983 6     -2792.006 6        37.662    25286116.516 6
 103542415.663 6     -2175.902 6        40.905                                  
  20378502.129 8 107089774.078 8     -1160.697 8        52.257    20378515.465 7
  83446613.411 7      -904.535 7        44.741                                  
  20742661.766 8 109003470.282 8      1715.084 8        49.783    20742673.230 7
  84937842.482 7      1336.598 7        44.741                                  
  20926419.699 8 109969114.398 8      1846.646 8        49.921    20926430.059 7
  85690275.481 7      1439.410 7        44.741                                  
  23279569.504 7 122334928.670 7     -2332.670 7        44.202    23279581.621 7
  95325953.006 7     -1817.543 7        44.741                                  
  21336506.551 7 112124092.355 7     -1998.998 7        47.767    21336515.566 7
  87369454.697 7     -1557.602 7        44.741                                  
  23408918.305 7 123014715.885 7      3463.795 7        43.407    23408932.641 5
  95855687.910 5      2699.039 5        35.861                                  
  23312860.555 7 122509891.563 7     -2483.002 7        42.433    23312876.379 7
  95462305.367 7     -1935.004 7        44.741                                  
  23909344.094 6 125644453.930 6      3482.740 6        40.517    23909359.477 7
  97904843.430 7      2713.492 7        44.495                                  
 22  6 17  5 15 30.0000000  0 10G02G03G06G11G12G17G19G20G24G25       0.000000000
  21190055.402 8 111354543.952 8      1237.271 8        50.151    21190064.746 7
  86769828.505 7       964.170 7        44.741                                  
  25302075.227 5 132963303.367 5     -2805.541 5        35.901    25302093.000 6
 103607833.843 6     -2185.713 6        39.734                                  
  20385172.070 8 107124827.442 8     -1176.615 8        52.006    20385185.777 7
  83473928.703 7      -916.572 7        44.741                                  
  20732914.488 8 108952249.466 8      1699.303 8        49.225    20732926.449 7
  84897930.179 7      1324.248 7        44.741                                  
  20915917.324 8 109913923.383 8      1831.979 8        49.989    20915927.168 7
  85647269.521 7      1427.588 7        44.741                                  
  23292892.789 7 122404942.379 7     -2335.209 7        43.242    23292904.938 7
  95380509.015 7     -1820.029 7        44.741                                  
  21347942.027 8 112184181.496 8     -2007.025 8        48.245    21347950.426 7
  87416277.362 7     -1563.936 7        44.741                                  
  23389154.875 7 122910857.226 7      3459.615 7        43.070    23389168.613 5
  95774759.236 5      2695.791 5        35.591                                  
  23327066.004 6 122584540.905 6     -2493.646 6        41.978    23327081.773 7
  95520473.573 7     -1943.096 7        44.741                                  
  23889478.500 6 125540061.594 6      3477.252 6        40.895    23889494.023 7
  97823498.832 7      2709.189 7        44.741                                  
 22  6 17  5 16  0.0000000  0 10G02G03G06G11G12G17G19G20G24G25       0.000000000
  21183029.668 8 111317620.023 8      1224.262 8        51.458    21183038.082 7
  86741056.639 7       953.996 7        44.741                                  
  25318121.348 6 133047620.920 6     -2816.639 6        37.956    25318137.703 6
 103673535.810 6     -2194.363 6        40.804                                  
  20391928.379 8 107160331.758 8     -1190.445 8        51.592    20391941.813 7
  83501593.397 7      -927.566 7        44.741                                  
  20723255.148 8 108901489.642 8      1684.594 8        49.889    20723266.836 7
  84858377.100 7      1312.785 7        44.741                                  
  20905500.738 8 109859183.948 8      1817.309 8        50.020    20905509.883 7
  85604615.409 7      1416.203 7        44.741                                  
  23306232.613 7 122475044.031 7     -2337.379 7        43.941    23306244.906 7
  95435133.610 7     -1821.668 7        44.741                                  
  21359419.797 8 112244498.506 8     -2013.863 8        48.013    21359428.223 7
  87463277.570 7     -1569.246 7        44.741                                  
  23369413.992 7 122807117.941 7      3456.469 7        44.012    23369427.258 6
  95693923.594 6      2693.391 6        36.577                                  
  23341327.625 7 122659483.984 7     -2502.535 7        42.533    23341342.734 7
  95578870.675 7     -1950.027 7        44.741                                  
  23869642.746 6 125435824.307 6      3472.367 6        40.231    23869657.715 7
  97742275.023 7      2705.969 7        44.741                                  
 22  6 17  5 16 30.0000000  0 10G02G03G06G11G12G17G19G20G24G25       0.000000000
  21176080.121 8 111281102.854 8      1210.063 8        50.517    21176089.090 7
  86712601.729 7       942.850 7        44.741                                  
  25334233.496 5 133132300.527 5     -2829.059 5        34.253    25334251.184 6
 103739519.875 6     -2203.654 6        37.340                                  
  20398770.457 8 107196285.736 8     -1206.031 8        51.847    20398783.965 7
  83529610.472 7      -939.787 7        44.741                                  
  20713684.582 8 108851192.065 8      1668.754 8        50.995    20713695.859 7
  84819184.190 7      1300.389 7        44.741                                  
  20895170.500 8 109804898.880 8      1802.016 8        50.077    20895180.230 7
  85562315.372 7      1403.963 7        44.741                                  
  23319589.957 7 122545234.220 7     -2341.578 7        44.202    23319601.918 7
  95489827.137 7     -1824.475 7        44.741                                  
  21370941.125 8 112305044.046 8     -2022.203 8        48.069    21370950.355 7
  87510455.875 7     -1575.725 7        44.741                                  
  23349696.211 7 122703501.707 7      3451.664 7        43.959    23349709.977 6
  95613183.835 6      2689.627 6        36.215                                  
  23355644.539 7 122734718.382 7     -2513.063 7        42.483    23355659.824 7
  95637494.749 7     -1957.912 7        44.741                                  
  23849836.531 6 125331744.986 6      3466.625 6        40.356    23849852.531 7
  97661174.354 7      2700.936 7        44.741                                  
 22  6 17  5 17  0.0000000  0 10G02G03G06G11G12G17G19G20G24G25       0.000000000
  21169208.500 8 111244991.897 8      1196.967 8        50.356    21169217.188 7
  86684463.348 7       932.678 7        44.741                                  
  25350416.703 6 133217339.064 6     -2840.904 6        36.438    25350433.219 6
 103805783.605 6     -2213.299 6        38.696                                  
  20405697.480 8 107232687.001 8     -1220.631 8        51.738    20405710.871 7
  83557975.088 7      -951.248 7        44.741                                  
  20704200.680 8 108801356.777 8      1653.842 8        50.421    20704211.867 7
  84780351.520 7      1288.557 7        44.741                                  
  20884927.207 8 109751069.920 8      1786.771 8        50.389    20884937.125 7
  85520370.722 7      1392.307 7        44.741                                  
  23332963.270 7 122615512.598 7     -2344.244 7        43.468    23332976.203 7
  95544589.406 7     -1826.873 7        44.741                                  
  21382505.328 7 112365817.317 7     -2029.752 7        47.246    21382514.727 7
  87557811.630 7     -1581.580 7        44.741                                  
  23330002.840 7 122600010.593 7      3447.592 7        44.065    23330015.859 6
  95532541.559 6      2686.469 6        36.282                                  
  23370016.063 7 122810240.604 7     -2522.408 7        42.632    23370031.203 7
  95696343.122 7     -1965.057 7        44.741                                  
  23830061.887 6 125227825.590 6      3460.736 6        40.634    23830076.883 7
  97580198.235 7      2697.211 7        44.741                                  
 22  6 17  5 17 30.0000000  0 10G02G03G06G11G12G17G19G20G24G25       0.000000000
  21162414.207 8 111209286.861 8      1183.363 8        50.649    21162422.234 7
  86656641.250 7       922.064 7        44.741                                  
  25366667.648 6 133302733.646 6     -2851.793 6        36.438    25366683.777 6
 103872324.756 6     -2222.896 6        38.317                                  
  20412709.121 8 107269533.534 8     -1235.621 8        51.393    20412722.844 7
  83586688.651 7      -962.838 7        44.741                                  
  20694805.832 8 108751984.251 8      1638.168 8        50.389    20694816.707 7
  84741879.431 7      1276.418 7        44.741                                  
  20874771.395 8 109697699.274 8      1771.684 8        50.433    20874780.598 7
  85478783.217 7      1380.344 7        44.741                                  
  23346353.660 7 122685878.667 7     -2347.184 7        43.795    23346365.980 7
  95599419.989 7     -1828.600 7        44.741                                  
  21394113.367 7 112426817.431 7     -2037.164 7        46.683    21394122.426 7
  87605344.137 7     -1587.369 7        44.741                                  
  23310332.703 7 122496647.251 7      3443.070 7        43.284    23310346.109 5
  95451998.844 5      2682.863 5        35.063                                  
  23384441.012 6 122886047.517 6     -2530.934 6        41.978    23384457.039 7
  95755413.357 7     -1972.389 7        44.741                                  
  23810317.055 6 125124068.251 6      3454.828 6        38.854    23810332.410 7
  97499348.448 7      2692.961 7        44.741                                  
 22  6 17  5 18  0.0000000  0 10G02G03G06G11G12G17G19G20G24G25       0.000000000
  21155696.520 8 111173987.899 8      1170.150 8        50.282    21155705.363 7
  86629135.580 7       911.828 7        44.741                                  
  25382983.473 5 133388481.964 5     -2863.775 5        34.082    25383000.543 5
 103939141.417 5     -2231.861 5        35.236                                  
  20419805.246 8 107306823.978 8     -1250.299 8        51.185    20419818.996 7
  83615746.118 7      -974.322 7        44.741                                  
  20685498.324 8 108703075.570 8      1622.416 8        50.352    20685510.117 7
  84703768.789 7      1264.367 7        44.741                                  
  20864703.070 8 109644789.456 8      1756.068 8        50.278    20864712.672 7
  85437554.787 7      1367.961 7        44.741                                  
  23359761.141 7 122756332.523 7     -2349.830 7        44.151    23359772.117 7
  95654318.997 7     -1830.670 7        44.741                                  
  21405765.395 7 112488043.871 7     -2044.400 7        47.499    21405773.465 7
  87653052.988 7     -1593.092 7        44.741                                  
  23290688.668 7 122393414.861 7      3438.607 7        44.727    23290701.000 5
  95371558.146 5      2679.348 5        35.141                                  
  23398920.965 7 122962136.664 7     -2541.158 7        42.704    23398936.848 7
  95814703.507 7     -1980.064 7        44.741                                  
  23790604.906 6 125020475.921 6      3450.951 6        41.309    23790619.730 7
  97418627.260 7      2688.801 7        44.741                                  
 22  6 17  5 18 30.0000000  0 10G02G03G06G11G12G17G19G20G24G25       0.000000000
  21149057.289 8 111139094.601 8      1156.723 8        51.023    21149065.590 7
  86601946.024 7       901.266 7        44.741                                  
  25399369.020 5 133474582.594 5     -2874.432 5        35.418    25399386.105 6
 104006233.195 6     -2240.631 6        36.994                                  
  20426985.547 8 107344556.038 8     -1264.645 8        51.239    20426998.867 7
  83645144.716 7      -985.375 7        44.741                                  
  20676279.719 8 108654630.939 8      1607.582 8        50.298    20676291.109 7
  84666019.753 7      1252.496 7        44.741                                  
  20854722.359 8 109592342.195 8      1740.844 8        50.381    20854732.445 7
  85396686.799 7      1356.559 7        44.741                                  
  23373184.258 7 122826873.795 7     -2352.850 7        43.092    23373197.234 7
  95709286.104 7     -1832.955 7        44.741                                  
  21417458.813 7 112549495.568 7     -2051.814 7        47.515    21417467.414 7
  87700937.402 7     -1598.832 7        44.741                                  
  23271068.566 7 122290315.892 7      3434.672 7        42.583    23271082.203 5
  95291221.400 5      2676.363 5        33.710                                  
  23413452.898 7 123038504.710 7     -2550.271 7        42.775    23413468.953 7
  95874210.975 7     -1986.803 7        44.741                                  
  23770923.277 6 124917050.664 6      3445.766 6        40.477    23770938.402 7
  97338036.235 7      2684.391 7        44.741                                  
 22  6 17  5 19  0.0000000  0 10G02G03G06G11G12G17G19G20G24G25       0.000000000
  21142493.949 8 111104607.547 8      1142.328 8        50.376    21142502.723 7
  86575073.014 7       890.211 7        44.741                                  
  25415819.727 5 133561031.475 5     -2888.080 5        34.253    25415836.121 5
 104073595.938 5     -2250.453 5        34.393                                  
  20434249.320 8 107382728.683 8     -1280.072 8        51.315    20434263.113 7
  83674891.620 7      -997.309 7        44.741                                  
  20667149.598 8 108606651.753 8      1591.410 8        50.556    20667161.145 7
  84628633.405 7      1239.898 7        44.741                                  
  20844830.984 8 109540360.027 8      1724.691 8        50.898    20844840.457 7
  85356181.212 7      1343.980 7        44.741                                  
  23386624.023 7 122897503.159 7     -2356.654 7        42.751    23386636.785 7
  95764321.833 7     -1835.688 7        44.741                                  
  21429195.355 7 112611172.983 7     -2060.053 7        47.395    21429204.715 7
  87748997.681 7     -1605.199 7        44.741                                  
  23251475.848 7 122187353.529 7      3429.574 7        42.981    23251488.426 5
  95210991.128 5      2672.438 5        33.059                                  
  23428037.828 7 123115149.456 7     -2559.662 7        42.868    23428053.883 7
  95933934.034 7     -1994.613 7        44.741                                  
  23751274.609 6 124813795.730 6      3439.379 6        41.175    23751289.980 7
  97257577.926 7      2679.410 7        44.741                                  
 22  6 17  5 19 30.0000000  0 10G02G03G06G11G12G17G19G20G24G25       0.000000000
  21136008.449 8 111070525.716 8      1129.438 8        50.107    21136017.352 7
  86548515.777 7       880.092 7        44.741                                  
  25432336.969 6 133647826.198 6     -2899.195 6        37.093    25432351.805 6
 104141228.261 6     -2258.387 6        37.682                                  
  20441596.949 8 107421339.271 8     -1294.039 8        50.952    20441610.313 7
  83704977.787 7     -1008.463 7        44.741                                  
  20658108.191 8 108559137.870 8      1576.275 8        50.445    20658119.395 7
  84591609.621 7      1228.334 7        44.741                                  
  20835027.613 8 109488844.584 8      1709.459 8        50.521    20835037.188 7
  85316039.332 7      1331.928 7        44.741                                  
  23400081.816 7 122968219.851 7     -2358.512 7        43.644    23400095.066 7
  95819425.642 7     -1837.525 7        44.741                                  
  21440975.113 7 112673074.945 7     -2066.773 7        47.313    21440984.441 7
  87797232.925 7     -1610.494 7        44.741                                  
  23231909.027 7 122084530.153 7      3424.928 7        42.607    23231921.578 5
  95130869.134 5      2668.783 5        33.027                                  
  23442675.559 7 123192067.228 7     -2568.238 7        42.751    23442690.598 7
  95993869.847 7     -2001.648 7        44.741                                  
  23731658.566 6 124710712.883 6      3433.287 6        40.858    23731674.121 7
  97177253.680 7      2675.385 7        44.741                                  
 22  6 17  5 20  0.0000000  0 10G02G03G06G11G12G17G19G20G24G25       0.000000000
  21129600.297 8 111036848.954 8      1115.975 8        50.356    21129608.594 7
  86522274.161 7       869.705 7        44.741                                  
  25448918.820 6 133734964.032 6     -2910.414 6        36.124    25448934.457 6
 104209127.892 6     -2268.420 6        37.495                                  
  20449027.355 8 107460386.000 8     -1308.461 8        51.114    20449040.418 7
  83735402.795 7     -1019.709 7        44.741                                  
  20649155.289 8 108512089.853 8      1560.721 8        51.016    20649166.391 7
  84554948.854 7      1216.053 7        44.741                                  
  20825313.465 8 109437798.237 8      1693.807 8        49.862    20825323.465 7
  85276262.978 7      1319.686 7        44.741                                  
  23413554.711 7 123039023.763 7     -2361.488 7        42.198    23413567.801 7
  95874597.398 7     -1840.412 7        44.741                                  
  21452797.297 7 112735200.741 7     -2074.848 7        47.162    21452806.500 7
  87845642.594 7     -1616.721 7        44.741                                  
  23212369.473 7 121981848.271 7      3420.271 7        42.458    23212382.508 5
  95050857.396 5      2665.252 5        33.895                                  
  23457363.445 7 123269255.026 7     -2576.762 7        42.034    23457380.102 7
  96054016.093 7     -2008.244 7        44.741                                  
  23712075.652 6 124607804.520 6      3427.186 6        41.276    23712091.594 7
  97097065.414 7      2670.760 7        44.741                                  
 22  6 17  5 20 30.0000000  0 10G02G03G06G11G12G17G19G20G24G25       0.000000000
  21123268.820 8 111003577.300 8      1102.152 8        50.223    21123277.020 7
  86496348.222 7       858.775 7        44.741                                  
  25465564.473 5 133822442.621 5     -2921.383 5        35.544    25465581.215 6
 104277292.952 6     -2276.557 6        37.698                                  
  20456540.453 8 107499867.181 8     -1323.492 8        51.030    20456553.676 7
  83766167.334 7     -1031.205 7        44.741                                  
  20640291.230 8 108465508.510 8      1544.770 8        50.833    20640302.160 7
  84518651.705 7      1203.971 7        44.741                                  
  20815689.586 8 109387223.333 8      1677.738 8        49.889    20815699.688 7
  85236853.966 7      1307.467 7        44.741                                  
  23427045.473 6 123109915.130 6     -2364.488 6        41.921    23427058.566 7
  95929837.305 7     -1842.768 7        44.741                                  
  21464662.680 7 112797549.851 7     -2082.027 7        47.499    21464671.008 7
  87894226.263 7     -1622.416 7        44.741                                  
  23192857.227 6 121879310.965 6      3414.906 6        41.209    23192870.590 5
  94970958.310 5      2660.924 5        34.809                                  
  23472102.688 6 123346710.241 6     -2586.734 6        41.950    23472119.227 7
  96114370.650 7     -2015.307 7        44.741                                  
  23692526.777 6 124505073.387 6      3421.996 6        40.931    23692542.574 7
  97017015.297 7      2665.592 7        44.741                                  
 22  6 17  5 21  0.0000000  0  9G02G06G11G12G17G19G20G24G25          0.000000000
  21117014.484 8 110970710.405 8      1088.660 8        50.638    21117023.113 7
  86470737.673 7       848.291 7        44.741                                  
  20464135.984 8 107539780.891 8     -1338.020 8        50.634    20464149.133 7
  83797269.910 7     -1042.314 7        44.741                                  
  20631515.613 8 108419394.280 8      1529.324 8        50.653    20631526.887 7
  84482718.569 7      1191.709 7        44.741                                  
  20806155.582 8 109337121.981 8      1662.000 8        50.240    20806165.125 7
  85197813.970 7      1295.029 7        44.741                                  
  23440552.273 7 123180893.885 7     -2367.434 7        42.728    23440565.480 7
  95985145.307 7     -1844.775 7        44.741                                  
  21476569.570 7 112860121.931 7     -2089.641 7        47.616    21476578.281 7
  87942983.683 7     -1628.311 7        44.741                                  
  23173372.039 6 121776920.924 6      3410.438 6        40.146    23173386.203 5
  94891174.018 5      2657.471 5        34.953                                  
  23486892.449 6 123424429.755 6     -2594.953 6        41.950    23486908.648 7
  96174931.197 7     -2022.197 7        44.741                                  
  23673011.684 6 124402521.920 6      3416.434 6        40.595    23673027.422 7
  96937105.175 7      2661.143 7        44.741                                  
