     2.11           OBSERVATION DATA    G (GPS)             RINEX VERSION / TYPE
teqc  2008Oct2                          20220511 01:29:23UTCPGM / RUN BY / DATE
MSXP|IAx86-PII|bcc32 5.0|MSWin95->XP|486/DX+                COMMENT
BIT 2 OF LLI FLAGS DATA COLLECTED UNDER A/S CONDITION       COMMENT
NtRSkaza                                                    MARKER NAME
kaza                                                        MARKER NUMBER
-Unknown-           -Unknown-                               OBSERVER / AGENCY
4752143407          TRIMBLE NETRS       NP 1.32 / SP 0.00   REC # / TYPE / VERS
30895097            TRM55971.00                             ANT # / TYPE
  1325807.4829  4606495.7979  4195524.7455                  APPROX POSITION XYZ
        0.1705        0.0000        0.0000                  ANTENNA: DELTA H/E/N
     1     1                                                WAVELENGTH FACT L1/2
     7    L1    L2    C1    P2    P1    S1    S2            # / TYPES OF OBSERV
 SNR is mapped to RINEX snr flag value [0-9]                COMMENT
  L1 & L2: min(max(int(snr_dBHz/6), 0), 9)                  COMMENT
  2020     5     2     0     0    0.0000000     GPS         TIME OF FIRST OBS
                                                            END OF HEADER
 20  5  2  0  0  0.0000000  0 10G23G16G 6G 4G22G 9G 3G26G14G31
  -5167187.34347  -4013788.95044  23689175.4614   23689166.2034
        43.2504         27.0004
 -20595544.38747 -15887201.20845  21284224.3134   21284216.5354
        46.5004         35.5004
   -445109.46246   -349239.89145  25184758.0634   25184753.8014
        37.2504         30.0004
 -22075965.39247 -17161186.01045  21248694.3754   21248688.2234
        45.2504         35.7504
 -19579259.17548 -15235426.11446  21909309.5394   21909299.7384
        48.0004         36.7504
  -9313964.90146  -7225573.36146  23861175.6804   23861170.0784
        40.5004         37.2504
 -24019709.57947 -18701341.79248  20733873.3984   20733868.8594
        47.5004         51.7504
 -21758197.78947 -16923852.46448  20917504.7424   20917500.3204
        47.0004         50.0004
  -7878112.30846  -6092284.09643  23867811.9144   23867805.1844
        40.0004         21.5004
 -13199660.77847 -10135909.37947  22719330.4304   22719322.9804
        44.0004         42.2504
 20  5  2  0  0 30.0000000  0 10G23G16G 6G 4G22G 9G 3G26G14G31
  -5250504.85047  -4078711.67244  23673320.3754   23673310.9534
        43.2504         28.2504
 -20669945.19047 -15945175.86345  21270066.1564   21270058.6134
        46.5004         35.5004
   -457758.13946   -359096.02044  25182351.9454   25182346.4654
        38.5004         29.7504
 -22132315.04547 -17205094.81946  21237971.2504   21237964.9064
        45.5004         36.0004
 -19505301.76047 -15177796.96746  21923383.0234   21923373.3134
        47.7504         36.2504
  -9404719.34346  -7296291.07946  23843905.6024   23843899.6884
        40.0004         37.2504
 -23987577.02647 -18676303.44548  20739988.4384   20739983.3594
        47.5004         51.7504
 -21752460.80547 -16919382.08248  20918596.6414   20918592.2114
        47.0004         50.0004
  -7800591.83646  -6031878.57343  23882562.6884   23882555.8674
        38.2504         19.7504
 -13109750.03147 -10065849.08347  22736440.3834   22736432.4224
        44.7504         42.2504
 20  5  2  0  1  0.0000000  0 10G23G16G 6G 4G22G 9G 3G26G14G31
  -5333795.12447  -4143613.16544  23657470.9224   23657461.2854
        44.5004         27.2504
 -20743830.76747 -16002749.04246  21256006.5704   21255998.8954
        47.5004         36.5004
   -469876.26246   -368538.75245  25180044.9384   25180040.5434
        36.2504         30.0004
 -22188445.27247 -17248832.64546  21227290.1884   21227283.6214
        45.2504         36.0004
 -19430959.29147 -15119867.78246  21937530.0234   21937520.9304
        46.7504         36.2504
  -9495433.93246  -7366977.74146  23826642.5944   23826637.2734
        40.0004         36.7504
 -23954867.66647 -18650815.63948  20746212.7734   20746207.5784
        47.7504         51.7504
 -21746105.87647 -16914430.17948  20919805.6174   20919800.9264
        47.5004         50.0004
  -7722917.43246  -5971353.12343  23897344.0474   23897337.1414
        37.2504         18.5004
 -13019733.07747  -9995706.02747  22753569.9384   22753562.0944
        44.7504         42.0004
 20  5  2  0  1 30.0000000  0 10G23G16G 6G 4G22G 9G 3G26G14G31
  -5417058.63047  -4208493.81644  23641626.6564   23641617.4574
        43.2504         28.5004
 -20817199.76747 -16059919.69546  21242044.4534   21242037.1054
        47.0004         36.5004
   -481465.33146   -377569.21244  25177839.4454   25177835.1334
        36.7504         29.5004
 -22244356.45147 -17292399.78546  21216650.7814   21216643.9024
        45.5004         36.2504
 -19356235.36547 -15061641.36046  21951749.5944   21951739.7304
        47.2504         36.2504
  -9586109.26846  -7437633.84246  23809387.4924   23809382.7464
        40.2504         36.7504
 -23921584.04547 -18624880.35348  20752546.4064   20752541.4494
        47.5004         51.7504
 -21739134.91247 -16908998.26148  20921132.5314   20921127.8594
        47.0004         50.0004
  -7645091.21746  -5910709.37643  23912154.4454   23912147.3834
        38.0004         20.5004
 -12929613.27047  -9925482.83946  22770718.7424   22770711.0474
        44.0004         41.5004
 20  5  2  0  2  0.0000000  0 10G23G16G 6G 4G22G 9G 3G26G14G31
  -5500295.63547  -4273353.79244  23625787.7664   23625777.6484
        43.2504         28.5004
 -20890050.57447 -16116686.55546  21228181.7194   21228173.3524
        47.5004         36.0004
   -492526.20446   -386188.09344  25175734.0394   25175730.5274
        36.0004         29.2504
 -22300048.12447 -17335795.87446  21206052.6094   21206046.3164
        46.0004         36.2504
 -19281133.00547 -15003120.04846  21966040.9064   21966031.3674
        47.5004         37.0004
  -9676745.09946  -7508259.15146  23792139.9924   23792134.7734
        41.0004         37.0004
 -23887727.86748 -18598498.92248  20758989.2194   20758984.5594
        48.5004         51.7504
 -21731549.11847 -16903087.25348  20922575.9384   20922571.3204
        47.7504         50.0004
  -7567114.36846  -5849948.24443  23926994.3284   23926986.4224
        40.0004         21.5004
 -12839393.39947  -9855181.67646  22787887.0704   22787879.3324
        44.0004         41.2504
 20  5  2  0  2 30.0000000  0 10G23G16G 6G 4G22G 9G 3G26G14G31
  -5583505.06347  -4338192.29544  23609952.7344   23609943.2074
        43.0004         29.2504
 -20962380.23247 -16173047.33346  21214417.5784   21214409.7154
        47.5004         36.7504
   -503058.81846   -394395.35344  25173730.1644   25173725.9064
        36.5004         28.2504
 -22355518.85347 -17379019.81946  21195496.9844   21195490.9184
        45.2504         36.0004
 -19205653.97347 -14944305.22346  21980404.1024   21980394.6484
        46.5004         36.2504
  -9767340.24446  -7578852.74446  23774901.2814   23774895.2584
        41.2504         37.0004
 -23853299.93547 -18571671.96748  20765540.2974   20765535.5394
        47.7504         51.7504
 -21723348.77747 -16896697.37748  20924136.3054   20924132.0664
        47.5004         50.0004
  -7488986.23046  -5789069.25243  23941861.9694   23941854.2544
        40.2504         22.5004
 -12749074.64247  -9784803.45746  22805074.9614   22805066.4774
        45.0004         41.5004
 20  5  2  0  3  0.0000000  0 10G23G16G 6G 4G22G 9G 3G26G14G31
  -5666685.36347  -4403008.09544  23594124.3364   23594114.9844
        43.2504         29.5004
 -21034185.50047 -16228999.48546  21200753.4614   21200746.0474
        47.0004         36.5004
   -513062.72246   -402190.60444  25171826.7894   25171822.9104
        36.2504         29.2504
 -22410766.83247 -17422070.17846  21184983.5234   21184977.3554
        46.0004         36.0004
 -19129799.97747 -14885198.22646  21994838.6884   21994828.9654
        47.0004         36.0004
  -9857893.09746  -7649413.42046  23757669.0474   23757663.9454
        40.7504         37.2504
 -23818300.60148 -18544399.77848  20772200.7274   20772196.0784
        48.0004         51.7504
 -21714533.77648 -16889828.54348  20925813.5164   20925809.0434
        48.0004         50.0004
  -7410706.92246  -5728072.43643  23956756.8984   23956749.9774
        40.0004         22.5004
 -12658658.20747  -9714349.11446  22822279.9924   22822272.3244
        43.7504         41.7504
 20  5  2  0  3 30.0000000  0 10G23G16G 6G 4G22G 9G 3G26G14G31
  -5749835.13247  -4467800.12344  23578300.4384   23578291.5004
        43.2504         28.7504
 -21105463.61547 -16284540.87546  21187189.8364   21187181.8404
        47.0004         36.2504
   -522537.71846   -409573.73444  25170023.7344   25170019.6374
        36.0004         29.5004
 -22465790.56447 -17464945.79546  21174513.0314   21174506.5124
        46.2504         36.0004
 -19053573.02747 -14825800.60846  22009344.5704   22009334.5744
        47.5004         36.7504
  -9948402.41046  -7719940.13946  23740445.8364   23740440.5164
        40.7504         37.5004
 -23782730.70447 -18516682.98348  20778969.1564   20778964.3364
        47.5004         51.5004
 -21705104.38847 -16882480.96748  20927608.3444   20927603.2814
        47.7504         50.0004
  -7332276.32146  -5666957.75643  23971682.4924   23971675.1884
        39.2504         22.0004
 -12568145.13847  -9643819.48646  22839503.7114   22839496.1604
        44.5004         41.2504
 20  5  2  0  4  0.0000000  0 10G23G16G 6G 4G22G 9G 3G26G14G31
  -5832953.87247  -4532567.96644  23562483.5944   23562474.9694
        43.2504         28.7504
 -21176212.12247 -16339669.57746  21173727.1254   21173718.7074
        47.0004         36.5004
   -531484.15446   -416545.00144  25168321.5554   25168317.8404
        36.0004         29.5004
 -22520588.95247 -17507645.82546  21164085.2424   21164078.8404
        46.0004         37.0004
 -18976975.43147 -14766114.17746  22023920.4924   22023910.6484
        47.0004         36.0004
 -10038867.36346  -7790432.31246  23723230.1884   23723225.6724
        40.0004         37.7504
 -23746591.43348 -18488522.52348  20785846.4454   20785841.5204
        48.7504         51.7504
 -21695061.37248 -16874655.24248  20929519.4774   20929514.8984
        48.2504         50.0004
  -7253695.26746  -5605725.87043  23986634.7894   23986628.3714
        38.0004         19.7504
 -12477537.57247  -9573216.22846  22856746.6024   22856738.5354
        45.0004         41.5004
 20  5  2  0  4 30.0000000  0 10G23G16G 6G 4G22G 9G 3G26G14G31
  -5916040.16447  -4597310.51144  23546673.6174   23546664.4844
        44.2504         28.2504
 -21246428.00547 -16394383.25746  21160365.6174   21160357.3954
        47.0004         36.7504
   -539901.76746   -423104.21845  25166719.2034   25166716.1844
        36.2504         30.7504
 -22575160.30147 -17550168.94046  21153700.7274   21153694.5314
        46.0004         36.5004
 -18900009.08947 -14706140.41646  22038566.6094   22038556.6134
        47.0004         36.2504
 -10129286.45046  -7860888.67846  23706024.6724   23706019.4574
        41.0004         38.5004
 -23709883.36647 -18459918.84248  20792831.5554   20792827.0354
        47.5004         51.7504
 -21684404.76747 -16866351.39348  20931547.1254   20931542.6214
        47.2504         50.0004
  -7174963.52146  -5544376.48242  24001616.7114   24001610.3554
        38.7504         17.7504
 -12386836.79647  -9502540.34046  22874006.1724   22873998.5234
        44.5004         41.5004
 20  5  2  0  5  0.0000000  0 10G23G16G 6G 4G22G 9G 3G26G14G31
  -5999094.13347  -4662027.87044  23530869.9454   23530859.3324
        44.7504         28.5004
 -21316109.60347 -16448680.59546  21147105.4454   21147097.5904
        47.5004         36.5004
   -547792.00446   -429252.45545  25165218.7034   25165214.4494
        36.7504         30.0004
 -22629504.61247 -17592515.13846  21143359.0394   21143352.5704
        45.7504         37.0004
 -18822677.15447 -14645881.76646  22053282.0474   22053272.1844
        47.0004         36.2504
 -10219659.79246  -7931309.47946  23688827.0704   23688822.2624
        40.5004         39.2504
 -23672608.91648 -18430873.82248  20799924.5394   20799920.1024
        48.7504         51.5004
 -21673136.51348 -16857570.94448  20933691.5944   20933686.7974
        48.0004         50.0004
  -7096082.42246  -5482910.70943  24016627.7274   24016621.2034
        38.7504         19.5004
 -12296045.66947  -9431794.04846  22891283.2584   22891275.8634
        44.5004         41.5004
 20  5  2  0  5 30.0000000  0 10G23G16G 6G 4G22G 9G 3G26G14G31
  -6082114.74047  -4726719.25344  23515070.4384   23515061.2584
        43.7504         27.7504
 -21385254.29547 -16502559.57346  21133947.6174   21133939.6334
        46.7504         36.7504
   -555154.78546   -434989.71244  25163816.9224   25163813.1294
        36.0004         29.5004
 -22683620.38147 -17634683.25846  21133061.2664   21133054.8094
        46.2504         36.5004
 -18744981.78247 -14585339.93946  22068067.3984   22068057.8754
        47.0004         36.2504
 -10309986.19047  -8001693.64346  23671638.9454   23671633.3324
        42.2504         38.5004
 -23634768.87347 -18401388.08648  20807125.4454   20807120.4574
        47.5004         51.5004
 -21661256.94848 -16848314.13448  20935952.3524   20935947.4454
        48.2504         50.0004
  -7017052.01046  -5421328.61543  24031667.3754   24031659.9844
        39.7504         21.5004
 -12205165.39647  -9360978.27946  22908577.0784   22908569.6254
        44.0004         41.5004
 20  5  2  0  6  0.0000000  0 10G23G16G 6G 4G22G 9G 3G26G14G31
  -6165100.09547  -4791383.16644  23499278.1644   23499269.3874
        44.2504         28.5004
 -21453858.95847 -16556017.75246  21120892.4924   21120884.7894
        47.2504         36.2504
   -561989.48546   -440315.49844  25162515.2274   25162512.6954
        37.0004         29.5004
 -22737505.51547 -17676671.66546  21122807.1884   21122800.4844
        45.7504         36.7504
 -18666924.36947 -14524515.99045  22082921.1724   22082911.3674
        47.2504         35.5004
 -10400263.70746  -8072039.77546  23654458.3054   23654454.1804
        40.5004         38.2504
 -23596363.53947 -18371461.86548  20814433.4384   20814428.7734
        47.7504         51.2504
 -21648765.84148 -16838580.81248  20938329.1334   20938324.4384
        48.0004         50.0004
  -6937871.98646  -5359629.97343  24046735.3444   24046728.3284
        39.7504         21.5004
 -12114196.81947  -9290093.71946  22925887.9224   22925880.4264
        44.7504         41.2504
 20  5  2  0  6 30.0000000  0 10G23G16G 6G 4G22G 9G 3G26G14G31
  -6248049.48047  -4856019.03944  23483494.0864   23483484.4884
        44.0004         29.7504
 -21521921.26647 -16609053.31746  21107940.6254   21107932.8524
        46.2504         36.5004
   -568296.79746   -445230.29544  25161316.8444   25161312.1994
        37.0004         29.0004
 -22791159.05047 -17718479.60046  21112597.6564   21112591.0274
        46.0004         36.7504
 -18588507.44647 -14463411.90345  22097843.4534   22097833.7504
        47.0004         35.5004
 -10490491.61346  -8142347.20846  23637289.3914   23637284.0514
        41.2504         37.7504
 -23557394.40947 -18341096.31848  20821849.1174   20821844.6054
        47.0004         51.2504
 -21635664.25848 -16828371.79348  20940822.2584   20940817.6024
        48.0004         50.0004
  -6858542.84346  -5297815.11243  24061830.1724   24061823.9224
        38.5004         21.5004
 -12023142.08547  -9219142.02346  22943215.2114   22943207.2504
        44.2504         41.0004
 20  5  2  0  7  0.0000000  0 10G23G16G 6G 4G22G 9G 3G26G14G31
  -6330961.47047  -4920625.76344  23467716.5704   23467706.9144
        43.7504         28.7504
 -21589438.00747 -16661663.75846  21095092.7194   21095084.6524
        47.2504         36.0004
   -574076.35746   -449733.88344  25160216.2194   25160212.2544
        36.2504         29.5004
 -22844579.12347 -17760105.61546  21102431.9144   21102425.5204
        46.0004         36.2504
 -18509732.92147 -14402029.16345  22112833.2734   22112823.9064
        46.5004         35.5004
 -10580668.25746  -8212614.70946  23620129.1564   23620123.5044
        40.7504         37.2504
 -23517862.05547 -18310291.89548  20829372.0394   20829367.2304
        47.7504         51.5004
 -21621952.25348 -16817687.11948  20943431.5164   20943426.9774
        48.0004         50.0004
  -6779064.42246  -5235883.92943  24076954.5234   24076948.1724
        37.0004         21.7504
 -11932002.11247  -9148123.88446  22960558.3594   22960551.0004
        44.2504         41.0004
 20  5  2  0  7 30.0000000  0 10G23G16G 6G 4G22G 9G 3G26G14G31
  -6413835.31947  -4985202.78344  23451945.6414   23451936.9494
        43.5004         29.7504
 -21656407.18847 -16713847.53946  21082348.7114   21082340.6844
        47.0004         37.2504
   -579328.80746   -453826.72444  25159217.2814   25159212.9534
        36.5004         28.5004
 -22897764.84047 -17801549.01946  21092310.7894   21092304.6724
        46.5004         37.0004
 -18430603.17647 -14340369.64045  22127891.6414   22127881.8094
        47.2504         35.7504
 -10670792.85446  -8282841.66446  23602978.4064   23602973.7664
        40.5004         37.7504
 -23477768.06348 -18279049.82948  20837001.5784   20836997.0554
        48.0004         51.5004
 -21607630.91048 -16806527.63948  20946156.9384   20946152.1764
        48.7504         50.0004
  -6699437.13446  -5173836.75743  24092106.3364   24092100.9064
        36.2504         19.7504
 -11840778.70947  -9077040.74846  22977917.7734   22977909.4384
        44.2504         41.0004
 20  5  2  0  8  0.0000000  0 10G23G16G 6G 4G22G 9G 3G26G14G31
  -6496670.34847  -5049749.54244  23436182.6564   23436173.6994
        44.5004         28.5004
 -21722826.36947 -16765602.73746  21069709.6094   21069701.5084
        47.0004         37.5004
   -584054.54146   -457509.14345  25158317.2194   25158313.7114
        37.7504         30.0004
 -22950714.93947 -17842808.82246  21082234.8134   21082228.5124
        45.7504         36.5004
 -18351120.48947 -14278435.09345  22143016.8984   22143007.2234
        47.5004         35.5004
 -10760864.47546  -8353027.33346  23585838.7894   23585833.5434
        41.2504         38.0004
 -23437113.68848 -18247371.11148  20844738.0314   20844733.5744
        48.5004         51.5004
 -21592701.07448 -16794893.99548  20948997.3054   20948993.2624
        48.7504         50.0004
  -6619661.57146  -5111674.07443  24107287.2814   24107281.6254
        37.5004         19.2504
 -11749473.57947  -9005893.92046  22995292.1094   22995284.5664
        44.0004         40.2504
 20  5  2  0  8 30.0000000  0 10G23G16G 6G 4G22G 9G 3G26G14G31
  -6579465.45147  -5114265.18444  23420427.3594   23420418.2934
        44.5004         29.2504
 -21788693.00647 -16816927.38846  21057175.4694   21057167.4964
        47.2504         36.5004
   -588254.06846   -460781.53044  25157518.5704   25157514.7974
        37.2504         29.5004
 -23003428.25447 -17883884.13046  21072204.0634   21072197.3484
        46.2504         37.0004
 -18271287.34547 -14216227.45345  22158208.8594   22158198.8094
        47.5004         35.7504
 -10850882.01347  -8423170.84646  23568709.2424   23568704.5124
        42.0004         38.7504
 -23395900.28548 -18215256.78448  20852580.7894   20852576.1294
        48.7504         51.5004
 -21577163.59848 -16782786.87948  20951954.3984   20951950.0514
        48.2504         49.7504
  -6539738.28746  -5049396.23943  24122497.1884   24122490.4844
        39.5004         20.7504
 -11658088.63347  -8934684.91846  23012682.8524   23012674.5824
        44.5004         40.5004
 20  5  2  0  9  0.0000000  0 10G23G16G 6G 4G22G 9G 3G26G14G31
  -6662219.69047  -5178748.97445  23404680.2974   23404670.8164
        44.5004         30.0004
 -21854004.81747 -16867819.70746  21044747.1954   21044739.5274
        47.0004         37.2504
   -591927.80346   -463644.19145  25156819.8134   25156815.6724
        37.2504         30.0004
 -23055903.52047 -17924773.94146  21062218.7814   21062211.6764
        47.0004         36.0004
 -18191106.48947 -14153748.86845  22173466.3674   22173456.3714
        47.2504         35.5004
 -10940844.48046  -8493271.45446  23551589.8914   23551584.7424
        41.2504         39.0004
 -23354129.13448 -18182707.83848  20860529.8674   20860524.8204
        48.2504         51.5004
 -21561019.31448 -16770206.91848  20955026.7194   20955022.2704
        48.0004         50.0004
  -6459667.65346  -4987003.52443  24137733.7664   24137726.4804
        39.7504         19.5004
 -11566625.20947  -8863414.74846  23030087.3834   23030079.5004
        44.0004         40.2504
 20  5  2  0  9 30.0000000  0 10G23G16G 6G 4G22G 9G 3G26G14G31
  -6744931.20147  -5243199.49644  23388941.5004   23388931.6134
        45.0004         28.7504
 -21918759.06647 -16918277.55746  21032424.9694   21032417.4344
        47.2504         36.2504
   -595075.59546   -466097.05845  25156220.8524   25156216.5434
        36.7504         30.0004
 -23108138.97547 -17965476.88246  21052278.5474   21052271.5084
        46.0004         37.0004
 -18110579.05547 -14091000.23245  22188790.0864   22188780.4144
        46.5004         35.0004
 -11030750.24646  -8563327.85846  23534481.8134   23534476.5744
        41.5004         40.0004
 -23311801.06248 -18149724.93648  20868584.2974   20868579.3874
        48.7504         51.2504
 -21544268.65648 -16757154.46148  20958214.1094   20958209.6134
        48.0004         50.0004
  -6379449.15846  -4924495.63943  24152998.6564   24152992.1054
        38.7504         19.5004
 -11475084.53447  -8792084.39146  23047506.6174   23047499.0904
        44.0004         40.0004
 20  5  2  0 10  0.0000000  0 10G23G16G 6G 4G22G 9G 3G26G14G31
  -6827599.26847  -5307616.15444  23373208.8444   23373200.0314
        44.5004         29.5004
 -21982953.41147 -16968299.12546  21020209.1804   21020201.1294
        47.5004         36.7504
   -597697.89246   -468140.42145  25155722.5784   25155717.8404
        36.5004         30.7504
 -23160133.24947 -18005991.90346  21042384.0004   21042377.5514
        46.5004         37.0004
 -18029707.43747 -14027983.40045  22204179.3914   22204170.1764
        46.2504         34.7504
 -11120598.07746  -8633339.14246  23517384.3984   23517378.9104
        41.5004         39.2504
 -23268917.32048 -18116309.04448  20876744.8524   20876739.9734
        49.7504         51.2504
 -21526912.18048 -16743629.94048  20961516.9844   20961512.1994
        48.5004         50.0004
  -6299083.13046  -4861872.81143  24168292.3914   24168285.4384
        37.7504         19.7504
 -11383468.09947  -8720695.00246  23064940.5704   23064933.6334
        43.7504         40.2504
 20  5  2  0 10 30.0000000  0 10G23G16G 6G 4G22G 9G 3G26G14G31
  -6910222.96947  -5371998.23244  23357486.0554   23357477.0864
        45.5004         29.2504
 -22046585.42447 -17017882.51946  21008100.4694   21008092.3484
        47.5004         37.5004
   -599795.33446   -469774.82045  25155323.5554   25155318.2344
        37.0004         30.2504
 -23211885.30147 -18046318.17046  21032535.5004   21032529.1294
        46.7504         36.2504
 -17948494.33447 -13964700.47645  22219633.8754   22219623.8954
        46.0004         35.0004
 -11210387.16346  -8703304.65146  23500297.3444   23500292.7774
        41.0004         38.5004
 -23225479.44948 -18082461.36248  20885010.6254   20885005.9694
        49.2504         51.2504
 -21508951.18047 -16729634.35848  20964934.8674   20964929.9104
        47.5004         50.0004
  -6218570.52946  -4799135.80743  24183612.9304   24183606.5824
        37.0004         20.2504
 -11291777.57947  -8649247.87746  23082389.1644   23082381.5434
        44.5004         40.0004
 20  5  2  0 11  0.0000000  0 10G23G16G 6G 4G22G 9G 3G26G14G31
  -6992801.91447  -5436345.44344  23341772.0474   23341762.7464
        45.2504         28.5004
 -22109653.12547 -17067026.18146  20996099.0394   20996090.7814
        47.2504         37.0004
   -601368.45246   -471000.63345  25155023.2584   25155019.0744
        37.5004         31.0004
 -23263394.03247 -18086454.84246  21022734.0394   21022727.3984
        46.7504         37.0004
 -17866942.36947 -13901153.49745  22235152.7974   22235143.1564
        46.2504         35.0004
 -11300116.66046  -8773223.71346  23483223.1724   23483217.1564
        41.0004         38.0004
 -23181489.08648 -18048183.17148  20893381.8754   20893377.6024
        48.5004         51.2504
 -21490386.75547 -16715168.58148  20968468.0234   20968462.9264
        47.7504         50.0004
  -6137911.76446  -4736284.86043  24198961.9614   24198956.2584
        37.5004         20.0004
 -11200014.84547  -8577744.47546  23099850.7274   23099843.8674
        43.5004         40.5004
 20  5  2  0 11 30.0000000  0 10G23G16G 6G 4G22G 9G 3G26G14G31
  -7075334.23147  -5500656.32645  23326067.0004   23326057.3524
        45.0004         30.0004
 -22172153.63247 -17115727.87446  20984205.7424   20984198.1174
        46.5004         37.0004
   -602417.60646   -471818.17645  25154823.7974   25154819.1884
        37.7504         30.0004
 -23314657.68047 -18126400.52946  21012978.6024   21012972.2304
        47.0004         36.7504
 -17785053.45247 -13837343.96745  22250735.5314   22250726.0984
        46.2504         35.0004
 -11389784.82646  -8843095.02346  23466158.0314   23466154.0944
        39.7504         38.0004
 -23136947.10448 -18013475.13948  20901857.7274   20901853.3404
        48.7504         51.2504
 -21471219.34348 -16700232.93948  20972114.9924   20972110.4224
        48.0004         49.7504
  -6057106.72046  -4673319.97643  24214339.1884   24214332.4454
        39.7504         21.5004
 -11108181.01947  -8506185.70246  23117326.4694   23117318.9654
        43.7504         40.7504
 20  5  2  0 12  0.0000000  0 10G23G16G 6G 4G22G 9G 3G26G14G31
  -7157818.92647  -5564930.10644  23310370.3204   23310361.4184
        44.0004         29.5004
 -22234084.81947 -17163985.93746  20972420.6804   20972412.4614
        47.2504         36.7504
   -602943.27446   -472227.81545  25154723.7504   25154719.1174
        37.2504         30.5004
 -23365675.06847 -18166154.34046  21003270.3444   21003264.3134
        46.7504         37.0004
 -17702829.79147 -13773273.59645  22266382.4454   22266372.5354
        46.0004         34.2504
 -11479390.68746  -8912917.76846  23449107.3984   23449103.0084
        40.0004         39.2504
 -23091855.02148 -17978338.47748  20910438.5634   20910433.3284
        49.2504         51.2504
 -21451450.01748 -16684828.27248  20975877.2734   20975872.4884
        48.0004         49.7504
  -5976155.70546  -4610241.29343  24229743.2114   24229737.1724
        39.5004         20.2504
 -11016277.58247  -8434572.68146  23134815.1024   23134807.4344
        43.5004         40.5004
 20  5  2  0 12 30.0000000  0 10G23G16G 6G 4G22G 9G 3G26G14G31
  -7240254.44547  -5629165.55745  23294683.5944   23294674.2504
        45.5004         30.2504
 -22295443.95547 -17211798.25146  20960744.2344   20960736.3484
        47.2504         36.7504
   -602945.54646   -472229.59645  25154722.6024   25154719.0474
        36.0004         30.2504
 -23416444.36247 -18205714.82646  20993609.2814   20993603.0164
        47.0004         36.7504
 -17620273.44247 -13708943.99245  22282092.2114   22282082.8634
        46.0004         35.2504
 -11568932.63346  -8982690.69946  23432069.4534   23432064.1954
        41.2504         39.0004
 -23046213.82048 -17942773.91048  20919124.0314   20919119.3094
        48.7504         51.2504
 -21431079.27748 -16668954.97148  20979753.3754   20979748.6054
        48.0004         49.7504
  -5895059.08546  -4547049.17643  24245176.2974   24245169.7624
        40.5004         19.5004
 -10924305.73147  -8362906.35446  23152317.0474   23152309.5274
        43.2504         39.5004
 20  5  2  0 13  0.0000000  0 10G23G16G 6G 4G22G 9G 3G26G14G31
  -7322639.99847  -5693362.06845  23279006.3284   23278996.7234
        45.0004         30.0004
 -22356229.11247 -17259163.31646  20949177.1644   20949169.2194
        47.0004         36.7504
   -602425.34046   -471824.25845  25154822.4694   25154817.8794
        36.0004         31.0004
 -23466964.66247 -18245081.28546  20983995.6414   20983989.3484
        46.5004         37.0004
 -17537387.47447 -13644357.53545  22297864.7664   22297855.0274
        46.0004         34.0004
 -11658409.77746  -9052413.12546  23415041.9694   23415036.6804
        41.7504         39.5004
 -23000025.24248 -17906782.82148  20927913.1564   20927908.7234
        49.0004         51.2504
 -21410108.46948 -16652614.08848  20983744.2504   20983739.1644
        48.2504         50.0004
  -5813817.46346  -4483743.97043  24260634.1334   24260628.4184
        38.0004         18.2504
 -10832267.37547  -8291188.18146  23169831.3524   23169823.3444
        43.2504         39.5004
 20  5  2  0 13 30.0000000  0 10G23G16G 6G 4G22G 9G 3G26G14G31
  -7404974.91847  -5757519.14044  23263338.0704   23263328.7304
        44.5004         29.7504
 -22416438.22647 -17306079.51346  20937720.0164   20937711.4184
        47.0004         37.2504
   -601383.13746   -471012.21845  25155020.4454   25155016.8444
        37.0004         31.0004
 -23517234.53347 -18284252.61046  20974429.5234   20974423.3444
        46.5004         37.0004
 -17454173.96347 -13579515.85345  22313699.8674   22313690.3524
        46.0004         34.5004
 -11747820.94547  -9122084.14346  23398028.3134   23398022.3554
        42.0004         40.5004
 -22953290.69148 -17870366.30848  20936806.7274   20936802.0164
        49.0004         51.2504
 -21388538.58548 -16635806.38348  20987848.9774   20987844.0204
        48.7504         49.7504
  -5732430.70146  -4420325.76442  24276123.4614   24276115.7194
        37.5004         17.2504
 -10740163.68047  -8219419.11346  23187358.5004   23187350.3554
        43.2504         39.5004
 20  5  2  0 14  0.0000000  0 10G23G16G 6G 4G22G 9G 3G26G14G31
  -7487257.36947  -5821635.32345  23247680.7424   23247671.6374
        45.2504         30.2504
 -22476068.67947 -17352544.79546  20926372.6564   20926364.8444
        47.7504         37.2504
   -599819.16445   -469793.56645  25155317.1094   25155314.5474
        35.7504         31.7504
 -23567252.26247 -18323227.46046  20964911.8834   20964905.4654
        46.0004         37.2504
 -17370634.51747 -13514420.19545  22329596.6094   22329586.9494
        45.7504         34.0004
 -11837164.57746  -9191702.54146  23381025.5864   23381020.7344
        41.0004         40.2504
 -22906011.28448 -17833525.21048  20945803.4774   20945798.8594
        49.5004         51.0004
 -21366370.19347 -16618532.32048  20992067.4454   20992062.8094
        47.5004         49.7504
  -5650899.04446  -4356794.64042  24291637.2274   24291631.2974
        36.5004         16.7504
 -10647995.85547  -8147600.05446  23204897.5394   23204889.2384
        43.0004         39.2504
 20  5  2  0 14 30.0000000  0 10G23G16G 6G 4G22G 9G 3G26G14G31
  -7569487.19547  -5885710.51445  23232032.3754   23232023.1254
        45.5004         30.2504
 -22535118.90847 -17398557.96146  20915135.4304   20915127.7194
        46.5004         37.7504
   -597734.93946   -468169.51945  25155714.5234   25155710.9534
        37.0004         31.0004
 -23617017.33847 -18362005.44246  20955441.8204   20955435.6294
        46.2504         37.0004
 -17286772.54447 -13449073.21745  22345555.4844   22345545.6644
        46.5004         34.5004
 -11926440.24846  -9261267.99046  23364036.3284   23364032.2304
        41.2504         40.0004
 -22858189.37548 -17796261.40148  20954903.9774   20954899.2154
        48.5004         51.0004
 -21343605.26848 -16600793.42448  20996399.7814   20996394.6914
        48.0004         49.7504
  -5569223.64046  -4293151.54342  24307179.8914   24307173.1484
        36.2504         17.2504
 -10555766.13947  -8075732.78046  23222447.7344   23222440.0744
        43.2504         39.7504
 20  5  2  0 15  0.0000000  0 10G23G16G 6G 4G22G 9G 3G26G14G31
  -7651662.74347  -5949743.37745  23216395.0084   23216385.8594
        45.2504         30.0004
 -22593586.19447 -17444116.88746  20904009.5474   20904001.5164
        47.0004         37.0004
   -595130.61646   -466140.20645  25156210.6644   25156206.3984
        36.5004         31.2504
 -23666527.96447 -18400585.14346  20946020.4304   20946013.9024
        46.5004         37.2504
 -17202589.94547 -13383476.40845  22361574.5864   22361565.3164
        46.0004         34.5004
 -12015646.34947  -9330779.20846  23347062.0864   23347056.1484
        42.0004         39.5004
 -22809825.96248 -17758575.63548  20964107.0474   20964102.2114
        49.0004         51.0004
 -21320244.42847 -16582590.16848  21000844.8524   21000840.0204
        47.2504         49.7504
  -5487404.58046  -4229396.49843  24322750.7974   24322743.4144
        38.5004         18.2504
 -10463475.58747  -8003818.12346  23240010.0864   23240002.6564
        43.2504         40.0004
 20  5  2  0 15 30.0000000  0 10G23G16G 6G 4G22G 9G 3G26G14G31
  -7733782.63847  -6013732.91144  23200767.8834   23200758.5944
        45.0004         29.7504
 -22651468.47847 -17489219.96846  20892995.1724   20892986.9184
        46.5004         38.0004
   -592006.75246   -463706.02845  25156805.3834   25156800.7854
        36.5004         31.2504
 -23715782.66347 -18438965.42146  20936647.4064   20936641.1024
        46.5004         37.5004
 -17118089.24647 -13317631.71745  22377654.5234   22377644.7704
        45.2504         33.2504
 -12104781.46346  -9400235.16446  23330098.9454   23330094.7504
        40.7504         39.7504
 -22760922.45748 -17720469.01848  20973413.5554   20973408.1914
        48.5004         51.0004
 -21296288.57547 -16563923.27748  21005403.3914   21005398.8014
        47.0004         49.7504
  -5405441.76446  -4165529.39643  24338347.4694   24338341.2704
        38.2504         21.2504
 -10371125.46047  -7931857.01246  23257583.5784   23257577.0004
        42.7504         39.5004
 20  5  2  0 16  0.0000000  0 10G23G16G 6G 4G22G 9G 3G26G14G31
  -7815845.97847  -6077678.34544  23185152.3984   23185142.4264
        45.7504         29.7504
 -22708763.78847 -17533865.66346  20882091.7664   20882084.2624
        46.5004         38.0004
   -588364.09846   -460867.64445  25157497.8674   25157494.4574
        36.2504         31.5004
 -23764780.25247 -18477145.36446  20927323.5634   20927316.7664
        46.0004         38.0004
 -17033272.87947 -13251541.04445  22393794.7734   22393785.0554
        45.7504         33.7504
 -12193844.55046  -9469634.96146  23313151.2424   23313146.1844
        41.0004         39.2504
 -22711480.59548 -17681942.90748  20982821.7504   20982817.0084
        48.7504         51.0004
 -21271739.02147 -16544793.75148  21010075.5394   21010070.4964
        47.2504         49.7504
  -5323336.21446  -4101551.05443  24353970.3674   24353964.7704
        36.7504         21.5004
 -10278717.61347  -7859850.95046  23275169.0004   23275161.0554
        43.0004         40.0004
 20  5  2  0 16 30.0000000  0 10G23G16G 6G 4G22G 9G 3G26G14G31
  -7897851.07447  -6141578.41945  23169546.8054   23169537.2814
        45.0004         30.5004
 -22765469.22947 -17578051.71846  20871301.2114   20871293.5904
        46.5004         37.5004
   -584202.77046   -457625.09245  25158290.4064   25158286.7114
        36.2504         31.5004
 -23813518.67947 -18515123.35046  20918049.0084   20918042.0204
        46.2504         37.0004
 -16948142.51047 -13185205.71845  22409994.6954   22409984.7074
        45.5004         34.7504
 -12282833.75346  -9538977.18946  23296217.6334   23296212.6724
        41.2504         39.5004
 -22661501.27048 -17642997.99148  20992332.3914   20992327.6684
        48.0004         51.0004
 -21246596.23447 -16525201.97948  21014859.6644   21014855.1374
        47.2504         49.7504
  -5241087.33845  -4037461.11543  24369621.1484   24369616.3554
        35.2504         19.2504
 -10186252.57047  -7787800.32246  23292764.2664   23292756.6884
        43.0004         39.7504
 20  5  2  0 17  0.0000000  0 10G23G16G 6G 4G22G 9G 3G26G14G31
  -7979797.60547  -6205432.84745  23153953.2424   23153944.1454
        46.2504         30.0004
 -22821583.78847 -17621777.35146  20860622.8984   20860615.1024
        46.7504         37.0004
   -579524.62346   -453979.83445  25159180.8204   25159176.8874
        37.0004         31.7504
 -23861997.75647 -18552899.25646  20908823.5164   20908817.0204
        46.7504         37.0004
 -16862701.89747 -13118628.63245  22426253.4384   22426244.0864
        46.5004         33.5004
 -12371748.87646  -9608261.69546  23279296.9144   23279292.7114
        40.7504         40.0004
 -22610987.18848 -17603636.38148  21001944.8914   21001940.6914
        48.7504         50.7504
 -21220862.54647 -16505149.75848  21019756.6334   21019752.0234
        47.2504         50.0004
  -5158696.85046  -3973260.69743  24385301.2424   24385294.0474
        37.7504         19.2504
 -10093732.78247  -7715707.00746  23310370.1094   23310362.4654
        42.7504         39.2504
 20  5  2  0 17 30.0000000  0 10G23G16G 6G 4G22G 9G 3G26G14G31
  -8061682.80047  -6269239.49145  23138370.7114   23138361.5904
        45.7504         30.2504
 -22877103.87347 -17665039.75546  20850057.9454   20850049.7194
        47.2504         37.5004
   -574328.71346   -449931.07745  25160169.6804   25160164.9654
        37.7504         30.5004
 -23910214.48147 -18590470.71746  20899648.2814   20899641.5474
        46.7504         37.2504
 -16776951.56047 -13051810.20045  22442571.6334   22442562.1094
        45.5004         34.0004
 -12460587.11146  -9677486.26546  23262392.7424   23262387.4654
        41.2504         39.7504
 -22559938.39548 -17563858.11648  21011659.3524   21011654.4774
        48.2504         50.7504
 -21194537.52947 -16484636.76148  21024765.8674   21024761.3524
        47.7504         49.7504
  -5076163.54946  -3908949.09242  24401005.9614   24401000.3244
        36.7504         17.7504
 -10001158.40547  -7643571.17946  23327986.0314   23327978.8054
        42.2504         39.0004
 20  5  2  0 18  0.0000000  0 10G23G16G 6G 4G22G 9G 3G26G14G31
  -8143506.54047  -6332998.24445  23122800.1414   23122791.3134
        45.2504         31.0004
 -22932028.10847 -17707837.86446  20839606.2344   20839598.2114
        47.2504         37.0004
   -568616.65546   -445480.15845  25161255.4844   25161252.1334
        37.0004         30.0004
 -23958168.27447 -18627837.29946  20890522.8134   20890515.9144
        46.7504         36.5004
 -16690894.97547 -12984753.13045  22458947.4454   22458937.6334
        45.7504         34.0004
 -12549347.97746  -9746650.56546  23245501.4534   23245496.8634
        41.2504         40.5004
 -22508357.27148 -17523665.04448  21021474.6724   21021469.7034
        49.0004         50.5004
 -21167623.13747 -16463664.51648  21029887.5704   21029882.7934
        47.5004         50.0004
  -4993488.39945  -3844526.98742  24416737.8524   24416733.3524
        35.7504         17.2504
  -9908531.35047  -7571394.29246  23345612.9774   23345605.0944
        42.5004         39.0004
 20  5  2  0 18 30.0000000  0 10G23G16G 6G 4G22G 9G 3G26G14G31
  -8225267.71147  -6396708.24645  23107241.6884   23107232.3324
        45.0004         31.7504
 -22986354.79147 -17750170.34246  20829267.8284   20829260.1054
        46.7504         37.5004
   -562389.35246   -440627.71845  25162441.2894   25162436.7624
        36.7504         30.0004
 -24005857.80947 -18664997.97346  20881447.6644   20881441.3094
        47.0004         37.2504
 -16604534.68347 -12917459.42945  22475381.2424   22475371.8094
        45.0004         33.7504
 -12638030.25547  -9815753.62546  23228626.0784   23228620.6604
        42.2504         40.2504
 -22456245.51047 -17483058.48348  21031390.8754   21031386.6254
        47.7504         50.7504
 -21140120.71947 -16442234.07048  21035121.2734   21035116.1724
        46.7504         49.5004
  -4910672.15146  -3779995.00142  24432499.9614   24432492.5004
        40.5004         16.7504
  -9815853.12747  -7499177.54746  23363249.2974   23363241.6884
        43.2504         39.0004
 20  5  2  0 19  0.0000000  0 10G23G16G 6G 4G22G 9G 3G26G14G31
  -8306965.72547  -6460369.02345  23091694.5084   23091685.7234
        45.2504         30.7504
 -23040082.44447 -17792036.05246  20819044.2504   20819036.1564
        47.0004         38.0004
   -555648.21946   -435374.93845  25163724.2424   25163719.9734
        37.0004         31.0004
 -24053282.35847 -18701952.16246  20872423.5084   20872416.7274
        47.0004         37.2504
 -16517873.45747 -12849931.21145  22491872.0554   22491862.3794
        45.0004         33.2504
 -12726633.24847  -9884794.92246  23211765.9384   23211760.1804
        42.0004         40.0004
 -22403605.45748 -17442040.27348  21041408.2034   21041403.5394
        48.7504         50.5004
 -21112032.11747 -16420346.85148  21040466.1644   21040461.6254
        47.0004         49.7504
  -4827715.40046  -3715353.24143  24448284.8134   24448278.3094
        38.7504         19.2504
  -9723125.71147  -7426922.44846  23380893.8134   23380886.8834
        42.5004         38.5004
 20  5  2  0 19 30.0000000  0 10G23G16G 6G 4G22G 9G 3G26G14G31
  -8388598.42347  -6523978.89245  23076160.8134   23076151.7664
        45.2504         30.5004
 -23093207.83947 -17833432.46246  20808934.8284   20808927.2074
        47.5004         38.0004
   -548393.13746   -429721.66245  25165104.2114   25165100.6094
        38.0004         31.2504
 -24100439.55647 -18738698.03346  20863449.3364   20863443.0784
        47.0004         37.5004
 -16430912.64947 -12782169.56045  22508419.6804   22508410.3634
        46.0004         33.2504
 -12815154.71346  -9953772.69046  23194919.9614   23194915.1604
        41.5004         40.0004
 -22350437.76148 -17400610.91548  21051525.8134   21051521.3284
        48.5004         50.7504
 -21083357.65947 -16398003.12548  21045922.8284   21045918.4534
        47.0004         49.5004
  -4744617.93046  -3650602.12143  24464097.6254   24464092.1334
        37.5004         20.0004
  -9630349.52847  -7354629.37646  23398548.8594   23398541.8284
        42.7504         38.5004
 20  5  2  0 20  0.0000000  0 10G23G16G 6G 4G22G 9G 3G26G14G31
  -8470164.84847  -6587537.12545  23060638.8674   23060629.9384
        45.5004         30.7504
 -23145729.86347 -17874358.71946  20798940.2664   20798932.4494
        47.5004         37.7504
   -540625.31146   -423668.84245  25166582.2194   25166578.1954
        37.0004         30.0004
 -24147328.38248 -18775234.77546  20854526.7194   20854520.3554
        48.0004         38.0004
 -16343655.59847 -12714177.06545  22525024.7194   22525014.9144
        45.0004         33.2504
 -12903593.77246 -10022686.22946  23178090.7344   23178085.7734
        41.5004         40.7504
 -22296744.51747 -17358772.03748  21061743.2584   21061738.3244
        47.7504         50.5004
 -21054098.98647 -16375204.16948  21051490.1334   21051485.7384
        47.0004         49.7504
  -4661380.39246  -3585741.71243  24479937.5474   24479931.1604
        39.0004         20.5004
  -9537526.17247  -7282299.52746  23416212.9924   23416205.0474
        42.5004         38.2504
 20  5  2  0 20 30.0000000  0 10G23G16G 6G 4G22G 9G 3G26G14G31
  -8551663.25547  -6651042.36645  23045130.5084   23045121.2464
        46.5004         31.5004
 -23197645.96948 -17914812.83046  20789060.8284   20789053.1604
        48.5004         37.7504
   -532345.22946   -417216.88145  25168158.2584   25168154.3324
        36.5004         31.0004
 -24193947.13647 -18811561.07546  20845655.5084   20845649.2464
        47.2504         37.2504
 -16256104.29147 -12645955.28845  22541685.0864   22541675.6254
        45.5004         33.5004
 -12991948.71247 -10091534.19646  23161278.4924   23161272.8634
        42.2504         40.5004
 -22242527.15747 -17316524.75148  21072060.2274   21072055.9414
        47.0004         50.5004
 -21024257.09247 -16351950.75448  21057169.6254   21057164.5124
        47.0004         49.5004
  -4578003.25046  -3520772.51843  24495803.9384   24495797.2344
        38.0004         18.5004
  -9444656.80347  -7209933.82646  23433886.0474   23433878.0784
        42.7504         39.0004
 20  5  2  0 21  0.0000000  0 10G23G16G 6G 4G22G 9G 3G26G14G31
  -8633092.43147  -6714493.66245  23029635.1414   23029625.3444
        47.0004         31.0004
 -23248954.04747 -17954793.14546  20779297.1484   20779289.0514
        47.7504         37.7504
   -523553.61146   -410366.29645  25169831.8364   25169827.3554
        37.5004         31.5004
 -24240294.11248 -18847675.60246  20836836.0394   20836829.9264
        48.0004         37.5004
 -16168260.74947 -12577505.79345  22558401.5554   22558391.5744
        45.0004         33.0004
 -13080217.97146 -10160315.44246  23144480.4694   23144475.4414
        41.2504         41.5004
 -22187787.11747 -17273870.19248  21082477.1484   21082472.2664
        47.2504         50.5004
 -20993833.03647 -16328243.70348  21062958.6024   21062954.0944
        47.2504         49.5004
  -4494486.07745  -3455694.25442  24511695.9534   24511690.7384
        32.5004         15.5004
  -9351742.39047  -7137533.02846  23451567.0634   23451558.9884
        43.0004         39.7504
 20  5  2  0 21 30.0000000  0 10G23G16G 6G 4G22G 9G 3G26G14G31
  -8714451.95647  -6777890.69345  23014153.0474   23014143.1994
        46.2504         31.2504
 -23299653.31048 -17994299.07746  20769649.5314   20769642.2234
        48.2504         38.0004
   -514252.51346   -403118.71345  25171601.3284   25171597.2234
        36.0004         31.2504
 -24286369.09347 -18883578.18046  20828068.2274   20828061.5984
        47.5004         37.2504
 -16080128.65447 -12508831.44645  22575172.3914   22575162.6294
        45.0004         33.0004
 -13168401.35047 -10229029.74246  23127699.3284   23127694.2734
        42.0004         40.7504
 -22132527.32448 -17230810.62248  21092992.9924   21092987.9574
        48.0004         50.5004
 -20962829.34447 -16304084.99548  21068858.7034   21068854.2974
        47.5004         49.5004
  -4410830.73746  -3390508.33442  24527617.0084   24527609.6254
        37.7504         17.7504
  -9258785.40947  -7065099.08246  23469255.2664   23469247.7194
        42.0004         38.0004
 20  5  2  0 22  0.0000000  0 10G23G16G 6G 4G22G 9G 3G26G14G31
  -8795741.00247  -6841232.79745  22998683.8754   22998674.4304
        46.2504         31.7504
 -23349741.75647 -18033329.02746  20760118.2814   20760110.2664
        47.7504         38.7504
   -504442.56446   -395474.64545  25173468.6954   25173463.9804
        37.5004         31.0004
 -24332170.42347 -18919267.53446  20819352.7114   20819345.9494
        47.2504         37.5004
 -15991709.95747 -12439933.78145  22591997.8834   22591988.1374
        45.0004         33.0004
 -13256497.25347 -10297675.88246  23110936.5784   23110930.5594
        43.5004         41.5004
 -22076749.25347 -17187347.20248  21103606.9774   21103602.4104
        47.2504         50.2504
 -20931247.08247 -16279475.45048  21074868.5084   21074863.8594
        46.7504         49.5004
  -4327037.29646  -3325214.85143  24543560.2974   24543555.3874
        36.2504         20.7504
  -9165786.78047  -6992632.65946  23486952.1804   23486945.7934
        42.0004         38.0004
 20  5  2  0 22 30.0000000  0 10G23G16G 6G 4G22G 9G 3G26G14G31
  -8876957.25047  -6904518.17845  22983228.6254   22983219.8834
        45.0004         31.2504
 -23399216.88447 -18071881.08146  20750703.0004   20750695.4734
        47.0004         38.7504
   -494124.32846   -387434.46845  25175431.2504   25175427.7504
        36.0004         31.2504
 -24377696.16147 -18954742.13846  20810689.5394   20810682.9024
        47.5004         37.5004
 -15903006.68247 -12370814.36345  22608877.3054   22608867.8014
        45.0004         33.0004
 -13344503.86247 -10366252.46346  23094188.6804   23094183.0944
        42.5004         41.0004
 -22020454.22447 -17143480.96148  21114319.4924   21114314.8674
        47.5004         50.5004
 -20899087.18547 -16254415.80648  21080988.3674   21080984.1684
        47.0004         49.5004
  -4243105.85845  -3259813.86442  24559532.6024   24559527.4844
        35.2504         16.7504
  -9072747.47147  -6920134.54446  23504657.1724   23504649.7664
        42.5004         38.2504
 20  5  2  0 23  0.0000000  0 11G23G16G 6G 4G22G 9G 3G26G 7G14G31
  -8958099.22647  -6967745.66545  22967788.0394   22967779.0634
        45.7504         31.0004
 -23448076.80247 -18109953.74146  20741405.3204   20741397.4924
        46.7504         37.7504
   -483298.24146   -378998.62245  25177491.7974   25177488.4924
        36.2504         31.2504
 -24422944.60747 -18990000.66346  20802079.1804   20802072.4534
        47.5004         37.2504
 -15814021.28147 -12301475.11245  22625810.7814   22625801.3554
        44.7504         32.5004
 -13432419.47646 -10434758.13046  23077458.2194   23077453.7344
        41.5004         40.5004
 -21963643.72647 -17099213.05648  21125130.3594   21125125.5554
        47.2504         50.2504
 -20866350.75447 -16228906.91648  21087217.7814   21087213.1954
        47.2504         49.2504
    369429.23055    354840.93653  25466832.9384   25466826.6414
        32.0004         19.7504
  -4159036.018 6                  24575530.773
        36.500
  -8979668.35447  -6847605.41046  23522369.6334   23522362.3954
        42.5004         38.2504
 20  5  2  0 23 30.0000000  0 11G23G16G 6G 4G22G 9G 3G26G 7G14G31
  -9039165.68947  -7030914.32645  22952361.6024   22952352.6994
        45.5004         32.0004
 -23496319.63247 -18147545.55846  20732225.2584   20732217.4884
        46.7504         38.0004
   -471965.71146   -370168.10545  25179648.9384   25179644.2464
        37.5004         30.5004
 -24467914.43147 -19025042.08546  20793521.2344   20793515.0124
        45.2504         37.0004
 -15724756.23247 -12231917.96045  22642797.5864   22642787.6884
        44.7504         33.5004
 -13520242.85546 -10503191.90846  23060745.7424   23060741.5944
        40.5004         40.2504
 -21906319.64947 -17054544.95748  21136038.4924   21136034.1484
        47.0004         50.2504
 -20833039.27047 -16202949.92648  21093556.8674   21093552.3054
        47.2504         49.5004
    285502.13545    289443.20343  25450862.0164   25450855.8714
        33.0004         22.0004
  -4074828.99946  -3223401.89153  24591554.4454   24591548.4494
        37.7504         20.0004
  -8886550.85347  -6775046.36746  23540089.9064   23540081.9654
        43.5004         37.5004
 20  5  2  0 24  0.0000000  0 11G23G16G 6G 4G22G 9G 3G26G 7G14G31
  -9120155.94947  -7094023.58945  22936950.1334   22936941.0234
        46.0004         32.2504
 -23543944.15647 -18184655.57446  20723162.3594   20723154.4884
        47.5004         38.0004
   -460127.98146   -360943.92045  25181901.2584   25181896.7114
        36.7504         31.0004
 -24512604.70347 -19059865.68346  20785016.9774   20785010.6844
        47.2504         37.0004
 -15635214.38447 -12162145.11045  22659836.6724   22659826.7974
        44.7504         32.7504
 -13607973.07747 -10571553.08946  23044052.3524   23044047.2464
        42.2504         41.0004
 -21848484.41047 -17009478.54948  21147044.6564   21147040.1454
        47.0004         50.5004
 -20799154.75047 -16176546.42048  21100004.9384   21100000.5514
        47.2504         49.5004
    201655.05345    224107.80643  25434906.5784   25434899.9534
        35.0004         23.0004
  -3990485.31146  -3157679.62143  24607605.8984   24607599.3014
        37.0004         19.2504
  -8793396.55647  -6702458.64246  23557815.7814   23557809.0594
        42.0004         38.5004
 20  5  2  0 24 30.0000000  0 11G23G16G 6G 4G22G 9G 3G26G 7G14G31
  -9201068.79547  -7157072.53745  22921552.5394   22921543.5784
        45.5004         32.5004
 -23590948.60247 -18221282.42446  20714218.1174   20714210.0354
        47.5004         38.0004
   -447786.33346   -351327.07345  25184250.1254   25184245.8094
        38.0004         31.5004
 -24557014.10247 -19094470.40446  20776566.3134   20776559.7424
        45.5004         37.2504
 -15545398.77247 -12092158.94545  22676928.5704   22676918.3364
        44.7504         32.5004
 -13695608.80847 -10639840.67946  23027374.3674   23027370.1804
        42.0004         41.7504
 -21790139.85647 -16964015.28048  21158147.1884   21158142.3714
        47.5004         50.2504
 -20764698.66447 -16149697.52848  21106561.5314   21106556.8094
        47.5004         49.5004
    117888.14246    158834.87144  25418966.6484   25418959.8444
        37.0004         27.5004
  -3906005.52945  -3091851.31042  24623680.0864   24623675.6524
        31.0004         15.5004
  -8700207.44747  -6629843.79046  23575549.8444   23575541.9924
        42.7504         37.2504
 20  5  2  0 25  0.0000000  0 11G23G16G 6G 4G22G 9G 3G26G 7G14G31
  -9281902.10147  -7220059.51545  22906170.3594   22906161.3834
        46.0004         31.2504
 -23637330.89348 -18257424.47446  20705391.8754   20705383.9104
        48.5004         38.0004
   -434941.04246   -341317.77045  25186693.8524   25186689.7854
        37.0004         30.2504
 -24601140.45147 -19128854.58746  20768169.5004   20768162.7974
        47.2504         38.0004
 -15455310.91647 -12021960.64145  22694071.1644   22694061.6024
        45.0004         32.2504
 -13783148.02147 -10708053.01247  23010717.5004   23010712.1724
        42.7504         42.0004
 -21731287.23647 -16918156.12148  21169346.4694   21169341.7504
        47.0004         50.0004
 -20729671.85647 -16122403.92748  21113227.1484   21113222.7274
        47.0004         49.5004
     34202.77146     93625.48244  25403041.9924   25403034.7274
        37.5004         29.5004
  -3821389.58645  -3025916.83242  24639783.0394   24639778.1254
        34.0004         12.5004
  -8606983.73846  -6557201.99846  23593289.0084   23593282.3634
        41.2504         37.2504
 20  5  2  0 25 30.0000000  0 11G23G16G 6G 4G22G 9G 3G26G 7G14G31
  -9362655.58347  -7282984.25544  22890803.8364   22890794.7624
        45.7504         29.2504
 -23683089.86348 -18293080.82446  20696683.9304   20696675.7934
        48.5004         38.2504
   -421594.10746   -330917.54944  25189233.5314   25189229.5594
        38.0004         25.5004
 -24644983.30547 -19163017.82546  20759826.0084   20759819.6454
        45.7504         36.2504
 -15364953.79447 -11951552.52845  22711266.0084   22711256.0204
        45.2504         33.0004
 -13870590.21647 -10776189.72146  22994078.3914   22994072.6054
        42.5004         39.0004
 -21671929.31647 -16871903.22348  21180641.7274   21180637.1684
        46.5004         50.0004
 -20694076.76347 -16094667.47847  21120000.7504   21119996.3984
        46.5004         47.7504
    -49401.61646     28479.11945  25387132.4614   25387125.1294
        39.5004         33.2504
  -3736638.58946  -2959877.15642  24655910.3834   24655905.6134
        37.5004         17.2504
  -8513727.15246  -6484534.55445  23611035.7274   23611028.6724
        39.5004         35.0004
 20  5  2  0 26  0.0000000  0 11G23G16G 6G 4G22G 9G 3G26G 7G14G31
  -9443327.00847  -7345845.13745  22875452.6254   22875442.9844
        46.0004         31.7504
 -23728223.27547 -18328249.71446  20688095.2894   20688087.3014
        47.5004         37.5004
   -407745.84345   -320126.79745  25191868.9304   25191865.3054
        35.7504         30.2504
 -24688540.39747 -19196958.44346  20751537.7344   20751531.2854
        47.0004         37.7504
 -15274329.54047 -11880936.22945  22728510.8674   22728501.1914
        44.7504         33.5004
 -13957933.09147 -10844249.11947  22977457.0234   22977451.4924
        42.5004         42.0004
 -21612067.25147 -16825257.44848  21192033.1254   21192028.6644
        47.0004         49.7504
 -20657914.06547 -16066488.78448  21126882.1334   21126877.5984
        46.7504         49.2504
   -132924.66446    -36603.74945  25371238.5394   25371231.8054
        38.2504         30.7504
  -3651752.29645  -2893732.04342  24672063.9224   24672058.1994
        35.5004         17.7504
  -8420438.25446  -6411841.98346  23628788.0394   23628781.0124
        41.7504         38.0004
 20  5  2  0 26 30.0000000  0 11G23G16G 6G 4G22G 9G 3G26G 7G14G31
  -9523915.52547  -7408641.38245  22860116.7274   22860107.3284
        46.0004         32.2504
 -23772729.70547 -18362930.05346  20679626.3524   20679618.2194
        47.7504         38.5004
   -393397.87546   -308946.59245  25194599.7034   25194595.7504
        36.7504         31.2504
 -24731810.68747 -19230675.55746  20743303.6254   20743297.0744
        47.0004         37.5004
 -15183440.99147 -11810114.00445  22745806.5784   22745797.0474
        44.7504         32.2504
 -14045175.71547 -10912230.37946  22960854.3444   22960849.2624
        42.5004         41.0004
 -21551703.30947 -16778220.62148  21203519.6414   21203515.2814
        47.0004         49.7504
 -20621185.72447 -16037869.30748  21133871.3284   21133866.8284
        47.5004         49.2504
   -216365.01146   -101622.21445  25355360.6644   25355353.1804
        37.5004         30.5004
  -3566731.46645  -2827482.14942  24688241.4534   24688237.2934
        32.2504         15.5004
  -8327119.05347  -6339125.76346  23646545.7584   23646538.4454
        42.0004         37.2504
 20  5  2  0 27  0.0000000  0 11G23G16G 6G 4G22G 9G 3G26G 7G14G31
  -9604419.74047  -7471371.92445  22844797.2424   22844788.2384
        45.2504         32.0004
 -23816607.61348 -18397120.62646  20671276.3134   20671268.4884
        48.0004         38.0004
   -378551.24846   -297377.83245  25197425.1414   25197420.6524
        36.5004         31.5004
 -24774792.84247 -19264168.14846  20735124.4694   20735117.9654
        46.0004         37.2504
 -15092290.75747 -11739087.87745  22763151.2734   22763142.2074
        44.7504         32.0004
 -14132316.71647 -10980132.44146  22944272.2664   22944267.0314
        42.5004         41.5004
 -21490839.56147 -16730794.34948  21215102.5004   21215097.2584
        47.5004         50.0004
 -20583893.43647 -16008810.38248  21140967.7504   21140963.3954
        47.2504         49.2504
   -299723.20146   -166576.64944  25339497.6804   25339491.1644
        36.7504         29.2504
  -3481577.07645  -2761128.24042  24704446.8754   24704441.6844
        35.5004         15.5004
  -8233770.58347  -6266386.75146  23664309.9454   23664302.3204
        42.0004         37.7504
 20  5  2  0 27 30.0000000  0 11G23G16G 6G 4G22G 9G 3G26G 7G14G31
  -9684838.42847  -7534035.83045  22829494.3284   22829485.0864
        45.5004         31.7504
 -23859855.58248 -18430820.34346  20663046.4454   20663038.8134
        48.0004         38.0004
   -363206.98046   -285421.27945  25200344.8204   25200340.8404
        36.0004         30.7504
 -24817485.17447 -19297434.89146  20726999.8754   20726993.7034
        46.5004         37.7504
 -15000881.08647 -11667859.59045  22780546.9844   22780537.0864
        44.5004         32.0004
 -14219354.41747 -11047954.02046  22927709.4144   22927704.4494
        42.5004         41.2504
 -21429477.69147 -16682979.92548  21226778.6804   21226774.1374
        47.0004         50.0004
 -20546038.47548 -15979313.02348  21148171.4614   21148166.9414
        48.0004         49.2504
   -382998.52046   -231466.51044  25323650.6254   25323644.4454
        36.0004         29.7504
  -3396289.08846  -2694670.12442  24720677.2664   24720671.0784
        38.2504         14.7504
  -8140393.55746  -6193625.48546  23682078.2114   23682071.6844
        41.5004         37.0004
 20  5  2  0 28  0.0000000  0 11G23G16G 6G 4G22G 9G 3G26G 7G14G31
  -9765169.78247  -7596631.67245  22814207.6334   22814198.5984
        46.2504         32.5004
 -23902471.85047 -18464027.82846  20654937.1884   20654929.0394
        47.7504         39.0004
   -347366.48846   -273078.10745  25203359.5164   25203355.4924
        37.0004         30.7504
 -24859886.38647 -19330474.80146  20718931.2814   20718924.9414
        47.2504         38.0004
 -14909214.95247 -11596431.45045  22797989.8984   22797980.5744
        44.5004         32.5004
 -14306287.53047 -11115694.10046  22911165.7274   22911161.8284
        42.0004         41.2504
 -21367619.88247 -16634779.04148  21238549.7974   21238545.1954
        47.0004         49.7504
 -20507622.68047 -15949378.64648  21155481.6094   21155477.3754
        47.5004         49.0004
   -466190.75946   -296291.67844  25307819.9774   25307812.7464
        38.0004         28.5004
  -3310868.06446  -2628108.09742  24736932.3054   24736926.2814
        36.7504         15.5004
  -8046989.87846  -6120843.46846  23699852.2504   23699845.8914
        41.2504         37.2504
 20  5  2  0 28 30.0000000  0 11G23G16G 6G 4G22G 9G 3G26G 7G14G31
  -9845412.64747  -7659158.58345  22798938.2584   22798928.8094
        46.2504         31.0004
 -23944454.66348 -18496741.70146  20646948.0704   20646940.1134
        48.0004         39.0004
   -331030.71245   -260348.93745  25206466.5474   25206463.6174
        34.7504         31.0004
 -24901994.91347 -19363286.64246  20710918.5704   20710912.0434
        46.7504         37.5004
 -14817294.41847 -11524805.09245  22815482.6334   22815472.0084
        44.5004         32.0004
 -14393114.41247 -11183351.37846  22894644.9844   22894639.1884
        43.0004         41.7504
 -21305267.96147 -16586193.15648  21250415.1174   21250410.4024
        47.2504         49.5004
 -20468647.46547 -15919008.35248  21162898.4144   21162893.8954
        47.0004         49.0004
   -549299.29846   -361051.64545  25292005.0234   25291998.2704
        38.0004         30.0004
  -3225314.22645  -2561442.78642  24753212.5784   24753206.7934
        33.5004         15.5004
  -7953560.16746  -6048041.14146  23717632.0864   23717625.1914
        41.5004         37.7504
 20  5  2  0 29  0.0000000  0 10G23G16G 6G 4G22G 9G 3G26G 7G31
  -9925563.00847  -7721613.40345  22783686.1644   22783676.5164
        46.5004         32.5004
 -23985800.01847 -18528958.86146  20639080.5474   20639072.0634
        47.5004         38.0004
   -314198.19446   -247232.73445  25209671.2424   25209667.1914
        36.5004         30.5004
 -24943806.60347 -19395867.18146  20702962.5084   20702955.7734
        46.2504         37.5004
 -14725119.05947 -11452980.16045  22833022.2584   22833012.7774
        44.2504         32.0004
 -14479830.91147 -11250922.65947  22878142.6954   22878137.6094
        43.5004         42.7504
 -21242421.26247 -16537221.71448  21262374.3204   21262370.2074
        47.2504         49.7504
 -20429111.81647 -15888201.35948  21170421.7584   21170417.1524
        47.5004         49.0004
   -632321.26646   -425744.12744  25276206.5474   25276199.8674
        37.0004         29.5004
  -7860103.07647  -5975217.49346  23735417.0944   23735408.9614
        43.0004         37.5004
 20  5  2  0 29 30.0000000  0 11G23G16G 6G 4G22G 9G 3G26G 7G14G31
 -10005628.84947  -7784002.37645  22768450.0314   22768440.5704
        46.0004         31.5004
 -24026515.91248 -18560685.53046  20631332.2114   20631324.1994
        48.0004         38.5004
   -296879.63646   -233737.79345  25212966.5474   25212963.2664
        36.7504         31.5004
 -24985329.43547 -19428222.63546  20695060.8524   20695054.4304
        46.2504         37.7504
 -14632701.31047 -11380966.34245  22850608.9384   22850599.1294
        44.2504         32.5004
 -14566445.01947 -11318414.16447  22861660.2664   22861655.2304
        42.5004         42.2504
 -21179091.23247 -16487873.65948  21274426.1174   21274421.7154
        47.2504         49.7504
 -20389026.80347 -15856966.28348  21178049.6254   21178045.0314
        47.7504         48.7504
   -715265.84146   -490376.25844  25260422.6174   25260415.6094
        36.7504         28.7504
     89994.34855  22002095.24652  24785848.7974   24785842.8794
        35.5004         17.7504
  -7766629.22546  -5902380.76846  23753204.2424   23753196.8404
        41.5004         37.0004
 20  5  2  0 30  0.0000000  0 11G23G16G 6G 4G22G 9G 3G26G 7G14G31
 -10085597.95747  -7846315.96445  22753232.2664   22753222.8324
        45.7504         32.2504
 -24066589.94948 -18591912.05446  20623705.8914   20623698.4304
        48.2504         38.7504
   -279065.46046   -219856.67345  25216356.6884   25216352.5164
        38.0004         31.7504
 -25026551.15347 -19460343.45746  20687216.3594   20687209.7344
        47.0004         38.5004
 -14540032.91347 -11308757.21945  22868242.9534   22868233.0864
        44.5004         31.5004
 -14652944.42947 -11385816.29847  22845200.3524   22845194.7304
        43.2504         42.0004
 -21115269.05547 -16438142.10948  21286571.1644   21286566.5204
        47.5004         49.7504
 -20348383.30948 -15825296.03648  21185783.8204   21185779.2384
        48.0004         48.7504
   -798121.60346   -554939.20744  25244656.0314   25244648.8634
        37.2504         28.5004
    175943.32646  22069068.43143  24802204.7194   24802198.6724
        37.2504         19.0004
  -7673128.81946  -5829523.34046  23770996.3594   23770989.3554
        41.0004         36.5004
 20  5  2  0 30 30.0000000  0 11G23G16G 6G 4G22G 9G 3G26G 7G14G31
 -10165472.81047  -7908556.09345  22738032.4144   22738023.2704
        46.0004         32.0004
 -24106024.67648 -18622640.41746  20616202.1724   20616194.0274
        48.0004         38.7504
   -260761.06946   -205593.54445  25219838.8834   25219835.6564
        36.7504         31.0004
 -25067474.42947 -19492231.72746  20679429.1254   20679422.7384
        47.0004         37.5004
 -14447120.15147 -11236357.68645  22885923.6954   22885914.2774
        44.5004         32.0004
 -14739331.77947 -11453131.10447  22828760.6414   22828755.6604
        43.0004         42.0004
 -21050960.96047 -16388031.92848  21298808.2974   21298803.7194
        47.5004         49.7504
 -20307187.14247 -15793195.13148  21193623.0784   21193618.5784
        47.5004         48.5004
   -880892.43146   -619436.03444  25228905.5084   25228898.0474
        38.0004         29.0004
    262023.25445  22136143.63242  24818584.1954   24818578.9494
        34.5004         16.2504
  -7579606.96746  -5756649.21246  23788793.6724   23788786.1994
        41.7504         37.5004
 20  5  2  0 31  0.0000000  0 11G23G16G 6G 4G22G 9G 3G26G 7G14G31
 -10245252.19147  -7970721.82445  22722850.9064   22722841.5554
        46.0004         31.7504
 -24144818.93548 -18652869.70846  20608819.8984   20608811.7734
        48.2504         38.5004
   -241967.70846   -190949.44545  25223416.3204   25223411.6684
        37.7504         30.2504
 -25108097.77547 -19523886.28546  20671698.7664   20671692.5314
        47.5004         38.5004
 -14353965.64447 -11163769.77645  22903650.5864   22903640.8874
        44.5004         31.7504
 -14825605.47747 -11520357.36646  22812343.5004   22812338.4574
        42.0004         41.7504
 -20986168.99047 -16337544.69248  21311137.8594   21311133.2854
        46.5004         49.5004
 -20265439.96647 -15760664.86648  21201567.3594   21201562.9184
        47.7504         48.5004
   -963577.57146   -683866.05544  25213171.0234   25213163.7034
        36.5004         29.7504
    348233.28445  22203320.13042  24834989.3444   24834985.1094
        33.7504         13.7504
  -7486065.23347  -5683759.59246  23806594.1254   23806586.1414
        42.7504         38.0004
 20  5  2  0 31 30.0000000  0 11G23G16G 6G 4G22G 9G 3G26G 7G14G31
 -10324935.45347  -8032812.67545  22707687.9534   22707678.4574
        46.2504         31.7504
 -24182971.81647 -18682599.22046  20601559.7504   20601551.6254
        46.7504         38.5004
   -222687.49546   -175925.90744  25227084.6644   25227080.6604
        36.7504         29.7504
 -25148420.34647 -19555306.47546  20664025.3204   20664018.6134
        45.7504         37.7504
 -14260572.66247 -11090996.05445  22921422.3134   22921413.0354
        44.0004         31.5004
 -14911764.70547 -11587494.40846  22795948.2814   22795942.8014
        42.7504         41.7504
 -20920895.85047 -16286682.51748  21323559.3284   21323554.4064
        47.0004         49.5004
 -20223144.15347 -15727707.10348  21209616.1484   21209611.8014
        47.5004         48.5004
  -1046177.79346   -748229.87345  25197452.9224   25197445.7624
        37.7504         31.0004
    434572.27146  22270597.34942  24851419.8674   24851415.1994
        36.7504         14.7504
  -7392504.99446  -5610855.56946  23824397.2274   23824390.7664
        41.5004         36.5004
 20  5  2  0 32  0.0000000  0 11G23G16G 6G 4G22G 9G 3G26G 7G14G31
 -10404520.07047  -8094826.64845  22692544.1174   22692534.1054
        46.2504         32.5004
 -24220481.37948 -18711827.45646  20594421.7424   20594413.7074
        48.2504         38.0004
   -202920.94745   -160523.44545  25230847.0944   25230842.6724
        35.5004         30.5004
 -25188440.05347 -19586490.66346  20656409.9304   20656403.0554
        47.2504         38.7504
 -14166943.35147 -11018038.17245  22939239.8204   22939230.2894
        44.5004         31.5004
 -14997807.26147 -11654540.54947  22779575.1884   22779569.8164
        43.2504         42.2504
 -20855142.99347 -16235446.54348  21336071.2664   21336066.7664
        46.7504         49.5004
 -20180300.79047 -15694322.66548  21217768.8754   21217764.2544
        47.5004         48.5004
  -1128692.30746   -812526.93445  25181750.5864   25181743.8404
        38.5004         30.0004
    521040.63546  22337975.25342  24867873.7734   24867868.0594
        36.7504         16.2504
  -7298926.64146  -5537937.41546  23842205.2504   23842197.9574
        41.5004         36.5004
 20  5  2  0 32 30.0000000  0 11G23G16G 6G 4G22G 9G 3G26G 7G14G31
 -10484004.79447  -8156762.79545  22677417.8984   22677408.5474
        47.0004         32.2504
 -24257346.26347 -18740553.34146  20587406.8134   20587398.6454
        47.5004         38.5004
   -182669.35146   -144743.03845  25234700.3674   25234696.1214
        37.5004         30.5004
 -25228155.33947 -19617437.64846  20648852.3204   20648846.0394
        47.5004         38.5004
 -14073079.71847 -10944897.70645  22957102.1094   22957091.6604
        44.0004         31.5004
 -15083731.51047 -11721494.50947  22763224.5474   22763218.8874
        44.0004         42.7504
 -20788912.45147 -16183838.33948  21348674.3984   21348669.9734
        47.5004         49.5004
 -20136911.58947 -15660512.91248  21226025.5864   21226021.1414
        47.5004         48.5004
  -1211120.32346   -876756.61044  25166065.1414   25166058.4224
        36.5004         28.7504
    607637.94645  22405453.60943  24884352.6024   24884346.8364
        35.0004         18.2504
  -7205331.44246  -5465006.17246  23860015.2894   23860008.6334
        41.2504         36.0004
 20  5  2  0 33  0.0000000  0 11G23G16G 6G 4G22G 9G 3G26G 7G14G31
 -10563388.61847  -8218620.31045  22662311.6724   22662302.2034
        46.0004         32.2504
 -24293565.54347 -18768776.15546  20580514.4614   20580506.2544
        47.5004         38.5004
   -161934.53246   -128586.07245  25238646.7584   25238641.7504
        37.0004         30.5004
 -25267565.16247 -19648146.59846  20641352.9224   20641346.6484
        47.2504         38.0004
 -13978985.02747 -10871577.18545  22975007.1334   22974997.3914
        44.7504         31.0004
 -15169536.36247 -11788355.41747  22746896.5084   22746890.9224
        43.5004         42.5004
 -20722206.80047 -16131859.93148  21361368.4454   21361363.6994
        47.0004         49.2504
 -20092978.71448 -15626279.50348  21234386.1884   21234380.9104
        48.0004         48.5004
  -1293461.63746   -940918.68545  25150396.4224   25150389.0554
        39.0004         32.5004
    694363.16545  22473031.65242  24900855.8754   24900850.7854
        33.2504         16.2504
  -7111720.65546  -5392062.72746  23877828.8524   23877822.1884
        41.0004         36.5004
 20  5  2  0 33 30.0000000  0 11G23G16G 6G 4G22G 9G 3G26G 7G14G31
 -10642669.76047  -8280397.80545  22647225.0864   22647215.5084
        46.5004         32.5004
 -24329137.70747 -18796494.72346  20573745.3524   20573737.7304
        46.5004         38.0004
   -140717.75146   -112053.56045  25242683.4844   25242679.6454
        36.7504         31.0004
 -25306667.84647 -19678616.23646  20633911.9844   20633905.4964
        46.5004         38.7504
 -13884661.68347 -10798078.50145  22992956.1174   22992946.5664
        43.7504         31.2504
 -15255220.03647 -11855121.92447  22730591.2034   22730585.6174
        43.2504         43.2504
 -20655027.95647 -16079512.80548  21374152.0944   21374147.3524
        47.0004         49.2504
 -20048503.78948 -15591623.72648  21242849.0234   21242844.3794
        48.0004         48.5004
  -1375716.13746  -1005013.11944  25134743.1334   25134736.1174
        37.0004         28.7504
    781215.97645  22540709.02742  24917382.9384   24917379.9774
        31.5004         12.5004
  -7018095.28946  -5319107.97346  23895645.0164   23895637.8754
        40.0004         36.5004
 20  5  2  0 34  0.0000000  0 11G23G16G 6G 4G22G 9G 3G26G 7G14G31
 -10721843.36247  -8342091.51245  22632158.2664   22632149.6644
        46.5004         32.7504
 -24364058.07247 -18823705.39346  20567099.8204   20567092.4384
        47.5004         39.0004
   -119016.79246    -95143.75545  25246813.3444   25246808.8634
        37.0004         30.5004
 -25345458.41947 -19708842.65246  20626530.4694   20626523.9024
        47.5004         38.0004
 -13790108.33747 -10724400.58745  23010949.0084   23010939.2304
        44.0004         31.5004
 -15340777.47147 -11921790.04147  22714310.3444   22714305.1134
        43.0004         42.7504
 -20587374.53547 -16026795.85948  21387025.9304   21387021.2624
        47.5004         49.2504
 -20003485.04648 -15556544.19148  21251415.8364   21251411.2584
        48.2504         48.5004
  -1457879.84746  -1069036.86345  25119109.1414   25119101.1214
        38.7504         31.0004
                                  24933935.797
        29.000
  -6924452.95346  -5246139.97145  23913464.1254   23913458.1604
        40.0004         35.5004
 20  5  2  0 34 30.0000000  0 11G23G16G 6G 4G22G 9G 3G26G 7G14G31
 -10800915.38847  -8403706.06045  22617111.5234   22617102.7194
        46.5004         32.5004
 -24398332.91547 -18850413.07246  20560577.5004   20560569.7154
        47.2504         39.0004
    -96840.71746    -77863.74445  25251032.8284   25251029.2544
        36.5004         30.2504
 -25383942.97947 -19738830.62846  20619207.3284   20619200.4414
        47.0004         38.7504
 -13695335.11747 -10650551.34245  23028983.9454   23028973.9534
        43.7504         30.0004
 -15426214.70147 -11988364.48847  22698052.0234   22698046.6764
        43.7504         43.0004
 -20519256.36647 -15973716.78548  21399988.2194   21399983.6994
        47.5004         49.0004
 -19957931.94148 -15521048.27648  21260084.1564   21260079.7854
        48.0004         48.5004
  -1539959.94246  -1132995.41445  25103489.4224   25103481.9774
        38.0004         30.0004
                                  24950512.289
        32.250
  -6830802.29146  -5173165.44746  23931285.8444   23931278.5864
        41.2504         36.5004
 20  5  2  0 35  0.0000000  0 11G23G16G 6G 4G22G 9G 3G26G 7G14G31
 -10879884.04747  -8465240.05645  22602084.5474   22602075.6524
        47.0004         33.0004
 -24431960.78847 -18876616.60346  20554178.2974   20554170.8134
        47.2504         39.0004
    -74190.71645    -60214.45744  25255342.4924   25255339.7664
        34.5004         29.5004
 -25422119.74547 -19768578.75446  20611942.1484   20611935.6024
        47.2504         38.7504
 -13600344.68347 -10576532.83744  23047059.8834   23047050.1804
        44.2504         29.7504
 -15511529.80647 -12054843.78047  22681816.7504   22681811.7194
        43.2504         43.2504
 -20450675.23647 -15920276.95548  21413038.6884   21413034.2034
        47.0004         49.0004
 -19911845.96048 -15485137.13448  21268854.4844   21268849.8714
        48.0004         48.2504
  -1621956.05646  -1196888.48244  25087885.5704   25087878.4924
        38.7504         29.7504
   1042534.17445  22500704.43352  24967110.8674   24967106.1024
        34.7504         16.2504
  -6737143.66847  -5100184.79646  23949110.1804   23949102.1024
        42.0004         36.7504
 20  5  2  0 35 30.0000000  0 11G23G16G 6G 4G22G 9G 3G26G 7G14G31
 -10958740.75847  -8526686.83645  22587078.3284   22587069.4224
        46.5004         32.7504
 -24464933.44447 -18902309.58246  20547904.0554   20547896.2774
        47.5004         38.5004
    -51061.02546    -42191.37245  25259745.8754   25259740.7154
        37.0004         31.0004
 -25459980.08747 -19798080.32946  20604737.5864   20604731.3134
        47.2504         38.5004
 -13505132.23647 -10502341.34345  23065177.9614   23065168.5864
        44.5004         30.7504
 -15596714.06547 -12121221.11147  22665606.5164   22665601.2074
        44.2504         43.0004
 -20381626.31047 -15866472.62448  21426178.7034   21426174.0204
        47.2504         49.0004
 -19865221.88348 -15448806.69148  21277726.1724   21277722.0354
        48.5004         48.0004
  -1703860.53246  -1260710.25245  25072299.6484   25072293.0234
        37.7504         31.0004
   1129891.36146  22568774.93743  24983733.6334   24983729.1174
        36.2504         18.5004
  -6643471.56746  -5027193.58946  23966934.1024   23966927.1804
        41.7504         36.0004
 20  5  2  0 36  0.0000000  0 11G23G16G 6G 4G22G 9G 3G26G 7G14G31
 -11037487.27647  -8588047.74445  22572093.0084   22572084.2814
        47.0004         32.5004
 -24497253.08047 -18927493.71246  20541754.0784   20541745.8674
        47.0004         38.0004
    -27456.65146    -23798.35645  25264236.6094   25264232.8634
        36.7504         30.7504
 -25497526.05947 -19827336.93346  20597593.0394   20597586.6094
        46.5004         38.0004
 -13409703.86747 -10427981.61045  23083337.2974   23083328.2664
        43.0004         30.5004
 -15681769.38847 -12187497.97647  22649421.5634   22649416.2034
        43.2504         42.7504
 -20312115.21347 -15812308.14348  21439405.9144   21439401.6914
        46.7504         49.0004
 -19818065.00247 -15412061.07548  21286699.7344   21286695.4884
        47.5004         48.2504
  -1785676.37646  -1324462.83045  25056731.0004   25056723.7664
        39.5004         31.5004
   1217373.73145  22636942.94642  25000382.6484   25000376.5274
        35.5004         17.2504
  -6549790.12346  -4954195.10946  23984761.5084   23984754.7154
        40.7504         36.2504
 20  5  2  0 36 30.0000000  0 11G23G16G 6G 4G22G 9G 3G26G 7G14G31
 -11116122.40547  -8649321.85745  22557129.5314   22557120.2974
        46.5004         32.0004
 -24528918.80847 -18952168.30846  20535728.2344   20535720.0864
        47.2504         38.0004
     -3379.24446     -5036.78745  25268818.1254   25268814.2304
        36.5004         30.2504
 -25534756.24447 -19856347.46846  20590508.3364   20590501.9184
        46.5004         38.5004
 -13314062.22347 -10353455.67545  23101537.7814   23101528.5204
        45.0004         30.2504
 -15766694.23347 -12253673.17047  22633260.7504   22633255.4574
        44.2504         42.7504
 -20242144.27847 -15757785.35848  21452721.2194   21452716.7504
        47.0004         49.0004
 -19770377.34947 -15374901.87848  21295774.8834   21295770.3634
        47.5004         48.0004
  -1867403.55946  -1388146.43344  25041178.7424   25041171.5664
        37.7504         29.5004
   1304980.41845  22705207.79342  25017052.6644   25017047.9774
        33.7504         16.2504
  -6456100.50346  -4881190.27446  24002589.4924   24002582.8594
        41.0004         36.2504
 20  5  2  0 37  0.0000000  0 11G23G16G 6G 4G22G 9G 3G26G 7G14G31
 -11194644.26247  -8710507.71945  22542187.5394   22542178.3444
        46.7504         33.0004
 -24559929.27547 -18976332.30146  20529826.8284   20529819.0234
        47.5004         38.5004
     21169.84245     14092.33445  25273489.4224   25273485.8554
        35.7504         30.2504
 -25571668.96147 -19885110.63246  20583483.9614   20583477.2424
        47.2504         38.5004
 -13218209.90947 -10278765.58845  23119778.4064   23119768.4804
        44.7504         31.0004
 -15851486.75147 -12319745.24747  22617124.8754   22617120.1914
        43.7504         43.5004
 -20171715.55547 -15702905.84748  21466123.6024   21466119.0164
        47.2504         49.0004
 -19722160.54947 -15337330.35148  21304949.9694   21304945.7734
        47.5004         48.0004
  -1949041.93546  -1451760.76745  25025644.0784   25025636.7424
        39.0004         31.5004
   1392711.16645  22773569.28142  25033748.3204   25033743.4414
        33.5004         16.7504
  -6362403.43146  -4808179.60445  24020419.3054   24020412.8404
        40.2504         35.5004
 20  5  2  0 37 30.0000000  0 11G23G16G 6G 4G22G 9G 3G26G 7G14G31
 -11273051.71447  -8771604.42645  22527266.7424   22527258.1134
        47.5004         33.5004
 -24590283.73447 -18999985.13046  20524050.4534   20524042.5474
        47.5004         38.5004
     46188.94346     33587.68945  25278251.1334   25278247.4574
        36.7504         30.5004
 -25608263.08147 -19913625.54246  20576520.2034   20576513.8444
        47.0004         38.5004
 -13122149.37747 -10203913.24045  23138057.3834   23138048.2114
        43.7504         31.7504
 -15936145.75147 -12385713.27847  22601015.0944   22601010.1804
        44.2504         43.5004
 -20100831.64548 -15647671.65248  21479612.0474   21479607.7234
        48.0004         48.7504
 -19673416.91748 -15299348.31048  21314225.6334   21314221.1724
        48.0004         48.0004
  -2030590.94446  -1515305.51944  25010125.4064   25010117.6414
        37.2504         29.2504
   1480565.09745  22842026.77242  25050465.9224   25050461.4024
        34.0004         14.7504
  -6268700.29346  -4735164.26346  24038250.8054   24038244.0864
        41.0004         36.0004
 20  5  2  0 38  0.0000000  0 11G23G16G 6G 4G22G 9G 3G26G 7G14G31
 -11351343.59947  -8832611.07745  22512369.1094   22512359.5394
        46.7504         33.5004
 -24619981.58347 -19023126.30546  20518399.5394   20518391.4734
        47.5004         38.5004
     71676.04946     53447.75245  25283100.1724   25283097.6214
        36.7504         30.7504
 -25644537.40847 -19941891.25246  20569617.5004   20569610.8324
        47.0004         38.5004
 -13025883.76247 -10128901.10045  23156376.3134   23156367.0274
        44.2504         30.7504
 -16020669.86747 -12451576.20647  22584930.9144   22584925.9494
        44.2504         43.7504
 -20029495.06347 -15592084.72848  21493187.1484   21493182.4344
        47.5004         48.7504
 -19624148.66747 -15260957.46948  21323601.2424   21323596.6094
        47.7504         48.0004
  -2112050.35946  -1578780.41845  24994624.0704   24994617.1094
        38.2504         32.0004
   1568541.01345  22910579.47242  25067208.7814   25067202.1524
        35.0004         15.5004
  -6174992.54346  -4662145.30345  24056083.3984   24056075.7194
        40.5004         34.7504
 20  5  2  0 38 30.0000000  0 11G23G16G 6G 4G22G 9G 3G26G 7G14G31
 -11429517.83848  -8893526.05945  22497493.0554   22497484.2234
        48.0004         33.0004
 -24649021.22947 -19045754.60346  20512873.1484   20512865.6644
        46.7504         39.0004
     97630.34145     73671.83345  25288038.9384   25288036.5044
        35.5004         30.2504
 -25680489.79947 -19969906.10546  20562776.1644   20562769.7894
        46.0004         38.5004
 -12929415.07947 -10053730.71445  23174733.5474   23174724.5124
        43.7504         31.0004
 -16105056.77847 -12517332.22747  22568871.9614   22568867.4304
        43.5004         44.0004
 -19957707.50548 -15536146.38648  21506847.7274   21506843.3794
        48.2504         48.7504
 -19574357.09047 -15222158.85048  21333076.2974   21333072.1454
        47.2504         48.0004
  -2193419.65146  -1642185.07845  24979139.5004   24979133.0354
        37.2504         30.5004
   1656639.32545  22979227.35642  25083971.9064   25083967.0944
        33.7504         14.7504
  -6081280.55646  -4589123.01845  24073916.2734   24073908.6914
        41.5004         35.0004
 20  5  2  0 39  0.0000000  0 11G23G16G 6G 4G22G 9G 3G26G 7G14G31
 -11507568.03648  -8954344.39545  22482639.8444   22482630.9614
        48.0004         33.0004
 -24677397.00647 -19067865.59846  20507473.5554   20507466.0664
        47.5004         39.0004
    124054.55046     94262.12345  25293068.0234   25293064.5704
        36.2504         31.7504
 -25716114.29747 -19997665.45946  20555997.0474   20555990.4924
        46.5004         38.5004
 -12832741.09047  -9978400.36944  23193130.5314   23193120.1644
        45.0004         28.5004
 -16189300.36847 -12582976.55047  22552841.5784   22552836.1214
        44.2504         44.0004
 -19885466.71848 -15479854.87748  21520594.8674   21520589.8404
        48.2504         48.7504
 -19524039.64847 -15182950.46048  21342651.0784   21342646.7814
        47.5004         48.0004
  -2274694.02446  -1705515.80245  24963673.7274   24963667.2584
        38.0004         31.7504
                                  25100760.273
        27.250
  -5987560.54846  -4516094.50145  24091751.1254   24091743.0044
        41.7504         35.0004
 20  5  2  0 39 30.0000000  0 11G23G16G 6G 4G22G 9G 3G26G 7G14G31
 -11585502.39248  -9015072.44945  22467810.0164   22467800.6254
        48.0004         33.0004
 -24705117.48347 -19089465.96746  20502198.4614   20502190.4064
        46.7504         39.0004
    150937.60045    115209.92144  25298182.8524   25298180.2304
        34.5004         29.5004
 -25751418.98047 -20025175.61046  20549278.6174   20549272.4224
        46.7504         38.7504
 -12735873.73147  -9902919.32144  23211563.0314   23211553.9654
        44.0004         28.5004
 -16273408.53347 -12648515.36247  22536836.3364   22536831.1844
        44.0004         43.7504
 -19812784.62547 -15423219.50448  21534425.5394   21534421.0554
        47.5004         48.2504
 -19473207.91847 -15143341.32648  21352324.5634   21352320.0864
        47.2504         48.0004
  -2355882.78646  -1768779.76945  24948223.7034   24948217.9184
        37.7504         31.2504
                                  25117570.664
        31.000
  -5893842.71046  -4443067.65645  24109583.7894   24109577.6604
        40.5004         34.5004
 20  5  2  0 40  0.0000000  0 11G23G16G 6G 4G22G 9G 3G26G 7G14G31
 -11663320.19847  -9075709.69345  22453002.0394   22452992.6254
        47.0004         33.0004
 -24732182.94447 -19110555.93946  20497048.1644   20497040.0704
        47.0004         38.5004
    178276.80746    136513.14045  25303386.8524   25303382.3324
        36.0004         30.5004
 -25786403.42547 -20052436.21246  20542621.3134   20542615.1564
        46.5004         39.0004
 -12638817.10747  -9827290.81345  23230032.5084   23230023.2624
        43.5004         30.5004
 -16357380.66347 -12713948.17547  22520856.9774   22520851.6454
        44.2504         43.7504
 -19739664.59047 -15366242.86048  21548339.5164   21548335.1724
        47.5004         48.2504
 -19421864.84047 -15103333.74448  21362094.6954   21362089.5594
        47.0004         48.0004
  -2436986.55546  -1831977.53145  24932790.5944   24932783.7584
        38.5004         30.5004
   1921661.036 5                  25134404.203
        35.750
  -5800129.39346  -4370044.37245  24127417.7894   24127409.8284
        41.5004         35.5004
 20  5  2  0 40 30.0000000  0 12G23G16G27G 6G 4G22G 9G 3G26G 7G14G31
 -11741009.06947  -9136246.47945  22438217.7194   22438208.3444
        46.7504         32.7504
 -24758582.07647 -19131126.69646  20492024.6724   20492016.7274
        46.7504         39.0004
   -847302.00756   -640036.13255  25094355.5784   25094351.3834
        39.2504         31.7504
    206081.20045    158178.87244  25308676.9064   25308673.5394
        35.5004         29.5004
 -25821055.40947 -20079437.76746  20536026.9694   20536021.0124
        46.7504         38.7504
 -12541562.90147  -9751508.33545  23248539.7274   23248530.2464
        43.2504         30.0004
 -16441204.37847 -12779265.36547  22504905.5084   22504900.2034
        44.2504         43.7504
 -19666098.15148 -15308918.38748  21562339.1724   21562334.5554
        48.0004         48.2504
 -19370001.79347 -15062920.98648  21371964.1254   21371959.1174
        47.0004         48.0004
  -2517994.20646  -1895100.38245  24917376.1484   24917369.0634
        38.5004         32.2504
   2010241.548 5                  25151260.727
        35.250
  -5706411.00146  -4297017.08145  24145251.1884   24145244.6254
        40.5004         35.0004
 20  5  2  0 41  0.0000000  0 12G23G16G27G 6G 4G22G 9G 3G26G 7G14G31
 -11818574.04347  -9196686.71445  22423457.8204   22423447.8674
        47.0004         33.0004
 -24784320.07647 -19151182.27746  20487126.6724   20487118.8874
        46.5004         39.0004
   -943103.33646   -714686.53644  25076124.9614   25076120.5004
        37.5004         26.0004
    234342.75745    180200.81845  25314055.0554   25314052.1804
        35.2504         31.2504
 -25855379.91447 -20106184.13846  20529495.5084   20529489.3754
        46.0004         38.7504
 -12444120.29047  -9675579.05144  23267083.1884   23267072.9344
        44.0004         29.2504
 -16524884.39947 -12844470.58047  22488981.3914   22488976.4924
        43.5004         43.7504
 -19592094.17647 -15251252.96748  21576421.7584   21576416.9924
        47.2504         48.0004
 -19317627.19147 -15022109.61247  21381930.1724   21381925.5744
        46.5004         47.7504
  -2598911.70446  -1958153.02045  24901977.6174   24901970.8674
        38.2504         31.5004
   2098939.80545  22887848.78852  25168139.9694   25168134.5314
        33.5004         17.2504
  -5612694.85546  -4223991.59045  24163085.3204   24163078.2704
        40.5004         34.7504
 20  5  2  0 41 30.0000000  0 11G23G16G27G 6G 4G22G 9G 3G26G 7G31
 -11896008.41847  -9257025.17145  22408722.1954   22408712.8284
        47.0004         32.7504
 -24809391.21247 -19170718.22846  20482355.7664   20482348.0824
        46.2504         38.0004
  -1038935.60646   -789361.03744  25057889.0864   25057884.0394
        39.2504         27.5004
    263064.83745    202581.63245  25319520.9304   25319517.6604
        35.5004         31.7504
 -25889370.32247 -20132670.17746  20523027.5634   20523021.0634
        45.7504         39.0004
 -12346486.68747  -9599500.94644  23285661.4304   23285651.6764
        42.7504         29.7504
 -16608413.94047 -12909558.53047  22473086.5784   22473081.3164
        44.0004         44.0004
 -19517649.84547 -15193244.41548  21590587.7734   21590583.5274
        47.2504         48.0004
 -19264737.94447 -14980897.21847  21391994.6804   21391990.5824
        46.5004         47.7504
  -2679734.27046  -2021131.67145  24886597.8054   24886590.6254
        39.2504         31.5004
  -5518976.67046  -4150964.50545  24180919.5634   24180912.2974
        41.5004         35.7504
 20  5  2  0 42  0.0000000  0 11G23G16G27G 6G 4G22G 9G 3G26G 7G31
 -11973317.10347  -9317265.68345  22394011.1644   22394001.9454
        47.0004         33.0004
 -24833801.07847 -19189738.90546  20477710.7034   20477703.1454
        47.0004         39.0004
  -1134802.16246   -864062.22245  25039646.0554   25039642.4534
        38.7504         33.7504
    292239.18846    225314.82645  25325072.4454   25325069.4064
        36.7504         31.5004
 -25923031.65947 -20158899.79746  20516621.6724   20516615.6024
        45.7504         39.2504
 -12248671.15947  -9523281.08244  23304274.8054   23304265.2154
        43.2504         29.5004
 -16691797.84547 -12974532.99447  22457219.5474   22457213.8984
        45.0004         44.0004
 -19442774.10347 -15134899.70048  21604836.4304   21604831.7734
        46.5004         48.2504
 -19211342.59547 -14939290.45947  21402155.7974   21402151.4144
        46.0004         47.7504
  -2760467.65546  -2084040.84045  24871235.5004   24871227.6804
        40.0004         32.7504
  -5425263.72846  -4077941.49345  24198753.1094   24198745.3014
        40.7504         34.5004
 20  5  2  0 42 30.0000000  0 11G23G16G27G 6G 4G22G 9G 3G26G 7G31
 -12050495.68547  -9377404.82545  22379324.5314   22379314.9184
        47.0004         33.2504
 -24857546.20547 -19208241.59546  20473192.3594   20473184.6524
        47.0004         38.7504
  -1230697.39746   -938785.73345  25021397.5554   25021394.3204
        37.5004         32.2504
    321866.78546    248401.23745  25330709.3674   25330707.4884
        36.7504         31.0004
 -25956359.85947 -20184869.82146  20510279.7194   20510273.2704
        45.7504         39.2504
 -12150673.41147  -9446919.22544  23322923.6644   23322914.1844
        43.0004         29.2504
 -16775031.77247 -13039390.58247  22441379.9924   22441374.8324
        44.2504         44.0004
 -19367466.70847 -15076218.63348  21619167.2114   21619162.4184
        47.0004         48.2504
 -19157440.63247 -14897288.94047  21412412.9844   21412408.5824
        46.5004         47.5004
  -2841108.81046  -2146878.13245  24855888.6024   24855881.8324
        38.7504         31.0004
  -5331554.63346  -4004921.44045  24216584.2274   24216577.2464
        40.2504         35.0004
 20  5  2  0 43  0.0000000  0 11G23G16G27G 6G 4G22G 9G 3G26G 7G31
 -12127542.29947  -9437441.14245  22364663.1564   22364653.3164
        47.5004         32.5004
 -24880625.76947 -19226225.67046  20468800.5234   20468792.6374
        47.0004         38.5004
  -1326617.94246  -1013528.88545  25003144.7424   25003140.6564
        36.5004         31.7504
    351946.13746    271839.64545  25336434.7814   25336432.0234
        37.0004         31.0004
 -25989353.11347 -20210578.86046  20504001.3204   20503994.9414
        46.0004         38.7504
 -12052495.95647  -9370417.33944  23341606.4844   23341596.9694
        43.0004         28.7504
 -16858113.71547 -13104129.75047  22425570.7504   22425565.1524
        45.0004         44.2504
 -19291729.69647 -15017202.79448  21633579.0084   21633574.7424
        46.7504         48.0004
 -19103033.77447 -14854893.99447  21422765.9064   21422761.5984
        46.0004         47.5004
  -2921657.30946  -2209643.24845  24840561.3134   24840554.1524
        38.2504         31.0004
  -5237849.79646  -3931904.76345  24234415.8444   24234408.9614
        40.7504         34.5004
 20  5  2  0 43 30.0000000  0 11G23G16G27G 6G 4G22G 9G 3G26G 7G31
 -12204455.96047  -9497373.85045  22350026.6254   22350017.3914
        46.5004         33.5004
 -24903039.87447 -19243691.20946  20464535.2504   20464527.3164
        47.7504         39.0004
  -1422561.26746  -1088289.96945  24984887.2034   24984883.2854
        37.5004         31.5004
    382474.82946    295628.16044  25342244.8054   25342241.1294
        37.0004         29.7504
 -26022010.71547 -20236026.34746  20497786.7584   20497780.3794
        45.7504         38.5004
 -11954142.22347  -9293778.10944  23360322.5784   23360312.4574
        43.7504         29.0004
 -16941042.68147 -13168749.72747  22409789.4224   22409783.9924
        44.5004         44.5004
 -19215566.31247 -14957854.72147  21648072.4144   21648068.0434
        47.0004         47.7504
 -19048124.91547 -14812107.87947  21433215.2974   21433210.7894
        46.2504         47.5004
  -3002113.89846  -2272336.73845  24825250.6254   24825243.8984
        38.7504         31.5004
  -5144150.70246  -3858892.54145  24252245.6884   24252239.6764
        40.0004         34.2504
 20  5  2  0 44  0.0000000  0 11G23G16G27G 6G 4G22G 9G 3G26G 7G31
 -12281234.61947  -9557201.36345  22335416.2664   22335406.9024
        47.2504         33.0004
 -24924787.30547 -19260637.26946  20460396.5634   20460389.0044
        47.0004         38.7504
  -1518523.76145  -1163065.91145  24966625.1484   24966622.4414
        34.5004         30.5004
    413451.53546    319765.84545  25348139.1644   25348135.4344
        37.5004         30.0004
 -26054330.60447 -20261210.68346  20491636.6724   20491630.2974
        46.0004         39.0004
 -11855614.18547  -9217003.03244  23379071.4614   23379061.8444
        44.2504         28.5004
 -17023816.39747 -13233248.70647  22394038.6884   22394032.9184
        45.2504         44.7504
 -19138978.33247 -14898175.79247  21662646.5634   21662642.4264
        46.7504         47.7504
 -18992715.55447 -14768931.76547  21443759.0944   21443754.3014
        46.7504         47.5004
  -3082477.40046  -2334957.65645  24809958.2114   24809951.4534
        38.5004         32.0004
  -5050457.81346  -3785885.16245  24270075.7424   24270069.2424
        40.5004         35.0004
 20  5  2  0 44 30.0000000  0 11G23G16G27G 6G 4G22G 9G 3G26G 7G31
 -12357876.95747  -9616922.64745  22320831.6094   22320822.5394
        47.5004         33.7504
 -24945867.26247 -19277063.21046  20456385.5474   20456377.7034
        47.0004         39.0004
  -1614502.51046  -1237854.47445  24948362.0084   24948358.3874
        37.2504         35.0004
    444874.22746    344250.98444  25354117.8754   25354115.1374
        36.0004         29.7504
 -26086311.62847 -20286130.96546  20485550.6954   20485544.3594
        45.7504         39.0004
 -11756914.58247  -9140094.27344  23397852.9844   23397843.9804
        43.0004         28.5004
 -17106433.41547 -13297625.59147  22378316.4144   22378311.5354
        44.2504         44.7504
 -19061968.55047 -14838168.18947  21677301.4534   21677296.9344
        47.5004         47.5004
 -18936808.10947 -14725367.53447  21454397.6254   21454393.2504
        46.0004         47.2504
  -3162748.53346  -2397506.61345  24794682.5234   24794676.5984
        39.0004         32.0004
  -4956772.32246  -3712883.51345  24287902.4694   24287896.0234
        39.7504         34.2504
 20  5  2  0 45  0.0000000  0 11G23G16G27G 6G 4G22G 9G 3G26G 7G31
 -12434381.43447  -9676536.50945  22306272.9304   22306264.2384
        47.2504         33.5004
 -24966279.57547 -19292968.90646  20452500.9924   20452493.1644
        47.5004         39.5004
  -1710494.43046  -1312653.32445  24930094.8524   24930091.0634
        37.5004         32.2504
    476740.97646    369082.19344  25360182.4844   25360179.2114
        36.0004         28.5004
 -26117952.45447 -20310786.16546  20479529.8674   20479523.4614
        46.2504         39.5004
 -11658046.11847  -9063053.95144  23416667.5554   23416657.6914
        43.0004         28.0004
 -17188892.16647 -13361879.13647  22362625.1884   22362620.1644
        44.0004         44.5004
 -18984539.52747 -14777833.90947  21692035.5474   21692031.3524
        46.7504         47.5004
 -18880404.83447 -14681416.94047  21465131.1484   21465126.3484
        46.2504         47.2504
  -3242926.10946  -2459982.64745  24779425.3364   24779418.8014
        38.7504         31.2504
  -4863095.06746  -3639888.33745  24305730.0634   24305722.6254
        40.2504         35.0004
 20  5  2  0 45 30.0000000  0 11G23G16G27G 6G 4G22G 9G 3G26G 7G31
 -12510746.52847  -9736041.75445  22291741.9304   22291732.3954
        46.5004         34.2504
 -24986023.66647 -19308353.91846  20448743.7734   20448736.3754
        47.7504         38.7504
  -1806496.61246  -1387460.23645  24911826.6024   24911822.6914
        37.5004         30.7504
    509049.90046    394257.88645  25366331.2584   25366327.8404
        36.7504         30.5004
 -26149251.66847 -20335175.16546  20473573.7194   20473566.9264
        46.0004         39.5004
 -11559011.54647  -8985884.17644  23435512.5554   23435503.8324
        42.5004         28.2504
 -17271190.96447 -13426008.04547  22346964.1954   22346959.0474
        44.0004         44.5004
 -18906693.81747 -14717174.93047  21706849.2194   21706844.7734
        47.0004         47.5004
 -18823507.98447 -14637081.74447  21475958.0554   21475953.4384
        46.0004         47.2504
  -3323010.19846  -2522385.88445  24764186.5784   24764179.9774
        37.5004         31.7504
  -4769427.21246  -3566900.44745  24323554.3134   24323546.9414
        41.2504         34.5004
 20  5  2  0 46  0.0000000  0 11G23G16G27G 6G 4G22G 9G 3G26G 7G31
 -12586970.11247  -9795436.74645  22277237.1644   22277227.3834
        47.2504         34.0004
 -25005098.96847 -19323217.78946  20445114.2584   20445106.0514
        46.7504         39.0004
  -1902505.64846  -1462272.46645  24893556.5634   24893552.8484
        38.0004         32.0004
    541799.20746    419776.82944  25372562.6954   25372559.4264
        37.5004         29.5004
 -26180207.66447 -20359296.71846  20467682.8984   20467676.0474
        46.0004         39.7504
 -11459813.26747  -8908586.85644  23454390.5234   23454380.6564
        43.0004         28.0004
 -17353327.97547 -13490010.89347  22331334.0394   22331328.8594
        44.5004         44.5004
 -18828433.69047 -14656193.03847  21721741.9144   21721737.3054
        47.0004         47.0004
 -18766119.55047 -14592363.49447  21486878.7274   21486874.2114
        46.7504         46.7504
  -3403001.24246  -2584716.58645  24748964.1254   24748958.0824
        39.0004         33.0004
  -4675769.56246  -3493920.49645  24341377.0474   24341370.2734
        40.0004         34.2504
 20  5  2  0 46 30.0000000  0 11G23G16G27G 6G 4G22G 9G 3G26G 7G31
 -12663050.85147  -9854720.43545  22262758.8674   22262749.3754
        47.7504         33.0004
 -25023505.13847 -19337560.27046  20441611.4844   20441603.2664
        47.2504         39.0004
  -1998518.46746  -1537087.61545  24875285.7034   24875281.2114
        38.2504         31.2504
    574986.96145    445637.38044  25378877.6564   25378875.2424
        35.7504         29.2504
 -26210819.13547 -20383149.82146  20461857.6724   20461850.9654
        47.0004         38.7504
 -11360454.34647  -8831164.36844  23473296.7734   23473288.3244
        42.5004         28.0004
 -17435301.46447 -13553886.33147  22315734.9774   22315729.5044
        44.5004         44.7504
 -18749761.82247 -14594890.29547  21736712.2274   21736707.6024
        47.5004         47.2504
 -18708241.80447 -14547263.96247  21497892.6954   21497888.2974
        45.7504         47.0004
  -3482898.03446  -2646973.83945  24733760.9614   24733754.3914
        39.0004         32.5004
  -4582122.50046  -3420948.82745  24359197.2034   24359190.3164
        40.2504         33.5004
 20  5  2  0 47  0.0000000  0 11G23G16G27G 6G 4G22G 9G 3G26G 7G31
 -12738986.79747  -9913891.30245  22248308.8524   22248299.4494
        47.7504         33.5004
 -25041241.39947 -19351380.73446  20438236.2664   20438228.5394
        47.0004         39.5004
  -2094531.85046  -1611903.30645  24857015.6174   24857011.3244
        40.5004         32.7504
    608611.39845    471838.18344  25385276.6804   25385274.4454
        33.5004         27.2504
 -26241084.50047 -20406733.22846  20456098.8204   20456092.2934
        47.0004         39.0004
 -11260936.91547  -8753618.34044  23492235.5314   23492225.8014
        43.2504         28.5004
 -17517109.65847 -13617632.95647  22300168.0554   22300162.2464
        44.5004         45.0004
 -18670680.66247 -14533268.62447  21751760.8834   21751756.4614
        47.5004         47.2504
 -18649876.86447 -14501784.79347  21508998.8594   21508994.5274
        46.2504         47.0004
  -3562700.53846  -2709157.63445  24718574.6804   24718568.6254
        39.5004         35.0004
  -4488487.33346  -3347986.39645  24377014.2424   24377008.7384
        38.5004         33.2504
 20  5  2  0 47 30.0000000  0 11G23G16G27G 6G 4G22G 9G 3G26G 7G31
 -12814776.90947  -9972948.52945  22233886.9304   22233877.1454
        47.7504         33.2504
 -25058307.88648 -19364679.29946  20434988.8754   20434981.0354
        48.0004         39.5004
  -2190542.99646  -1686717.18945  24838745.2734   24838741.5944
        38.2504         32.0004
    642670.20246    498377.47044  25391758.2894   25391755.4104
        37.0004         29.7504
 -26271002.68647 -20430046.10546  20450405.0314   20450398.6684
        46.0004         39.2504
 -11161264.00747  -8675951.17644  23511201.9454   23511192.3404
        42.5004         28.0004
 -17598751.15647 -13681249.69547  22284631.2274   22284626.6254
        44.7504         45.2504
 -18591193.02147 -14471330.22447  21766886.8754   21766882.4774
        47.5004         47.0004
 -18591027.29547 -14455927.99547  21520197.7734   21520193.5864
        46.2504         47.0004
  -3642408.95646  -2771268.12145  24703407.0784   24703399.9264
        40.7504         33.5004
  -4394865.04646  -3275034.01645  24394830.6094   24394824.2384
        38.7504         33.2504
 20  5  2  0 48  0.0000000  0 11G23G16G27G 6G 4G22G 9G 3G26G 7G31
 -12890419.02847 -10031890.43045  22219492.2504   22219483.0554
        47.5004         33.7504
 -25074704.05248 -19377455.53046  20431868.4844   20431860.9184
        48.2504         39.2504
  -2286548.54146  -1761526.70045  24820476.3364   24820473.0904
        39.7504         34.5004
    677161.54646    525253.85345  25398321.2424   25398319.1994
        37.0004         31.7504
 -26300572.11147 -20453087.21746  20444778.7734   20444771.5784
        46.5004         39.7504
 -11061438.11647  -8598164.80044  23530198.0784   23530188.9344
        43.0004         28.5004
 -17680224.05447 -13744735.04547  22269127.5784   22269122.5704
        45.0004         45.5004
 -18511301.28047 -14409076.93847  21782090.0314   21782085.3834
        46.5004         47.2504
 -18531695.14747 -14409695.16447  21531488.0164   21531483.6214
        46.7504         47.0004
  -3722023.07946  -2833305.09545  24688256.3054   24688249.9144
        39.2504         32.5004
  -4301256.50646  -3202092.34645  24412644.3594   24412636.9064
        40.7504         34.0004
 20  5  2  0 48 30.0000000  0 11G23G16G27G 6G 4G22G 9G 3G26G 7G31
 -12965911.44748 -10090715.68845  22205126.6954   22205117.2154
        48.0004         33.5004
 -25090428.88447 -19389708.65546  20428876.0634   20428868.4304
        47.7504         39.2504
  -2382544.98246  -1836329.08645  24802207.5164   24802205.3794
        37.5004         32.7504
    712083.87145    552466.02145  25404966.7894   25404964.7154
        35.7504         31.7504
 -26329790.98347 -20475855.17846  20439218.2584   20439211.3914
        46.7504         39.5004
 -10961461.57447  -8520261.03344  23549223.0084   23549213.9024
        43.0004         27.7504
 -17761526.20447 -13808087.35647  22253656.7034   22253651.5434
        45.7504         45.5004
 -18431007.67647 -14346510.51347  21797369.0084   21797364.7854
        46.5004         47.0004
 -18471882.31847 -14363087.77847  21542870.3754   21542865.9574
        46.2504         47.0004
  -3801542.17646  -2895268.04645  24673124.8054   24673118.4384
        40.0004         34.0004
  -4207661.93046  -3129161.58245  24430455.4614   24430447.4694
        40.0004         34.0004
 20  5  2  0 49  0.0000000  0 11G23G16G27G 6G 4G22G 9G 3G26G 7G31
 -13041252.75247 -10149423.20145  22190789.2424   22190779.9734
        47.7504         33.5004
 -25105482.78948 -19401438.96946  20426011.8204   20426003.5944
        48.0004         39.0004
  -2478529.40145  -1911122.08445  24783943.2814   24783939.4264
        35.7504         30.5004
    747434.93645    580012.24245  25411694.1724   25411691.8014
        34.2504         30.0004
 -26358658.16047 -20498349.09346  20433725.2194   20433718.1884
        46.0004         39.5004
 -10861337.04047  -8442241.94744  23568275.6484   23568266.9804
        42.7504         26.5004
 -17842656.17047 -13871305.50247  22238218.4144   22238213.0124
        45.7504         45.5004
 -18350315.06947 -14283633.17447  21812724.3364   21812720.1054
        46.5004         47.0004
 -18411591.36347 -14316107.82047  21554343.4384   21554339.1254
        46.2504         47.0004
  -3880966.35246  -2957157.04945  24658011.5164   24658004.3794
        40.0004         33.0004
  -4114082.68246  -3056242.70345  24448261.2034   24448255.4104
        39.2504         35.0004
 20  5  2  0 49 30.0000000  0 11G23G16G27G 6G 4G22G 9G 3G26G 7G31
 -13116440.90247 -10208011.35645  22176482.0554   22176472.4344
        47.7504         34.2504
 -25119864.88548 -19412645.80446  20423274.6804   20423266.8984
        48.0004         39.5004
  -2574498.45446  -1985903.12345  24765680.7974   24765677.7584
        37.5004         32.0004
    783212.91845    607891.17244  25418502.5864   25418499.5664
        34.7504         29.5004
 -26387172.09047 -20520567.74446  20428298.8444   20428292.3204
        46.0004         39.5004
 -10761067.27747  -8364109.67344  23587356.7344   23587347.3634
        42.5004         27.0004
 -17923611.98147 -13934387.94647  22222812.8524   22222807.3554
        45.2504         45.2504
 -18269225.85247 -14220446.79147  21828155.4304   21828151.3204
        46.2504         47.0004
 -18350824.37847 -14268756.94147  21565907.1484   21565902.2114
        46.0004         47.0004
  -3960294.89946  -3018971.52445  24642915.5234   24642908.0784
        38.7504         32.0004
  -4020519.27146  -2983336.21045  24466066.4384   24466059.8094
        39.5004         33.7504
 20  5  2  0 50  0.0000000  0 11G23G16G27G 6G 4G22G 9G 3G26G 7G31
 -13191474.81647 -10266479.34445  22162203.5554   22162193.8914
        47.5004         33.7504
 -25133575.42847 -19423329.34646  20420665.6644   20420657.7384
        47.5004         39.0004
  -2670449.45346  -2060670.09145  24747422.4774   24747417.5594
        39.5004         34.5004
    819415.24646    636100.77544  25425391.4774   25425388.3444
        36.0004         29.7504
 -26415331.83547 -20542510.41146  20422940.1334   20422933.8284
        46.2504         39.5004
 -10660655.07047  -8285866.42944  23606464.5944   23606455.5744
        42.7504         27.2504
 -18004392.41147 -13997333.72247  22207441.0084   22207435.4224
        45.0004         45.0004
 -18187743.14947 -14156953.79747  21843660.8754   21843656.6844
        46.7504         47.0004
 -18289584.15147 -14221037.29647  21577560.8284   21577555.9804
        46.0004         47.0004
  -4039528.50046  -3080712.00245  24627837.5634   24627830.2774
        38.0004         32.2504
  -3926973.03846  -2910443.13445  24483867.9144   24483862.6604
        39.5004         33.7504
 20  5  2  0 50 30.0000000  0 11G23G16G27G 6G 4G22G 9G 3G26G 7G31
 -13266352.68047 -10324825.72245  22147954.4304   22147945.2194
        47.5004         34.5004
 -25146614.42947 -19433489.61246  20418184.5864   20418176.7274
        47.5004         39.0004
  -2766378.97446  -2135420.48245  24729167.6174   24729161.3874
        39.7504         32.0004
    856039.98046    664639.49145  25432361.1954   25432357.5314
        36.0004         30.0004
 -26443135.93347 -20564175.94446  20417649.2894   20417642.9574
        46.2504         39.5004
 -10560103.27847  -8207514.42844  23625599.3054   23625590.0554
        42.2504         26.0004
 -18084995.58447 -14060141.38947  22192102.2344   22192096.9024
        45.7504         45.2504
 -18105869.43547 -14093156.11647  21859241.0004   21859236.8714
        46.5004         47.0004
 -18227872.91847 -14172950.63847  21589304.0314   21589299.4964
        45.5004         46.7504
  -4118667.08646  -3142378.45745  24612777.9844   24612771.0704
        40.2504         31.0004
  -3833444.68946  -2837563.89545  24501664.2664   24501659.6414
        36.7504         31.7504
 20  5  2  0 51  0.0000000  0 11G23G16G27G 6G 4G22G 9G 3G26G 7G31
 -13341072.04747 -10383048.59445  22133736.0554   22133726.5904
        47.2504         34.0004
 -25158980.77947 -19443125.72946  20415831.3134   20415823.4264
        46.5004         39.0004
  -2862283.50246  -2210151.25445  24710917.1484   24710913.0204
        37.2504         33.2504
    893085.73845    693506.25744  25439410.7584   25439406.3984
        34.7504         29.0004
 -26470582.38847 -20585562.80446  20412426.6024   20412419.8874
        46.2504         39.5004
 -10459414.01347  -8129055.31544  23644760.3754   23644750.3634
        43.7504         27.0004
 -18165419.15547 -14122809.10147  22176798.1174   22176792.7504
        45.5004         45.5004
 -18023606.86047 -14029055.42547  21874895.2974   21874890.3134
        47.0004         46.5004
 -18165692.37847 -14124498.28047  21601136.6724   21601132.0864
        45.5004         46.5004
  -4197709.66746  -3203970.09345  24597736.0944   24597730.0474
        40.2504         32.5004
  -3739934.58646  -2764699.00145  24519460.3524   24519453.8984
        39.2504         34.0004
 20  5  2  0 51 30.0000000  0 11G23G16G27G 6G 4G22G 9G 3G26G 7G31
 -13415631.32947 -10441146.72445  22119547.9064   22119538.3484
        47.7504         34.2504
 -25170674.34147 -19452237.59446  20413605.9304   20413598.0394
        47.0004         39.5004
  -2958159.50846  -2284859.83845  24692672.6094   24692668.6054
        38.2504         34.5004
    930550.57845    722699.59745  25446539.9304   25446535.6524
        35.0004         30.5004
 -26497669.62647 -20606669.74446  20407272.1884   20407265.3834
        46.0004         40.5004
 -10358589.52347  -8050490.79644  23663945.9064   23663936.8954
        43.7504         28.0004
 -18245661.18447 -14185335.34747  22161528.5704   22161523.8094
        45.7504         46.2504
 -17940957.82147 -13964653.60047  21890622.7584   21890617.9414
        46.2504         46.5004
 -18103044.72147 -14075681.94047  21613057.5944   21613053.3404
        46.0004         46.5004
  -4276655.78946  -3265486.59345  24582713.4774   24582707.1724
        40.0004         33.0004
  -3646443.19146  -2691848.58045  24537250.7734   24537243.8324
        39.5004         33.0004
 20  5  2  0 52  0.0000000  0 11G23G16G27G 6G 4G22G 9G 3G26G 7G31
 -13490029.47347 -10499119.29545  22105390.1024   22105380.6054
        47.5004         34.2504
 -25181695.73647 -19460825.69746  20411508.6644   20411500.8524
        47.2504         38.5004
  -3054004.79746  -2359544.39145  24674432.9774   24674430.7704
        37.2504         35.0004
    968431.40545    752217.09045  25453749.5474   25453744.7854
        34.5004         31.5004
 -26524397.22947 -20627496.45546  20402185.6414   20402179.2624
        46.0004         40.2504
 -10257633.65247  -7971823.91844  23683158.2034   23683147.9574
        43.7504         27.2504
 -18325720.81647 -14247719.45747  22146294.3524   22146288.9734
        46.0004         46.0004
 -17857925.90947 -13899953.41647  21906422.9064   21906418.8634
        46.5004         46.5004
 -18039933.20847 -14026504.15547  21625067.7194   21625063.2384
        46.0004         46.5004
  -4355505.91646  -3326928.26145  24567709.3674   24567702.2384
        40.0004         32.7504
  -3552972.27147  -2619014.23046  24555040.6094   24555033.3834
        42.5004         36.5004
 20  5  2  0 52 30.0000000  0 11G23G16G27G 6G 4G22G 9G 3G26G 7G31
 -13564264.20948 -10556964.53945  22091263.4454   22091253.9654
        48.5004         34.0004
 -25192044.21447 -19468889.44846  20409539.5474   20409531.6024
        47.5004         39.0004
  -3149815.38646  -2434201.93345  24656201.1094   24656198.3324
        39.0004         33.7504
   1006726.71045    782057.53645  25461035.8984   25461033.0124
        35.2504         30.7504
 -26550763.13847 -20648041.32546  20397168.8204   20397162.3054
        46.2504         40.2504
 -10156548.19747  -7893056.06344  23702394.0004   23702383.6644
        43.5004         26.2504
 -18405595.53747 -14309959.48547  22131094.2114   22131089.2274
        46.2504         46.0004
 -17774513.10447 -13834956.45547  21922296.0314   21922291.7734
        46.0004         46.2504
 -17976359.47347 -13976966.19747  21637165.1564   21637160.8324
        45.7504         46.2504
  -4434259.32446  -3388294.55845  24552723.0784   24552716.1564
        40.7504         33.2504
  -3459522.05346  -2546195.89645  24572823.3054   24572812.9304
        41.2504         32.2504
 20  5  2  0 53  0.0000000  0 11G23G16G27G 6G 4G22G 9G 3G26G 7G31
 -13638334.50248 -10614681.64145  22077168.8984   22077159.1174
        48.5004         33.7504
 -25201720.46447 -19476429.39046  20407698.0554   20407690.3404
        47.0004         39.5004
  -3245588.75946  -2508830.53745  24637977.4924   24637973.0474
        41.0004         34.7504
   1045434.00144    812218.99843  25468401.7274   25468398.3634
        29.5004         21.2504
 -26576766.58947 -20668303.75846  20392220.3594   20392213.9884
        46.5004         40.0004
 -10055336.37047  -7814189.73644  23721652.9224   23721643.4264
        42.2504         26.7504
 -18485284.29947 -14372054.60347  22115930.1094   22115924.9064
        46.5004         46.0004
 -17690722.76647 -13769665.30547  21938241.0944   21938236.7384
        45.5004         46.0004
 -17912326.62747 -13927070.48947  21649350.6724   21649346.0784
        46.2504         46.2504
  -4512916.58546  -3449585.92945  24537755.1804   24537748.2854
        41.2504         34.5004
  -3366093.96246  -2473394.91345  24590600.8594   24590594.6054
        39.7504         34.0004
 20  5  2  0 53 30.0000000  0 10G23G16G27G 4G22G 9G 3G26G 7G31
 -13712233.99648 -10672265.65245  22063106.0784   22063096.4844
        49.0004         34.5004
 -25210719.52047 -19483441.63346  20405985.5944   20405977.7854
        47.2504         40.5004
  -3341316.98546  -2583423.93245  24619759.6334   24619755.8754
        37.2504         30.2504
 -26602401.42847 -20688278.96546  20387342.0704   20387336.1254
        47.2504         40.5004
  -9953996.40847  -7735223.55844  23740937.5234   23740928.7274
        42.7504         25.7504
 -18564780.48947 -14433999.67147  22100802.4304   22100796.7114
        46.2504         46.0004
 -17606552.89947 -13704078.42347  21954258.2734   21954253.2384
        46.0004         46.2504
 -17847832.21647 -13876815.11847  21661623.1484   21661619.0084
        46.0004         46.0004
  -4591473.01346  -3510798.75145  24522806.6334   24522799.8554
        40.7504         34.5004
  -3272683.90646  -2400607.83144  24608373.8134   24608368.5124
        36.5004         28.2504
 20  5  2  0 54  0.0000000  0 10G23G16G27G 4G22G 9G 3G26G 7G31
 -13785969.22248 -10729721.66445  22049074.7584   22049065.2544
        48.5004         34.0004
 -25219050.31847 -19489933.16746  20404400.2194   20404392.3714
        47.2504         39.0004
  -3437005.15546  -2657986.22345  24601551.6094   24601545.1954
        39.2504         30.0004
 -26627674.87347 -20707972.56546  20382532.7664   20382526.5784
        47.0004         40.0004
  -9852539.27647  -7656166.08644  23760244.8984   23760234.9804
        43.2504         25.5004
 -18644090.79447 -14495799.90247  22085710.4304   22085704.6294
        46.0004         46.0004
 -17522014.46747 -13638204.32747  21970344.8364   21970340.1954
        45.2504         46.0004
 -17782887.11547 -13826208.56547  21673981.9454   21673977.2664
        46.0004         46.0004
  -4669936.81446  -3571939.39145  24507875.1884   24507868.4734
        40.7504         34.7504
  -3179300.92146  -2327841.86045  24626146.3594   24626138.3594
        41.2504         34.0004
 20  5  2  0 54 30.0000000  0 10G23G16G27G 4G22G 9G 3G26G 7G31
 -13859533.68748 -10787044.62045  22035075.5704   22035066.4694
        48.5004         34.5004
 -25226707.81947 -19495900.06246  20402943.0314   20402935.1334
        47.5004         39.0004
  -3532645.46145  -2732511.10445  24583350.4774   24583347.5634
        35.5004         30.2504
 -26652580.67847 -20727379.69446  20377793.3054   20377786.9884
        46.5004         40.0004
  -9750962.66047  -7577015.49944  23779572.7584   23779564.8324
        42.5004         27.2504
 -18723208.62247 -14557450.15047  22070653.7734   22070649.1024
        46.0004         46.0004
 -17437105.46047 -13572041.49147  21986502.8834   21986498.3874
        45.2504         46.0004
 -17717488.96647 -13775248.98047  21686426.5634   21686422.6564
        45.7504         46.0004
  -4748302.78647  -3633003.81945  24492962.6724   24492955.5234
        42.0004         34.0004
  -3085941.66746  -2255094.50145  24643912.5394   24643906.6414
        40.0004         34.0004
 20  5  2  0 55  0.0000000  0 10G23G16G27G 4G22G 9G 3G26G 7G31
 -13932926.00248 -10844233.42945  22021109.8524   22021100.2154
        48.5004         34.7504
 -25233692.25247 -19501342.47246  20401614.0944   20401606.2544
        46.5004         39.2504
  -3628234.82646  -2806996.24244  24565161.5084   24565156.5904
        36.5004         28.0004
 -26677117.76347 -20746499.49946  20373124.1724   20373117.7464
        47.0004         40.0004
  -9649269.41447  -7497774.04244  23798925.3984   23798916.8554
        42.7504         26.0004
 -18802132.43747 -14618949.21247  22055635.4454   22055630.3594
        46.2504         46.0004
 -17351828.88947 -13505592.23047  22002730.4064   22002726.0944
        45.5004         46.2504
 -17651640.32447 -13723938.36747  21698957.3054   21698952.3754
        46.0004         45.7504
  -4826571.27046  -3693992.26045  24478068.3054   24478061.4304
        40.7504         33.5004
  -2992606.87846  -2182366.17545  24661671.2734   24661666.1414
        37.5004         30.7504
 20  5  2  0 55 30.0000000  0 10G23G16G27G 4G22G 9G 3G26G 7G31
 -14006144.42448 -10901286.73245  22007176.6724   22007167.1094
        48.2504         34.0004
 -25240003.73647 -19506260.51846  20400413.0784   20400405.2664
        47.5004         39.2504
  -3723770.12546  -2881439.40045  24546981.3754   24546977.9104
        37.0004         30.5004
 -26701284.87247 -20765331.01546  20368525.3674   20368518.5434
        47.2504         40.5004
  -9547462.36447  -7418443.91244  23818298.9614   23818289.3014
        43.2504         26.5004
 -18880860.49647 -14680295.74247  22040654.3284   22040648.5704
        46.2504         46.0004
 -17266187.56247 -13438858.74647  22019027.4064   22019022.9694
        45.5004         46.0004
 -17585343.79647 -13672278.74947  21711573.3754   21711568.8484
        46.0004         45.7504
  -4904742.13346  -3754904.63345  24463193.4694   24463186.1054
        41.7504         33.5004
  -2899297.24246  -2109657.36745  24679428.1414   24679420.9804
        39.0004         31.5004
 20  5  2  0 56  0.0000000  0 10G23G16G27G 4G22G 9G 3G26G 7G31
 -14079188.41848 -10958204.11745  21993276.4304   21993267.5004
        48.5004         34.5004
 -25245643.38147 -19510655.04746  20399339.8594   20399331.6804
        47.0004         39.2504
  -3819248.93846  -2955838.40446  24528813.3834   24528809.5554
        40.0004         37.0004
 -26725081.71747 -20783874.01346  20363997.0314   20363990.5594
        47.2504         40.0004
  -9445545.29347  -7339028.03944  23837692.7814   23837683.5984
        42.5004         26.0004
 -18959392.04147 -14741489.14147  22025709.8674   22025704.7624
        46.0004         46.2504
 -17180185.22847 -13371843.96747  22035393.1484   22035389.1254
        45.0004         46.0004
 -17518602.82947 -13620272.81347  21724273.5864   21724268.9264
        45.7504         45.7504
  -4982816.28446  -3815741.66645  24448336.0554   24448329.3324
        40.7504         33.5004
  -2806014.21846  -2036969.39445  24697179.3594   24697173.6764
        38.5004         32.7504
 20  5  2  0 56 30.0000000  0 10G23G16G27G 4G22G 9G 3G26G 7G31
 -14152054.74348 -11014983.07245  21979411.2034   21979401.1524
        48.7504         34.5004
 -25250610.16147 -19514525.27046  20398394.9304   20398386.8364
        46.5004         39.0004
  -3914667.03546  -3030190.13545  24510653.7194   24510650.5274
        37.0004         30.0004
 -26748505.62747 -20802126.41446  20359539.7034   20359533.2704
        46.7504         40.5004
  -9343519.56547  -7259527.51744  23857108.1564   23857098.6724
        42.0004         25.7504
 -19037723.89747 -14802526.95147  22010804.0554   22010798.5354
        47.0004         46.2504
 -17093823.40047 -13304549.05547  22051826.7584   22051822.7814
        45.2504         46.0004
 -17451418.57847 -13567921.46747  21737058.4064   21737053.8914
        46.0004         45.5004
  -5060792.38346  -3876502.27745  24433497.8284   24433491.1484
        40.0004         33.0004
  -2712757.90846  -1964302.20745  24714926.7114   24714919.8954
        41.2504         34.0004
 20  5  2  0 57  0.0000000  0 10G23G16G27G 4G22G 9G 3G26G 7G31
 -14224741.73548 -11071622.27545  21965579.0004   21965569.0354
        48.2504         34.2504
 -25254904.50147 -19517871.49846  20397577.6024   20397569.6414
        46.5004         39.0004
  -4010021.02646  -3104491.99345  24492510.1254   24492505.4224
        41.2504         35.5004
 -26771555.37947 -20820087.26446  20355153.5314   20355146.9144
        47.0004         40.5004
  -9241387.89447  -7179944.39644  23876543.5004   23876533.9264
        42.5004         26.7504
 -19115854.35047 -14863407.81347  21995936.7584   21995930.8324
        46.5004         46.5004
 -17007104.84947 -13236976.18347  22068329.1884   22068324.8484
        45.5004         45.5004
 -17383793.52147 -13515226.62647  21749927.1254   21749922.4614
        46.2504         45.7504
  -5138669.80946  -3937185.97945  24418677.8524   24418671.1564
        40.0004         33.5004
  -2619528.99546  -1891656.38545  24732667.9144   24732660.6414
        40.2504         32.2504
 20  5  2  0 57 30.0000000  0 10G23G16G27G 4G22G 9G 3G26G 7G31
 -14297248.47248 -11128121.03045  21951781.4774   21951771.8524
        48.5004         34.5004
 -25258527.26747 -19520694.43146  20396888.1094   20396880.2934
        46.7504         38.7504
  -4105308.47346  -3178741.90045  24474376.0394   24474373.2734
        37.0004         33.7504
 -26794230.26747 -20837756.00046  20350838.1484   20350832.1414
        47.2504         40.5004
  -9139153.57147  -7100281.33544  23895997.5084   23895988.0984
        42.7504         26.7504
 -19193782.24447 -14924130.84947  21981106.5944   21981101.7774
        46.7504         46.7504
 -16920033.04347 -13169128.04447  22084898.1024   22084894.0084
        45.0004         45.2504
 -17315730.81547 -13462190.76347  21762878.7274   21762874.0904
        46.0004         45.5004
  -5216449.50946  -3997793.55545  24403876.7894   24403870.5554
        40.7504         34.2504
  -2526328.87946  -1819032.93244  24750402.5394   24750395.6374
        38.2504         29.5004
 20  5  2  0 58  0.0000000  0 10G23G16G27G 4G22G 9G 3G26G 7G31
 -14369571.74048 -11184476.82845  21938018.8364   21938009.2274
        48.5004         34.2504
 -25261477.65247 -19522993.42946  20396326.8444   20396318.7504
        47.0004         39.5004
  -4200525.04546  -3252936.63445  24456257.8754   24456254.3014
        38.5004         35.2504
 -26816528.07347 -20855130.91846  20346595.0784   20346588.6644
        47.0004         40.7504
  -9036818.41547  -7020539.68144  23915471.7194   23915461.7734
        43.0004         27.0004
 -19271504.79747 -14984693.86047  21966317.0704   21966311.6414
        47.0004         47.0004
 -16832609.75547 -13101006.02547  22101534.6954   22101530.0314
        45.0004         45.5004
 -17247232.01847 -13408815.09147  21775913.8984   21775909.3674
        45.7504         45.5004
  -5294130.61446  -4058324.33745  24389095.1954   24389088.6134
        41.0004         34.7504
  -2433157.02846  -1746431.54645  24768132.5704   24768125.7664
        38.5004         30.5004
 20  5  2  0 58 30.0000000  0 10G23G16G27G 4G22G 9G 3G26G 7G31
 -14441711.13348 -11240689.35645  21924291.2504   21924281.7734
        48.2504         34.2504
 -25263756.81347 -19524769.40046  20395893.0004   20395885.1414
        47.0004         39.5004
  -4295668.51246  -3327074.33845  24438152.7274   24438149.3754
        37.5004         35.0004
 -26838448.40947 -20872211.70446  20342423.8754   20342417.4924
        46.7504         40.2504
  -8934386.05346  -6940722.26144  23934962.5784   23934954.5124
        41.5004         26.5004
 -19349021.14347 -15045096.20147  21951566.2344   21951561.2384
        46.5004         46.7504
 -16744838.85547 -13032613.12847  22118236.7894   22118232.1484
        45.0004         45.2504
 -17178300.53747 -13355102.26747  21789031.1254   21789026.6724
        45.5004         45.5004
  -5371713.64546  -4118778.61645  24374331.8834   24374324.5634
        41.0004         35.2504
  -2340015.38646  -1673853.64045  24785857.0234   24785849.8014
        39.5004         30.2504
 20  5  2  0 59  0.0000000  0 10G23G16G27G 4G22G 9G 3G26G 7G31
 -14513663.84448 -11296756.40145  21910599.0864   21910589.6524
        49.2504         34.7504
 -25265364.19847 -19526021.91046  20395587.3284   20395579.2194
        46.5004         39.2504
  -4390734.49646  -3401151.68345  24420061.1334   24420057.6294
        36.0004         32.5004
 -26859988.82547 -20888996.44346  20338324.7974   20338318.6214
        46.5004         40.5004
  -8831857.79046  -6860830.13144  23954473.7814   23954464.5044
        41.0004         25.5004
 -19426328.22547 -15105335.47947  21936855.0004   21936849.8914
        46.5004         46.7504
 -16656721.83447 -12963950.54747  22135004.8134   22135000.6334
        44.5004         45.2504
 -17108937.66747 -13301053.29047  21802230.6174   21802226.4924
        45.5004         45.5004
  -5449197.14247  -4179155.38445  24359587.4924   24359580.0984
        42.0004         35.0004
  -2246903.35446  -1601298.83045  24803575.8134   24803568.8134
        39.5004         31.5004
 20  5  2  0 59 30.0000000  0 10G23G16G27G 4G22G 9G 3G26G 7G31
 -14585428.85248 -11352677.18945  21896942.8134   21896933.2304
        49.2504         34.7504
 -25266300.97447 -19526751.86546  20395408.9224   20395400.8594
        46.5004         39.0004
  -4485720.53946  -3475166.67745  24401986.7424   24401983.8634
        38.5004         34.5004
 -26881148.96347 -20905484.87146  20334298.6484   20334292.1254
        46.5004         40.7504
  -8729237.33546  -6780866.19344  23974001.7034   23973992.9184
        41.2504         25.2504
 -19503425.15147 -15165411.00947  21922184.3594   21922178.4384
        46.5004         47.0004
 -16568262.49747 -12895021.21347  22151838.4304   22151833.8524
        45.0004         45.2504
 -17039146.83147 -13246670.83847  21815511.1174   21815506.7854
        45.5004         45.5004
  -5526582.51546  -4239455.68045  24344860.5004   24344854.2034
        40.5004         35.5004
  -2153822.74146  -1528768.57545  24821287.6724   24821282.0864
        39.0004         32.5004
 20  5  2  1  0  0.0000000  0 10G23G16G27G 4G22G 9G 3G26G 7G31
 -14657004.16348 -11408450.16545  21883322.2344   21883312.7934
        48.7504         35.0004
 -25266566.90648 -19526959.08246  20395358.5084   20395350.4884
        48.0004         39.5004
  -4580623.04246  -3549116.72345  24383927.8054   24383922.1334
        39.0004         32.2504
 -26901927.15047 -20921675.66146  20330344.2424   20330337.8594
        46.5004         40.7504
  -8626526.97346  -6700832.20144  23993547.3834   23993537.8594
        41.2504         24.0004
 -19580309.76347 -15225321.10547  21907553.0084   21907547.6724
        46.2504         47.0004
 -16479463.31147 -12825827.06747  22168736.2504   22168731.9454
        45.0004         45.0004
 -16968930.25647 -13191956.64447  21828872.5164   21828868.7664
        45.5004         45.5004
  -5603868.71146  -4299678.68845  24330153.8754   24330146.8914
        40.5004         34.0004
  -2060773.84546  -1456262.98145  24838995.3444   24838988.8054
        40.0004         32.7504
 20  5  2  1  0 30.0000000  0 10G23G16G27G 4G22G 9G 3G26G 7G31
 -14728387.78348 -11464073.76945  21869738.3284   21869729.1214
        48.5004         35.0004
 -25266162.48847 -19526643.94946  20395435.4224   20395427.7464
        46.5004         39.7504
  -4675438.76746  -3622999.07745  24365885.5394   24365880.2544
        41.0004         34.7504
 -26922322.22047 -20937567.93546  20326463.6174   20326457.2774
        46.7504         41.2504
  -8523729.39046  -6620730.24444  24013110.3054   24013099.3634
        41.7504         25.0004
 -19656980.23147 -15285064.32447  21892963.6884   21892958.2974
        46.0004         47.0004
 -16390327.15247 -12756370.34247  22185697.9694   22185693.5314
        45.0004         45.5004
 -16898290.50147 -13136912.69847  21842315.5164   21842311.1094
        45.2504         45.5004
  -5681055.67346  -4359824.36645  24315465.3444   24315458.8014
        40.0004         34.7504
  -1967757.40346  -1383782.64845  24856694.0704   24856689.4494
        38.2504         33.0004
 20  5  2  1  1  0.0000000  0 10G23G16G27G 4G22G 9G 3G26G 7G31
 -14799577.38548 -11519546.18545  21856191.4064   21856181.9454
        48.5004         35.5004
 -25265087.05047 -19525805.95346  20395639.9694   20395632.0744
        46.7504         38.7504
  -4770163.66646  -3696810.64145  24347859.0704   24347855.7154
        40.0004         34.5004
 -26942332.01847 -20953159.99146  20322655.5634   20322649.1054
        47.2504         41.0004
  -8420846.46047  -6540561.77143  24032687.8204   24032677.7154
        42.2504         22.7504
 -19733433.89547 -15344638.60747  21878414.7814   21878409.2814
        46.2504         47.2504
 -16300856.03747 -12686652.61347  22202724.1804   22202719.3444
        45.5004         45.0004
 -16827229.25847 -13081540.31547  21855838.0784   21855833.4924
        45.2504         45.5004
  -5758142.81546  -4419892.27645  24300795.6804   24300789.6764
        40.7504         34.5004
  -1874773.31846  -1311327.63245  24874389.8134   24874384.4024
        39.0004         34.2504
 20  5  2  1  1 30.0000000  0 10G23G16G27G 4G22G 9G 3G26G 7G31
 -14870571.67048 -11574866.40545  21842681.7504   21842672.3014
        48.5004         35.0004
 -25263342.97147 -19524446.93246  20395971.5234   20395963.8014
        47.0004         40.0004
  -4864795.31547  -3770549.65446  24329852.1334   24329847.3714
        42.2504         36.7504
 -26961956.10447 -20968451.49346  20318921.4304   20318914.6134
        47.5004         41.0004
  -8317881.62447  -6460329.45744  24052280.9064   24052271.0394
        42.0004         26.0004
 -19809669.71947 -15404043.14647  21863907.9384   21863902.3324
        46.5004         47.2504
 -16211053.66547 -12616676.76147  22219812.9384   22219808.3674
        45.5004         44.7504
 -16755749.87147 -13025842.11447  21869439.7114   21869435.5704
        45.2504         45.5004
  -5835131.16646  -4479883.16845  24286145.5234   24286139.1994
        40.5004         34.0004
  -1781823.14146  -1238898.96245  24892077.1564   24892071.4924
        37.5004         30.5004
 20  5  2  1  2  0.0000000  0 10G23G16G27G 4G22G 9G 3G26G 7G31
 -14941368.13248 -11630032.48345  21829209.4924   21829200.3754
        48.7504         35.0004
 -25260929.45747 -19522566.26646  20396431.1094   20396423.2464
        47.0004         39.2504
  -4959329.66946  -3844212.73145  24311861.6174   24311857.5514
        39.5004         33.5004
 -26981192.44847 -20983440.86046  20315261.0084   20315254.3674
        47.0004         40.7504
  -8214837.06246  -6380035.02444  24071889.1724   24071880.0314
        41.2504         24.7504
 -19885685.08147 -15463275.88847  21849442.4384   21849437.0274
        46.5004         47.2504
 -16120922.08947 -12546444.38247  22236964.1254   22236959.8794
        44.7504         44.5004
 -16683854.12847 -12969819.47247  21883121.3204   21883116.6724
        45.5004         45.0004
  -5912018.99646  -4539795.76345  24271514.2894   24271508.3834
        40.5004         34.5004
  -1688906.70246  -1166496.61144  24909759.4534   24909752.8134
        38.5004         29.7504
 20  5  2  1  2 30.0000000  0 10G23G16G27G 4G22G 9G 3G26G 7G31
 -15011966.17948 -11685043.95845  21815774.9224   21815765.5004
        49.0004         35.0004
 -25257847.98947 -19520165.13246  20397017.3914   20397009.4884
        46.7504         39.0004
  -5053764.40446  -3917798.24345  24293891.7664   24293888.5234
        37.5004         34.0004
 -27000040.87147 -20998127.95046  20311674.0084   20311667.4264
        47.5004         40.7504
  -8111716.28046  -6299681.22443  24091511.8524   24091502.9264
        40.5004         22.0004
 -19961479.16347 -15522336.20347  21835018.8284   21835013.6954
        46.2504         47.5004
 -16030465.21147 -12475958.53147  22254178.1884   22254173.0664
        44.7504         44.7504
 -16611545.64147 -12913475.20747  21896881.0864   21896876.9184
        45.5004         45.0004
  -5988807.76846  -4599631.17445  24256902.3524   24256895.8404
        41.5004         34.5004
  -1596025.93446  -1094121.96144  24927433.0084   24927427.8244
        36.2504         29.2504
 20  5  2  1  3  0.0000000  0 10G23G16G27G 4G22G 9G 3G26G 7G31
 -15082362.78648 -11739898.45245  21802378.8524   21802369.9884
        48.7504         35.2504
 -25254097.95247 -19517243.02846  20397731.2974   20397723.1724
        46.7504         39.2504
  -5148095.20046  -3991302.62246  24275942.0084   24275938.8364
        39.7504         36.5004
 -27018498.94547 -21012510.86946  20308161.3834   20308155.4024
        47.5004         41.2504
  -8008520.78246  -6219269.21844  24111149.7424   24111140.4964
        41.2504         25.7504
 -20037048.93147 -15581221.74047  21820638.9924   21820633.0234
        46.5004         47.5004
 -15939684.79747 -12405220.57447  22271452.6724   22271448.4614
        45.2504         44.5004
 -16538825.86747 -12856810.46547  21910719.2734   21910714.7274
        45.2504         45.0004
  -6065496.45646  -4659388.58945  24242309.0634   24242302.2034
        41.2504         34.0004
  -1503180.23546  -1021774.72945  24945102.9304   24945096.5664
        41.2504         35.0004
 20  5  2  1  3 30.0000000  0 10G23G16G27G 4G22G 9G 3G26G 7G31
 -15152557.61248 -11794595.71245  21789021.3754   21789012.0904
        49.0004         35.0004
 -25249681.34047 -19513801.51046  20398571.3984   20398563.7034
        46.7504         39.2504
  -5242319.98946  -4064724.64545  24258010.3444   24258006.5664
        36.5004         33.0004
 -27036566.80447 -21026589.73246  20304723.5394   20304716.9574
        47.0004         41.0004
  -7905254.33546  -6138801.86443  24130800.8134   24130791.3094
        41.2504         22.7504
 -20112393.86347 -15639932.07447  21806301.1884   21806295.6954
        46.5004         47.7504
 -15848585.01547 -12334233.76247  22288788.3914   22288784.3014
        44.5004         44.5004
 -16465698.63547 -12799828.22347  21924634.7034   21924630.5124
        45.5004         44.7504
  -6142085.82546  -4719068.63345  24227734.1564   24227728.1294
        41.7504         35.0004
  -1410371.41646   -949456.14245  24962762.1094   24962756.7274
        39.0004         32.0004
 20  5  2  1  4  0.0000000  0 10G23G16G27G 4G22G 9G 3G26G 7G31
 -15222546.85448 -11849132.77545  21775702.4304   21775693.6214
        48.7504         35.0004
 -25244596.47947 -19509839.28246  20399538.9224   20399531.1214
        46.5004         39.5004
  -5336433.58046  -4138059.79145  24240101.4224   24240097.9384
        38.2504         34.5004
 -27054241.12147 -21040361.93346  20301360.0394   20301353.5124
        47.0004         41.0004
  -7801917.87846  -6058280.01143  24150464.8754   24150455.6024
        41.0004         23.2504
 -20187510.03147 -15698464.14747  21792006.9694   21792001.3164
        46.5004         47.7504
 -15757166.69247 -12262998.72047  22306184.6484   22306180.9304
        44.7504         44.5004
 -16392164.47247 -12742528.89247  21938627.4304   21938623.4924
        45.7504         44.5004
  -6218573.93046  -4778669.78045  24213179.3134   24213172.8754
        41.5004         34.5004
  -1317598.43546   -877165.62345  24980416.2814   24980411.1724
        36.7504         32.0004
 20  5  2  1  4 30.0000000  0 10G23G16G27G 4G22G 9G 3G26G 7G31
 -15292329.97048 -11903509.23245  21762423.7424   21762414.6294
        48.5004         34.7504
 -25238845.82847 -19505358.25746  20400633.4774   20400625.1844
        47.7504         39.0004
  -5430433.89346  -4211306.79845  24222213.7664   24222208.7624
        39.0004         32.5004
 -27071522.13647 -21053827.66546  20298071.6334   20298065.2114
        46.5004         41.2504
  -7698515.42446  -5977706.71844  24170142.6484   24170133.2074
        41.5004         24.5004
 -20262397.01147 -15756817.62747  21777756.5634   21777750.9454
        46.0004         47.7504
 -15665434.18847 -12191518.88147  22323640.8054   22323636.9494
        45.0004         44.5004
 -16318227.44847 -12684915.64447  21952697.5634   21952693.0394
        45.2504         44.5004
  -6294962.08146  -4838193.00645  24198643.1954   24198636.0514
        41.5004         35.5004
  -1224863.48046   -804904.61645  24998063.9844   24998057.9924
        39.5004         34.0004
 20  5  2  1  5  0.0000000  0 10G23G16G27G 4G22G 9G 3G26G 7G31
 -15361904.39148 -11957723.06245  21749183.9224   21749174.5594
        48.5004         34.7504
 -25232429.42247 -19500358.45946  20401854.4384   20401846.3554
        46.5004         39.0004
  -5524317.08646  -4284462.55946  24204348.8984   24204344.6564
        41.0004         36.7504
 -27088407.97947 -21066985.48046  20294858.2504   20294851.9304
        47.0004         41.0004
  -7595049.26046  -5897083.75443  24189830.8444   24189821.7814
        41.2504         23.0004
 -20337052.23747 -15814990.53447  21763550.0634   21763544.7504
        46.5004         47.5004
 -15573389.73147 -12119795.94647  22341156.3834   22341152.2034
        44.5004         44.0004
 -16243889.53747 -12626990.01347  21966843.4614   21966839.3594
        45.0004         44.5004
  -6371249.70947  -4897637.89345  24184126.3754   24184119.4144
        42.5004         35.5004
  -1132166.36546   -732673.15445  25015703.7894   25015697.3204
        37.5004         31.0004
 20  5  2  1  5 30.0000000  0 10G23G16G27G 4G22G 9G 3G26G 7G31
 -15431267.70848 -12011772.39345  21735984.6484   21735975.3714
        48.5004         34.7504
 -25225347.58348 -19494840.14346  20403202.1174   20403194.3834
        48.0004         38.7504
  -5618079.46746  -4357524.13045  24186506.9534   24186501.5124
        41.0004         35.0004
 -27104897.03547 -21079834.10246  20291720.4454   20291714.0704
        47.2504         41.0004
  -7491521.26946  -5816412.63943  24209532.3054   24209522.8594
        40.7504         22.7504
 -20411473.48447 -15872981.09947  21749388.2194   21749382.9924
        45.7504         47.7504
 -15481035.85347 -12047831.91147  22358730.7734   22358726.5634
        44.2504         44.0004
 -16169152.82647 -12568753.63447  21981066.0164   21981061.5744
        44.7504         44.5004
  -6447436.42846  -4957004.16945  24169628.8524   24169621.7034
        41.0004         35.7504
  -1039507.19846   -660471.20144  25033334.0554   25033329.0044
        36.0004         29.0004
 20  5  2  1  6  0.0000000  0 10G23G16G27G 4G22G 9G 3G26G 7G31
 -15500419.17448 -12065656.64345  21722825.4454   21722816.3554
        48.5004         35.2504
 -25217601.47948 -19488804.22546  20404675.8914   20404668.2934
        48.0004         39.5004
  -5711718.49546  -4430489.64045  24168686.6334   24168681.4574
        39.7504         33.5004
 -27120988.76748 -21092373.12546  20288658.3134   20288651.8364
        48.0004         41.0004
  -7387934.70946  -5735695.87743  24229243.7664   24229234.6414
        39.7504         22.2504
 -20485659.48247 -15930788.36047  21735270.5474   21735265.2664
        46.2504         47.7504
 -15388376.10947 -11975629.54847  22376363.1484   22376358.8834
        44.5004         43.7504
 -16094020.61247 -12510209.07547  21995363.2344   21995358.5554
        45.5004         44.5004
  -6523522.25446  -5016291.84446  24155149.7194   24155142.4454
        41.0004         36.2504
   -946887.53746   -588300.15245  25050959.8204   25050954.5664
        37.2504         30.2504
 20  5  2  1  6 30.0000000  0 10G23G16G27G 4G22G 9G 3G26G 7G31
 -15569357.05548 -12119374.46745  21709707.1254   21709697.8134
        48.2504         35.2504
 -25209192.17248 -19482251.51046  20406276.2974   20406268.2934
        48.5004         39.5004
  -5805230.69946  -4503356.31946  24150892.8594   24150888.3404
        41.0004         36.2504
 -27136682.02647 -21104601.65046  20285671.9534   20285665.6484
        46.7504         41.0004
  -7284292.63846  -5654935.87443  24248966.9144   24248956.9384
        40.7504         23.7504
 -20559608.41347 -15988410.89548  21721198.9534   21721193.5824
        46.5004         48.0004
 -15295413.51047 -11903191.17447  22394053.3204   22394049.4774
        44.5004         43.7504
 -16018495.60547 -12451358.43147  22009734.9144   22009730.2034
        45.2504         44.2504
  -6599507.43247  -5075501.05145  24140690.5634   24140682.6954
        42.0004         35.2504
   -854307.91846   -516160.18344  25068578.1644   25068569.9614
        38.2504         26.5004
 20  5  2  1  7  0.0000000  0 10G23G16G27G 4G22G 9G 3G26G 7G31
 -15638079.08248 -12172924.09745  21696629.7194   21696620.0704
        49.0004         35.0004
 -25200119.86948 -19475182.17846  20408002.6804   20407994.6524
        48.0004         39.2504
  -5898612.49346  -4576121.34245  24133122.7734   24133118.1454
        39.5004         35.0004
 -27151975.22447 -21116518.43346  20282761.6954   20282755.4454
        47.2504         41.0004
  -7180597.01446  -5574134.14844  24268698.4924   24268689.4534
        39.7504         24.0004
 -20633317.97147 -16045846.89948  21707172.2274   21707167.3204
        46.7504         48.2504
 -15202150.51747 -11830518.74247  22411801.0004   22411796.4694
        44.5004         44.0004
 -15942579.96647 -12392203.40947  22024180.9844   22024176.3834
        45.0004         44.2504
  -6675391.91746  -5134631.79845  24126249.6334   24126242.8484
        41.5004         35.5004
   -761768.73646   -444051.72044  25086187.9924   25086180.4104
        39.5004         29.5004
 20  5  2  1  7 30.0000000  0 10G23G16G27G 4G22G 9G 3G26G 7G31
 -15706582.85848 -12226303.65745  21683593.8914   21683584.3404
        48.7504         35.5004
 -25190385.40948 -19467596.88546  20409855.1334   20409847.2344
        48.5004         39.2504
  -5991860.22646  -4648781.88245  24115377.4304   24115373.9264
        38.2504         35.0004
 -27166866.81647 -21128122.28246  20279928.1804   20279921.8914
        47.5004         41.5004
  -7076850.21446  -5493292.52543  24288440.5234   24288432.0394
        40.2504         23.5004
 -20706786.01447 -16103094.71648  21693192.0704   21693186.2774
        47.7504         48.2504
 -15108589.78247 -11757614.29047  22429605.1024   22429600.8954
        45.2504         43.5004
 -15866276.06647 -12332745.84347  22038700.9304   22038696.8524
        44.7504         44.0004
  -6751174.98747  -5193683.52646  24111828.0864   24111822.2894
        42.2504         36.0004
   -669270.11946   -371974.95145  25103790.8364   25103783.6414
        40.0004         32.2504
 20  5  2  1  8  0.0000000  0 10G23G16G27G 4G22G 9G 3G26G 7G31
 -15774866.70148 -12279511.83245  21670600.2504   21670590.5744
        49.2504         35.5004
 -25179989.31948 -19459496.02346  20411833.4144   20411825.6024
        48.0004         38.2504
  -6084970.61946  -4721335.45046  24097659.5704   24097655.1294
        39.7504         36.2504
 -27181355.72047 -21139412.34746  20277170.8364   20277164.3834
        47.2504         41.2504
  -6973055.19146  -5412413.33343  24308193.0634   24308184.0274
        41.0004         22.5004
 -20780010.53247 -16160152.77048  21679257.2664   21679252.3834
        47.0004         48.2504
 -15014734.25347 -11684480.15347  22447465.2974   22447460.9884
        44.5004         43.7504
 -15789586.46147 -12272987.72847  22053295.4694   22053290.7734
        45.5004         44.2504
  -6826856.38946  -5252656.04446  24097426.8364   24097420.5084
        41.0004         36.0004
   -576812.78945   -299930.32845  25121383.4144   25121377.6254
        35.5004         30.2504
 20  5  2  1  8 30.0000000  0 10G23G16G27G 4G22G 9G 3G26G 7G31
 -15842929.19048 -12332547.54345  21657648.3364   21657638.7304
        48.7504         35.5004
 -25168933.18348 -19450880.85246  20413937.4384   20413929.3284
        48.0004         39.5004
  -6177940.66246  -4793779.58146  24079967.4774   24079964.4694
        38.7504         36.2504
 -27195441.04347 -21150387.92046  20274490.2814   20274484.5664
        47.0004         41.2504
  -6869214.80446  -5331498.81043  24327953.9384   24327943.9344
        40.7504         22.5004
 -20852989.97947 -16217019.86248  21665370.5234   21665365.0354
        47.0004         48.2504
 -14920587.21947 -11611118.85147  22465381.0234   22465376.2734
        45.7504         43.7504
 -15712514.15247 -12212931.40647  22067961.4924   22067957.2504
        45.0004         44.0004
  -6902436.46647  -5311549.61045  24083044.9534   24083037.4304
        42.0004         35.5004
   -484397.64846   -227918.58045  25138969.4144   25138963.5394
        36.5004         30.0004
 20  5  2  1  9  0.0000000  0 10G23G16G27G 4G22G 9G 3G26G 7G31
 -15910767.60948 -12385408.64545  21644739.1884   21644729.6254
        48.2504         35.2504
 -25157217.12848 -19441751.46046  20416167.0944   20416158.8244
        48.2504         39.2504
  -6270766.20146  -4866111.12846  24062303.9384   24062300.1804
        40.0004         36.7504
 -27209120.85848 -21161047.52646  20271887.2974   20271880.9614
        48.0004         41.5004
  -6765330.65146  -5250550.14043  24347721.9924   24347712.5594
        40.5004         22.0004
 -20925721.67547 -16273693.89748  21651530.0004   21651524.4304
        47.5004         48.5004
 -14826150.82847 -11537532.07947  22483351.1254   22483347.4924
        45.5004         43.5004
 -15635060.96647 -12152578.28947  22082699.8444   22082695.8594
        45.0004         44.0004
  -6977915.09246  -5370364.10346  24068681.0234   24068674.1994
        41.0004         36.0004
   -392024.44845   -155939.54644  25156544.6884   25156542.0354
        31.7504         27.5004
 20  5  2  1  9 30.0000000  0 10G23G16G27G 4G22G 9G 3G26G 7G31
 -15978380.47648 -12438093.98345  21631872.6334   21631863.4654
        48.5004         35.7504
 -25144842.56147 -19432108.93846  20418521.7504   20418513.9264
        47.7504         39.7504
  -6363444.56446  -4938328.02445  24044667.9144   24044664.0314
        41.2504         35.7504
 -27222394.67347 -21171390.76246  20269361.6884   20269355.2894
        47.0004         41.2504
  -6661406.16546  -5169570.04943  24367497.1724   24367488.5354
        39.0004         21.0004
 -20998204.33147 -16330173.88248  21637736.7504   21637731.5164
        47.2504         48.5004
 -14731428.58947 -11463722.56947  22501376.0704   22501372.4534
        44.7504         43.2504
 -15557230.18347 -12091930.94647  22097510.8594   22097506.3954
        45.0004         43.7504
  -7053292.04747  -5429099.39846  24054337.9534   24054331.8364
        42.2504         36.7504
   -299694.63946    -83994.35645  25174116.1254   25174111.6484
        36.0004         30.7504
 20  5  2  1 10  0.0000000  0 10G23G16G27G 4G22G 9G 3G26G 7G31
 -16045766.38948 -12490602.48445  21619049.5554   21619039.9494
        49.0004         35.7504
 -25131810.71048 -19421954.24446  20421001.4844   20420993.6884
        48.0004         39.0004
  -6455972.77746  -5010427.93945  24027060.3054   24027056.4804
        41.0004         35.5004
 -27235261.63447 -21181416.97346  20266913.0474   20266906.8164
        47.5004         41.2504
  -6557444.30446  -5088560.87643  24387281.0944   24387272.1884
        39.5004         21.5004
 -21070436.40047 -16386458.60648  21623991.9844   21623986.0864
        47.0004         48.5004
 -14636423.89647 -11389692.97247  22519455.1804   22519450.7464
        45.2504         43.0004
 -15479024.75747 -12030991.66847  22112392.4844   22112388.2774
        44.0004         44.0004
  -7128567.48547  -5487755.56845  24040013.2194   24040006.6294
        42.0004         35.7504
   -207409.11146    -12083.50645  25191679.5234   25191672.1134
        39.5004         30.0004
 20  5  2  1 10 30.0000000  0 10G23G16G27G 4G22G 9G 3G26G 7G31
 -16112922.45548 -12542931.88145  21606270.0234   21606260.8014
        48.0004         35.5004
 -25118121.71247 -19411287.49246  20423607.0474   20423598.6684
        47.5004         39.2504
  -6548346.47246  -5082407.44045  24009481.6724   24009477.8484
        39.5004         33.5004
 -27247719.61947 -21191124.50546  20264542.7344   20264535.8834
        47.5004         41.5004
  -6453446.50646  -5007523.66943  24407071.1254   24407062.2894
        39.7504         21.7504
 -21142414.91247 -16442545.74748  21610294.7664   21610289.0314
        47.5004         48.5004
 -14541138.68447 -11315444.78347  22537587.4534   22537582.9534
        45.0004         42.7504
 -15400446.35147 -11969761.76747  22127345.7974   22127341.6684
        44.5004         43.7504
  -7203740.69747  -5546332.11845  24025708.2584   24025700.5784
        42.0004         35.2504
   -115167.31446     59793.22644  25209232.0004   25209224.7894
        38.5004         26.0004
 20  5  2  1 11  0.0000000  0 10G23G16G27G 4G22G 9G 3G26G 7G31
 -16179846.27748 -12595080.31645  21593534.9534   21593525.6524
        48.2504         35.5004
 -25103775.96447 -19400108.98746  20426336.5864   20426328.5274
        46.5004         39.0004
  -6640561.90346  -5154263.65945  23991934.6724   23991929.4224
        40.0004         35.0004
 -27259767.00547 -21200512.08646  20262250.0084   20262243.5824
        47.0004         41.5004
  -6349415.30746  -4926460.44643  24426868.1644   24426858.2344
        41.2504         22.7504
 -21214137.47147 -16498433.45448  21596646.3054   21596640.8524
        47.5004         48.7504
 -14445575.43547 -11240979.93647  22555772.6484   22555767.6954
        44.7504         42.7504
 -15321497.16547 -11908242.94147  22142369.6884   22142365.4534
        44.5004         43.5004
  -7278811.96346  -5604829.20145  24011422.6804   24011414.7814
        41.5004         34.5004
    -22969.56646    131635.62644  25226776.6954   25226769.7734
        38.2504         27.7504
 20  5  2  1 11 30.0000000  0 10G23G16G27G 4G22G 9G 3G26G 7G31
 -16246537.48248 -12647047.47945  21580844.3284   21580834.7704
        48.0004         35.5004
 -25088775.90047 -19388420.62246  20429191.0474   20429183.0474
        47.0004         38.5004
  -6732616.85446  -5225994.77645  23974416.2194   23974411.6564
        39.2504         35.5004
 -27271403.80147 -21209579.72546  20260035.8054   20260029.2114
        47.5004         41.2504
  -6245354.37646  -4845374.05543  24446668.8594   24446661.1094
        40.2504         22.5004
 -21285603.26747 -16554121.09048  21583046.4304   21583041.1764
        46.7504         48.5004
 -14349738.18247 -11166301.57947  22574009.8754   22574005.3834
        44.7504         42.7504
 -15242180.90647 -11846438.07947  22157462.8364   22157458.2814
        44.5004         43.5004
  -7353781.02647  -5663246.65145  23997156.4454   23997149.6644
        42.0004         35.7504
     69182.89146    203442.70745  25244312.8284   25244307.5204
        36.7504         30.0004
 20  5  2  1 12  0.0000000  0 10G23G16G27G 4G22G 9G 3G26G 7G31
 -16312993.02047 -12698831.01445  21568197.6804   21568188.5474
        47.7504         35.5004
 -25073121.48847 -19376222.38146  20432169.8364   20432161.5594
        47.7504         39.0004
  -6824507.01846  -5297597.43545  23956930.4924   23956926.0084
        40.2504         35.5004
 -27282627.97648 -21218325.84446  20257899.4614   20257892.9734
        48.0004         41.5004
  -6141265.57546  -4764265.97143  24466478.6024   24466469.2114
        41.2504         23.5004
 -21356809.48447 -16609606.45248  21569496.7034   21569491.3594
        47.7504         48.7504
 -14253629.01647 -11091411.34847  22592298.4454   22592294.9654
        44.2504         42.5004
 -15162499.35147 -11784348.57347  22172625.4774   22172621.1684
        44.0004         43.5004
  -7428647.25847  -5721583.96446  23982910.3284   23982903.9964
        42.5004         36.5004
    161289.83646    275214.38643  25261839.9534   25261833.1134
        36.0004         22.0004
 20  5  2  1 12 30.0000000  0 10G23G16G27G 4G22G 9G 3G26G 7G31
 -16379211.51147 -12750429.84045  21555597.1724   21555587.5904
        47.7504         35.7504
 -25056814.46947 -19363515.60346  20435273.1094   20435264.9304
        47.0004         39.5004
  -6916229.45746  -5369069.45246  23939476.0784   23939472.1294
        39.5004         37.0004
 -27293438.85747 -21226749.91046  20255842.6024   20255835.9454
        47.0004         41.2504
  -6037151.67546  -4683138.28843  24486289.9614   24486281.1374
        40.7504         22.7504
 -21427754.58847 -16664888.34348  21555996.1564   21555990.7274
        46.7504         48.7504
 -14157251.40447 -11016311.95147  22610639.1334   22610634.8164
        44.7504         43.0004
 -15082455.55647 -11721976.79947  22187857.4064   22187853.1954
        43.5004         43.0004
  -7503411.04046  -5779841.43645  23968682.5474   23968677.0354
        41.0004         35.7504
    253350.57446    346949.88643  25279358.9924   25279353.0904
        38.5004         22.0004
 20  5  2  1 13  0.0000000  0 10G23G16G27G 4G22G 9G 3G26G 7G31
 -16445191.25748 -12801842.63145  21543041.4534   21543031.8984
        48.2504         35.7504
 -25039856.20647 -19350301.37046  20438499.7504   20438491.7894
        47.0004         39.5004
  -7007781.09846  -5440408.32846  23922054.7034   23922051.7154
        40.7504         39.0004
 -27303835.54447 -21234851.23746  20253864.0164   20253857.4924
        47.2504         41.5004
  -5933015.42646  -4601993.23843  24506106.3984   24506097.9574
        40.7504         22.5004
 -21498436.86447 -16719965.44548  21542545.7344   21542540.3634
        46.5004         49.0004
 -14060608.44247 -10941005.78347  22629029.4614   22629025.3324
        44.5004         42.2504
 -15002052.41947 -11659325.02147  22203157.4694   22203153.1724
        44.5004         42.7504
  -7578072.67947  -5838019.36546  23954474.6884   23954468.5704
        42.0004         36.7504
    345364.04846    418648.65643  25296868.8364   25296862.3634
        40.2504         22.7504
 20  5  2  1 13 30.0000000  0 10G23G16G27G 4G22G 9G 3G26G 7G31
 -16510929.61447 -12853067.32746  21530532.0474   21530522.8554
        47.7504         36.0004
 -25022247.22947 -19336580.09146  20441850.7034   20441842.9844
        47.2504         39.5004
  -7099157.96846  -5511611.06446  23904665.7194   23904662.3714
        40.5004         37.7504
 -27313816.33947 -21242628.49046  20251964.6254   20251958.2234
        47.0004         41.5004
  -5828859.07046  -4520832.50843  24525927.0394   24525918.0634
        40.0004         21.0004
 -21568853.73747 -16774835.73448  21529145.8594   21529140.2854
        47.0004         49.0004
 -13963702.55647 -10865494.72647  22647469.9224   22647465.9574
        44.7504         42.2504
 -14921291.94847 -11596394.80047  22218525.9144   22218521.5204
        43.5004         42.5004
  -7652632.25846  -5896117.71146  23940286.3754   23940280.2194
        40.5004         36.2504
    437330.77746    490310.98043  25314368.6804   25314362.9614
        37.0004         21.0004
 20  5  2  1 14  0.0000000  0 10G23G16G27G 4G22G 9G 3G26G 7G31
 -16576425.08847 -12904102.75945  21518068.2664   21518059.2664
        47.5004         35.7504
 -25003988.94147 -19322352.85046  20445325.3364   20445316.7854
        47.2504         39.2504
  -7190356.93446  -5582675.19546  23887311.8364   23887307.4024
        41.0004         38.5004
 -27323380.40247 -21250081.01246  20250144.6724   20250138.4024
        46.5004         41.2504
  -5724685.54146  -4439658.34543  24545747.9844   24545741.3834
        38.2504         21.2504
 -21639003.51247 -16829497.88448  21515796.9844   21515791.6804
        46.5004         49.2504
 -13866536.98247 -10789781.31747  22665959.8594   22665955.9304
        44.5004         42.5004
 -14840177.11647 -11533188.45647  22233961.3054   22233957.1954
        43.7504         42.7504
  -7727088.68947  -5954135.71546  23926118.9614   23926111.5474
        42.5004         36.7504
    529249.64046    561936.06943  25331861.3134   25331854.7544
        38.2504         19.7504
 20  5  2  1 14 30.0000000  0 10G23G16G27G 4G22G 9G 3G26G 7G31
 -16641675.35348 -12954947.11545  21505651.7504   21505642.4454
        48.0004         35.7504
 -24985082.24247 -19307620.35446  20448923.3674   20448915.1454
        47.5004         38.5004
  -7281374.28646  -5653597.75846  23869991.9774   23869986.3674
        40.7504         37.5004
 -27332526.19347 -21257207.61646  20248404.4774   20248397.8794
        47.0004         41.5004
  -5620496.73147  -4358472.38443  24565579.1564   24565567.6724
        42.0004         19.7504
 -21708883.74247 -16883950.01248  21502499.5004   21502493.5394
        47.0004         49.2504
 -13769114.22647 -10713867.50447  22684499.0234   22684494.7584
        44.5004         42.2504
 -14758710.08447 -11469707.66547  22249464.3284   22249459.9344
        43.7504         43.0004
  -7801442.00146  -6012073.30346  23911969.1414   23911962.9344
        41.7504         36.5004
    621120.75146    633523.95442  25349342.9614   25349336.6374
        38.2504         17.7504
 20  5  2  1 15  0.0000000  0 10G23G16G27G 4G22G 9G 3G26G 7G31
 -16706678.35047 -13005598.79845  21493282.3204   21493272.8244
        47.7504         35.7504
 -24965528.29747 -19292383.51646  20452644.3284   20452636.5824
        47.0004         39.2504
  -7372206.62046  -5724376.21146  23852705.8444   23852702.1024
        39.5004         36.0004
 -27341252.67047 -21264007.48346  20246743.7194   20246737.4574
        46.7504         41.5004
  -5516295.25047  -4277276.42343  24585407.1174   24585396.2194
        42.0004         19.7504
 -21778492.53547 -16938190.62448  21489252.9924   21489247.5904
        47.2504         49.2504
 -13671437.28147 -10637755.62847  22703086.6644   22703082.1604
        44.7504         42.5004
 -14676893.51047 -11405954.50147  22265033.4614   22265029.3324
        43.5004         42.7504
  -7875691.86947  -6069930.34046  23897839.9924   23897833.3554
        42.5004         36.5004
    712943.40845    705073.98042  25366815.4384   25366810.0744
        34.2504         16.2504
 20  5  2  1 15 30.0000000  0 10G23G16G27G 4G22G 9G 3G26G 7G31
 -16771432.71648 -13056056.74046  21480960.0394   21480950.3054
        48.0004         36.0004
 -24945328.93247 -19276643.75346  20456487.8984   20456480.0204
        47.7504         39.2504
  -7462851.05746  -5795008.19246  23835456.5234   23835453.5984
        39.0004         36.0004
 -27349559.17547 -21270480.08546  20245163.0554   20245156.6134
        47.0004         41.7504
  -5412084.29446  -4196073.07143  24605235.4614   24605227.0594
        40.2504         20.5004
 -21847828.34247 -16992218.52148  21476058.8134   21476053.2234
        47.0004         49.5004
 -13573509.59547 -10561448.35847  22721721.2034   22721717.2304
        45.2504         42.2504
 -14594730.57447 -11341931.45547  22280668.6094   22280664.0394
        43.5004         42.7504
  -7949839.12947  -6127707.40946  23883730.3524   23883723.1174
        43.0004         36.5004
    804716.78846    776585.65942  25384279.8754   25384274.6214
        36.2504         17.2504
 20  5  2  1 16  0.0000000  0 10G23G16G27G 4G22G 9G 3G26G 7G31
 -16835935.75047 -13106318.84046  21468685.3364   21468675.6294
        47.5004         36.0004
 -24924484.68647 -19260401.48846  20460454.5234   20460446.7464
        47.2504         39.0004
  -7553303.53646  -5865490.64045  23818243.7114   23818240.0204
        39.5004         35.2504
 -27357444.10947 -21276624.19847  20243662.7344   20243656.2774
        46.5004         42.0004
  -5307865.62046  -4114863.74743  24625067.4384   24625059.8054
        40.2504         21.5004
 -21916888.64447 -17046031.73448  21462917.0704   21462911.6724
        47.5004         49.5004
 -13475333.56547 -10484947.59147  22740404.0314   22740399.8014
        45.0004         42.2504
 -14512223.26347 -11277640.05247  22296369.0864   22296364.9694
        43.5004         42.7504
  -8023883.42447  -6185404.26246  23869640.6254   23869633.4384
        42.0004         36.5004
    896440.76146    848058.89043  25401735.4694   25401728.2034
        40.5004         18.5004
 20  5  2  1 16 30.0000000  0 11G23G16G27G 4G22G 9G 3G26G 7G 8G31
 -16900186.04747 -13156383.99946  21456458.5394   21456449.5434
        47.5004         36.0004
 -24902997.21247 -19243657.99946  20464543.6644   20464535.4844
        47.0004         39.7504
  -7643561.12447  -5935821.13946  23801070.6884   23801065.9024
        42.0004         37.7504
 -27364906.65847 -21282439.18146  20242242.5234   20242236.2774
        47.0004         41.5004
  -5203642.34246  -4033650.91043  24644902.0164   24644892.8244
        41.5004         21.0004
 -21985671.69147 -17099628.90648  21449828.1804   21449822.4344
        47.0004         49.5004
 -13376912.41547 -10408255.81547  22759132.8674   22759129.0594
        45.0004         42.0004
 -14429374.57047 -11213082.65347  22312134.3914   22312130.9024
        43.2504         42.7504
  -8097824.41047  -6243020.61046  23855569.6334   23855563.1764
        43.0004         36.5004
   -346330.34455   -255356.47554  24981903.2344   24981900.3284
        35.0004         28.0004
    988114.42346    919492.98543  25419180.2344   25419173.4534
        40.0004         20.2504
 20  5  2  1 17  0.0000000  0 11G23G16G27G 4G22G 9G 3G26G 7G 8G31
 -16964183.98447 -13206252.51846  21444280.0394   21444270.9844
        47.5004         36.0004
 -24880870.20047 -19226416.18446  20468753.7274   20468746.0824
        47.2504         38.7504
  -7733622.69846  -6005999.01146  23783930.9454   23783926.9104
        40.5004         37.5004
 -27371948.12747 -21287926.04446  20240902.8914   20240896.0394
        47.5004         41.7504
  -5099419.51446  -3952438.36843  24664734.4614   24664726.1804
        39.0004         22.0004
 -22054177.89347 -17153010.35548  21436791.8444   21436786.1764
        47.0004         49.2504
 -13278251.58947 -10331377.27646  22777907.1564   22777903.0274
        44.0004         41.7504
 -14346189.49847 -11148263.13447  22327964.1484   22327960.5234
        43.5004         42.5004
  -8171664.32447  -6300558.19246  23841518.3134   23841511.8134
        43.0004         36.0004
   -446605.67845   -333493.12744  24962820.9304   24962818.6414
        34.5004         27.5004
   1079735.19146    990885.74943  25436614.9304   25436609.3094
        38.7504         23.0004
 20  5  2  1 17 30.0000000  0 11G23G16G27G 4G22G 9G 3G26G 7G 8G31
 -17027922.39747 -13255918.80346  21432151.8754   21432142.3524
        47.5004         36.5004
 -24858099.90047 -19208673.09746  20473086.9224   20473079.5864
        47.0004         39.0004
  -7823479.58246  -6076017.35446  23766832.4844   23766828.0554
        41.0004         38.5004
 -27378562.17247 -21293079.85546  20239644.2034   20239637.4224
        47.0004         41.7504
  -4995194.41246  -3871224.05743  24684567.7894   24684559.2274
        40.0004         20.5004
 -22122399.95447 -17206170.39948  21423809.7894   21423803.9534
        46.5004         49.5004
 -13179348.63547 -10254310.07146  22796727.8054   22796723.4804
        45.0004         41.7504
 -14262665.35247 -11083179.39947  22343858.4774   22343854.4104
        43.5004         42.5004
  -8245397.95347  -6358012.95546  23827486.6954   23827480.5434
        42.5004         36.0004
   -546957.76745   -411689.57244  24943724.5944   24943720.8244
        34.0004         25.2504
   1171308.09846   1062241.14744  25454040.9384   25454035.3054
        39.0004         24.5004
 20  5  2  1 18  0.0000000  0 11G23G16G27G 4G22G 9G 3G26G 7G 8G31
 -17091401.85347 -13305383.31246  21420071.8444   21420062.5864
        47.7504         36.2504
 -24834690.01247 -19190431.63046  20477541.9844   20477533.8834
        47.0004         39.2504
  -7913130.94946  -6145875.53646  23749771.8134   23749769.1994
        40.5004         39.0004
 -27384750.26947 -21297901.75946  20238466.2734   20238460.0314
        46.7504         41.7504
  -4890971.86946  -3790011.76343  24704399.5084   24704392.4844
        36.5004         20.7504
 -22190338.34347 -17259109.39548  21410881.4844   21410875.6954
        46.5004         49.5004
 -13080209.18047 -10177058.57246  22815593.5474   22815588.9264
        44.5004         41.5004
 -14178807.35347 -11017835.52247  22359816.5864   22359812.1254
        43.2504         42.5004
  -8319027.98147  -6415386.97246  23813476.3364   23813468.7934
        43.0004         36.2504
   -647386.06345   -489945.40744  24924613.2344   24924611.1954
        33.7504         25.0004
   1262829.73345   1133556.63943  25471455.9694   25471450.7304
        34.5004         19.5004
 20  5  2  1 18 30.0000000  0 11G23G16G27G 4G22G 9G 3G26G 7G 8G31
 -17154620.07547 -13354644.25846  21408041.5554   21408032.2274
        47.5004         36.2504
 -24810641.92447 -19171692.87646  20482118.1174   20482110.2584
        47.0004         39.0004
  -8002573.30846  -6215570.82646  23732751.6644   23732747.8874
        40.0004         38.2504
 -27390511.34747 -21302390.91546  20237370.3754   20237363.8484
        47.0004         41.5004
  -4786754.40146  -3708803.43043  24724232.4144   24724224.3914
        38.5004         20.0004
 -22257991.06047 -17311825.78648  21398007.4064   21398002.0044
        46.7504         49.5004
 -12980836.06147 -10099624.99146  22834503.5634   22834499.2664
        44.5004         41.0004
 -14094618.06947 -10952233.49647  22375836.2344   22375832.8164
        43.2504         42.2504
  -8392553.82947  -6472679.82446  23799485.3134   23799477.9304
        44.0004         37.0004
   -747887.83645   -568258.46844  24905488.9694   24905486.2384
        34.5004         27.5004
   1354300.30045   1204832.44842  25488862.1954   25488857.9344
        32.2504         14.7504
 20  5  2  1 19  0.0000000  0 11G23G16G27G 4G22G 9G 3G26G 7G 8G31
 -17217575.74247 -13403700.61446  21396061.8284   21396052.1334
        47.7504         36.5004
 -24785957.65747 -19152458.38746  20486815.3754   20486807.8794
        47.0004         39.0004
  -8091803.93046  -6285101.16346  23715771.0394   23715767.1024
        39.7504         37.5004
 -27395844.88247 -21306546.91846  20236355.1804   20236349.2854
        46.7504         41.7504
  -4682545.01546  -3627601.36643  24744062.7974   24744054.4884
        38.7504         19.2504
 -22325356.64147 -17364318.43348  21385187.7274   21385182.5164
        46.7504         49.5004
 -12881232.81347 -10022012.09246  22853457.5234   22853453.3984
        44.5004         40.5004
 -14010100.68847 -10886375.81747  22391920.1174   22391915.8204
        43.2504         42.0004
  -8465976.22847  -6529892.08546  23785512.0164   23785505.6484
        43.2504         37.0004
   -848461.15645   -646627.31344  24886350.2424   24886347.8794
        34.2504         27.2504
   1445718.10946   1276067.00842  25506259.1254   25506253.1954
        37.2504         17.7504
 20  5  2  1 19 30.0000000  0 11G23G16G27G 4G22G 9G 3G26G 7G 8G31
 -17280266.38747 -13452550.46946  21384132.3364   21384122.2504
        47.5004         36.2504
 -24760638.09747 -19132728.85846  20491633.5234   20491625.6564
        47.0004         39.5004
  -8180818.77646  -6354463.34746  23698831.8914   23698829.0004
        39.0004         37.2504
 -27400749.39947 -21310368.63646  20235421.8914   20235415.3754
        47.0004         41.7504
  -4578346.03846  -3546407.46343  24763892.4224   24763883.0164
        41.2504         19.0004
 -22392432.54747 -17416585.37348  21372424.4924   21372418.3364
        46.7504         49.7504
 -12781401.96247  -9944221.84646  22872454.5084   22872450.2774
        43.7504         41.0004
 -13925257.37847 -10820264.16846  22408064.7734   22408061.0204
        43.0004         41.7504
  -8539294.98547  -6587023.57346  23771561.3594   23771553.7304
        42.7504         37.5004
   -949102.04146   -725048.76144  24867200.9144   24867196.3874
        36.5004         26.5004
   1537083.650 6                  25523645.672
        38.000
 20  5  2  1 20  0.0000000  0 11G23G16G27G 4G22G 9G 3G26G 7G 8G31
 -17342690.39347 -13501192.54746  21372252.9454   21372243.5984
        47.5004         36.5004
 -24734685.07747 -19112505.73846  20496572.1954   20496564.5434
        47.2504         40.0004
  -8269614.98646  -6423655.11746  23681935.6094   23681931.0044
        40.7504         37.0004
 -27405224.22947 -21313855.52546  20234570.5004   20234564.1564
        46.5004         41.7504
  -4474160.05846  -3465223.56343  24783717.2734   24783708.3754
        40.5004         19.5004
 -22459217.14647 -17468625.30848  21359714.8444   21359709.8834
        47.0004         50.0004
 -12681346.78747  -9866256.80646  22891494.6254   22891490.3984
        44.7504         41.0004
 -13840091.08547 -10753900.84446  22424271.5084   22424267.1844
        43.0004         41.7504
  -8612510.06047  -6644074.25646  23757627.7424   23757621.6294
        43.5004         37.5004
  -1049808.55346   -803521.39945  24848037.1724   24848033.5434
        37.0004         30.2504
   1628396.23347   1381842.67054  25541022.4774   25541015.4494
        43.0004         27.5004
 20  5  2  1 20 30.0000000  0 11G23G16G27G 4G22G 9G 3G26G 7G 8G31
 -17404845.71147 -13549625.25446  21360425.3984   21360416.1564
        47.5004         36.2504
 -24708100.00147 -19091790.09946  20501631.0554   20501623.0864
        47.0004         39.0004
  -8358188.82146  -6492673.69546  23665080.5474   23665075.7934
        41.5004         38.2504
 -27409268.19947 -21317006.67146  20233800.8364   20233794.1994
        47.0004         41.7504
  -4369989.52347  -3384051.79443  24803542.1564   24803530.9774
        42.2504         20.0004
 -22525708.28747 -17520436.58448  21347063.0634   21347057.0204
        47.0004         50.0004
 -12581070.15947  -9788119.20846  22910576.4614   22910572.2624
        44.5004         41.2504
 -13754604.38947 -10687287.85246  22440539.1564   22440535.1804
        42.7504         41.5004
  -8685620.59147  -6701043.49146  23743716.0474   23743708.8914
        43.5004         38.0004
  -1150577.50246   -882042.65645  24828860.5084   24828857.4574
        36.7504         30.7504
   1719655.06545   1452953.33443  25558385.5084   25558382.4184
        30.2504         19.5004
 20  5  2  1 21  0.0000000  0 11G23G16G27G 4G22G 9G 3G26G 7G 8G31
 -17466729.35447 -13597846.27846  21348649.1484   21348639.6764
        47.5004         36.2504
 -24680883.54347 -19070582.46846  20506810.2274   20506802.4024
        47.0004         39.0004
  -8446536.05246  -6561515.64246  23648268.5784   23648263.3984
        41.0004         37.5004
 -27412879.28747 -21319820.51446  20233113.7114   20233107.0984
        46.5004         41.7504
  -4265836.15146  -3302893.31043  24823360.6954   24823351.0594
        41.2504         19.7504
 -22591902.85148 -17572016.76648  21334466.0554   21334460.5554
        48.0004         50.2504
 -12480574.03647  -9709810.56846  22929701.0394   22929696.6054
        45.5004         41.2504
 -13668798.80047 -10620426.36846  22456867.1094   22456863.6804
        43.0004         41.7504
  -8758626.21747  -6757930.97746  23729822.7584   23729816.5204
        43.2504         38.0004
  -1251405.26546   -960609.74245  24809672.7034   24809669.5904
        37.5004         31.0004
  28593000.87356  22393222.72052  25575744.6414   25575738.3524
        39.7504         15.5004
 20  5  2  1 21 30.0000000  0 11G23G16G27G 4G22G 9G 3G26G 7G 8G31
 -17528340.57747 -13645855.03046  21336925.4384   21336915.4964
        47.5004         36.2504
 -24653038.12747 -19048884.74146  20512109.1414   20512100.9024
        47.0004         39.5004
  -8534654.39846  -6630179.34046  23631500.1094   23631495.3554
        41.0004         37.7504
 -27416057.81147 -21322297.29547  20232508.7894   20232502.4414
        46.7504         42.0004
  -4161703.47246  -3221751.03543  24843175.0394   24843167.6724
        37.2504         19.2504
 -22657800.17147 -17623365.32148  21321926.5234   21321920.9884
        47.0004         50.2504
 -12379862.64747  -9631334.19146  22948865.0004   22948861.3444
        44.0004         41.2504
 -13582678.33047 -10553319.53046  22473255.8134   22473251.4534
        43.0004         41.5004
  -8831527.90547  -6814737.45646  23715950.6254   23715943.8444
        44.0004         38.0004
  -1352290.02846  -1039221.15844  24790475.5634   24790472.2234
        36.0004         28.5004
  28684152.14645  22464249.84242  25593088.1884   25593083.2504
        32.2504         16.7504
 20  5  2  1 22  0.0000000  0 11G23G16G27G 4G22G 9G 3G26G 7G 8G31
 -17589676.19147 -13693649.00646  21325253.1094   21325244.0164
        47.5004         36.5004
 -24624564.43647 -19026697.45546  20517527.3754   20517519.3634
        47.0004         38.7504
  -8622539.34246  -6698661.06346  23614776.1414   23614771.6254
        40.5004         38.0004
 -27418801.59247 -21324435.30546  20231986.9384   20231980.4924
        46.7504         41.5004
  -4057592.88846  -3140625.94643  24862986.7034   24862979.4264
        36.0004         20.0004
 -22723396.99147 -17674479.72248  21309443.4144   21309438.2814
        47.0004         50.2504
 -12278937.80047  -9552691.49246  22968070.3914   22968066.7304
        44.0004         41.5004
 -13496244.34147 -10485968.38547  22489703.7344   22489699.6844
        43.0004         42.0004
  -8904324.44547  -6871462.00746  23702097.7584   23702090.7544
        43.5004         37.5004
  -1453227.44746  -1117873.67744  24771267.6954   24771264.5824
        36.5004         26.2504
  28775249.83346  22535234.80643  25610424.3914   25610419.2894
        38.7504         21.5004
 20  5  2  1 22 30.0000000  0 11G23G16G27G 4G22G 9G 3G26G 7G 8G31
 -17650735.59247 -13741227.76546  21313633.9144   21313624.4964
        47.5004         36.5004
 -24595465.09347 -19004022.65646  20523064.8984   20523056.7194
        47.0004         39.0004
  -8710188.67046  -6766959.24946  23598096.1644   23598092.6804
        40.5004         38.7504
 -27421110.80447 -21326234.69946  20231547.5394   20231540.9614
        46.7504         41.7504
  -3953508.16946  -3059521.05843  24882794.3134   24882786.3634
        37.7504         19.5004
 -22788692.44547 -17725359.29248  21297017.8914   21297012.9104
        47.2504         50.0004
 -12177803.62247  -9473885.67446  22987315.7814   22987311.4144
        44.2504         40.2504
 -13409500.70147 -10418375.96546  22506210.6724   22506206.0354
        43.0004         41.5004
  -8977017.22847  -6928105.72146  23688264.6954   23688257.5704
        43.0004         37.2504
  -1554215.98846  -1196566.04245  24752050.2504   24752048.6214
        38.0004         32.2504
  28866291.63246  22606176.58043  25627749.4694   25627742.5274
        39.7504         19.5004
 20  5  2  1 23  0.0000000  0 11G23G16G27G 4G22G 9G 3G26G 7G 8G31
 -17711515.41547 -13788588.66846  21302068.2424   21302058.7074
        47.5004         36.5004
 -24565740.85647 -18980860.92646  20528721.3284   20528713.0204
        47.0004         39.2504
  -8797598.03446  -6835070.37946  23581463.3674   23581459.4964
        39.5004         39.2504
 -27422983.51747 -21327693.95846  20231191.0164   20231184.5664
        46.7504         41.7504
  -3849450.69746  -2978437.43943  24902598.0164   24902588.7624
        40.2504         19.0004
 -22853683.51047 -17776001.67748  21284650.6254   21284645.7664
        47.0004         50.0004
 -12076462.12247  -9394918.30746  23006600.0554   23006595.7304
        44.2504         40.5004
 -13322449.02247 -10350543.50946  22522776.1804   22522771.5124
        43.2504         41.0004
  -9049605.06747  -6984667.66046  23674451.4614   23674444.2894
        43.2504         36.5004
  -1655252.14545  -1275295.51644  24732822.5084   24732819.5944
        33.2504         29.2504
  28957279.24155  22677075.98052  25645062.9454   25645057.7114
        30.5004         14.7504
 20  5  2  1 23 30.0000000  0 11G23G16G27G 4G22G 9G 3G26G 7G 8G31
 -17772014.10847 -13835730.50846  21290555.5084   21290546.1094
        47.2504         37.0004
 -24535393.44947 -18957213.59046  20534496.0314   20534488.1094
        47.0004         39.0004
  -8884764.08546  -6902991.91846  23564876.5084   23564872.2344
        41.5004         39.0004
 -27424418.85147 -21328812.41846  20230917.7584   20230911.4104
        46.7504         41.7504
  -3745423.15746  -2897376.99643  24922390.6564   24922384.2194
        36.7504         19.7504
 -22918368.27747 -17826405.39648  21272341.4774   21272336.1174
        47.0004         50.2504
 -11974916.32147  -9315791.75146  23025923.8754   23025919.7154
        44.0004         39.5004
 -13235092.03347 -10282473.15146  22539399.3914   22539395.2154
        42.7504         41.5004
  -9122087.63547  -7041147.57546  23660658.5554   23660651.4104
        43.0004         36.7504
  -1756332.98246  -1354059.67544  24713589.5084   24713584.6484
        38.5004         28.2504
  29048211.18856  22747931.92353  25662368.1334   25662362.1564
        41.0004         22.0004
 20  5  2  1 24  0.0000000  0 11G23G16G27G 4G22G 9G 3G26G 7G 8G31
 -17832230.50747 -13882652.38146  21279096.7664   21279087.7114
        47.5004         36.7504
 -24504425.54847 -18933082.77246  20540389.0944   20540380.9924
        47.0004         39.2504
  -8971684.48147  -6970722.10846  23548336.5314   23548331.0744
        42.0004         39.0004
 -27425416.98147 -21329590.19947  20230728.1644   20230721.6174
        46.7504         42.0004
  -3641429.30746  -2816342.96243  24942182.9774   24942173.1024
        40.7504         19.7504
 -22982745.77847 -17876569.68248  21260091.2664   21260085.8014
        47.2504         50.2504
 -11873170.39447  -9236509.24846  23045285.9144   23045281.4414
        44.5004         40.0004
 -13147433.50147 -10214167.82646  22556079.8364   22556075.7344
        43.0004         41.2504
  -9194465.95147  -7097546.24346  23646885.0314   23646878.3984
        42.7504         37.2504
  -1857456.51346  -1432857.16245  24694344.7814   24694342.4534
        37.0004         30.5004
  29139086.381 6                  25679660.547
        38.250
 20  5  2  1 24 30.0000000  0 11G23G16G27G 4G22G 9G 3G26G 7G 8G31
 -17892161.74148 -13929352.04446  21267692.2894   21267683.0514
        48.0004         37.0004
 -24472837.94247 -18908469.04746  20546399.9774   20546392.1374
        47.2504         39.0004
  -9058354.77446  -7038257.39246  23531843.3444   23531838.8954
        41.2504         38.7504
 -27425975.87347 -21330025.71047  20230621.7344   20230614.9304
        46.7504         42.2504
  -3537470.36147  -2735335.95543  24961965.4064   24961955.6024
        42.0004         19.0004
 -23046812.90547 -17926492.11748  21247899.5164   21247893.8754
        47.5004         50.2504
 -11771226.19247  -9157072.24146  23064685.7344   23064680.9534
        44.5004         40.5004
 -13059474.91747 -10145628.68846  22572818.1484   22572814.3244
        42.5004         41.0004
  -9266739.06247  -7153862.94646  23633132.5944   23633125.6724
        43.7504         38.7504
  -1958618.74246  -1511684.82644  24675096.5944   24675090.7894
        40.2504         29.5004
  29229905.97746  22787528.52753  25696943.2734   25696936.5744
        36.0004         19.7504
 20  5  2  1 25  0.0000000  0 11G23G16G27G 4G22G 9G 3G26G 7G 8G31
 -17951804.81648 -13975827.17846  21256342.7974   21256332.8714
        48.0004         36.2504
 -24440631.15047 -18883372.85346  20552529.0634   20552521.1024
        47.0004         38.5004
  -9144770.65047  -7105594.43246  23515398.6804   23515394.2664
        42.0004         39.0004
 -27426093.61947 -21330117.47047  20230599.0314   20230592.8484
        46.5004         42.0004
  -3433547.72346  -2654357.32243  24981741.0864   24981731.5434
        41.5004         19.2504
 -23110566.62147 -17976170.34448  21235767.6484   21235761.9144
        47.7504         50.2504
 -11669085.82047  -9077482.37846  23084122.1094   23084117.6954
        44.5004         41.0004
 -12971217.96347 -10076857.06546  22589613.2734   22589608.9694
        42.2504         40.7504
  -9338905.69547  -7210096.67146  23619399.9774   23619392.8444
        44.0004         38.7504
  -2059815.87246  -1590539.70544  24655837.0864   24655834.8284
        37.2504         28.0004
  29320670.51945  22858253.96443  25714215.0394   25714208.6954
        33.0004         19.2504
 20  5  2  1 25 30.0000000  0 11G23G16G27G 4G22G 9G 3G26G 7G 8G31
 -18011159.91647 -14022077.89646  21245047.5394   21245038.1134
        47.5004         36.5004
 -24407809.01947 -18857797.17546  20558774.7734   20558766.6684
        47.0004         38.7504
  -9230930.98946  -7172732.38146  23499002.2974   23498997.1294
        41.0004         36.7504
 -27425771.66847 -21329866.61147  20230660.4304   20230654.0984
        47.0004         42.0004
  -3329666.14546  -2573410.61042  25001507.3984   25001499.7304
        39.0004         17.2504
 -23174007.22147 -18025604.57648  21223695.4144   21223690.1094
        47.5004         50.2504
 -11566754.37547  -8997743.61946  23103594.6334   23103591.1844
        42.7504         40.5004
 -12882667.60947 -10007856.81146  22606463.2504   22606459.6024
        42.5004         41.0004
  -9410968.37347  -7266249.38046  23605685.9844   23605679.8444
        44.5004         39.2504
  -2161047.54345  -1669421.39044  24636574.0554   24636572.0664
        35.0004         27.5004
  29411376.77145  22928934.00043  25731474.5084   25731469.5704
        32.2504         20.2504
 20  5  2  1 26  0.0000000  0 11G23G16G27G 4G22G 9G 3G26G 7G 8G31
 -18070223.76247 -14068101.67246  21233808.3834   21233798.6484
        47.7504         36.7504
 -24374372.52847 -18831742.76946  20565137.5394   20565129.3794
        47.0004         39.5004
  -9316831.18047  -7239667.60246  23482657.3674   23482652.1054
        42.0004         38.5004
 -27425007.91847 -21329271.49347  20230805.6724   20230799.4734
        47.0004         42.0004
  -3225827.00846  -2492497.08543  25021268.4924   25021259.1374
        40.0004         18.5004
 -23237131.45347 -18074792.29648  21211683.1334   21211678.0634
        47.0004         50.5004
 -11464233.69647  -8917857.43246  23123103.7034   23123099.7194
        44.0004         39.7504
 -12793825.23547  -9938629.01746  22623369.6884   22623366.0474
        42.5004         41.0004
  -9482925.82447  -7322320.10246  23591993.2424   23591986.5124
        44.5004         38.7504
  -2262309.03545  -1748326.46144  24617302.7274   24617302.5864
        33.2504         29.2504
  31077445.78756  24227169.41253  25748726.5004   25748720.0704
        38.0004         20.5004
 20  5  2  1 26 30.0000000  0 11G23G16G27G 4G22G 9G 3G26G 7G 8G31
 -18128994.67347 -14113897.18846  21222624.2424   21222614.7384
        47.5004         37.2504
 -24340323.62847 -18805211.17046  20571616.7584   20571608.9024
        47.0004         39.0004
  -9402468.13546  -7306397.66646  23466359.4224   23466356.3794
        39.5004         37.0004
 -27423801.66747 -21328331.56447  20231035.4924   20231029.0944
        46.7504         42.0004
  -3122032.85946  -2411618.61743  25041019.8984   25041011.1254
        37.0004         19.2504
 -23299937.54347 -18123732.10448  21199731.2734   21199726.2034
        47.2504         50.7504
 -11361527.05547  -8837826.33146  23142647.5944   23142644.1414
        43.5004         40.0004
 -12704693.74247  -9869175.94046  22640331.2894   22640327.0634
        42.5004         41.0004
  -9554777.70447  -7378308.55846  23578320.2424   23578313.2424
        43.7504         38.2504
  -2363598.04546  -1827252.94245  24598030.0234   24598026.0744
        39.5004         30.7504
  31168036.91546  24297760.03743  25765965.0784   25765958.1374
        41.7504         21.0004
 20  5  2  1 27  0.0000000  0 11G23G16G27G 4G22G 9G 3G26G 7G 8G31
 -18187470.46047 -14159462.73846  21211496.9534   21211487.6414
        47.7504         36.5004
 -24305663.81647 -18778203.53446  20578212.1804   20578204.3484
        47.0004         39.0004
  -9487838.34946  -7372919.89246  23450116.0704   23450109.6334
        41.5004         37.5004
 -27422151.89447 -21327046.04046  20231349.1954   20231343.0124
        46.7504         41.7504
  -3018286.34546  -2330777.25043  25060764.5004   25060753.9224
        39.5004         19.2504
 -23362423.24747 -18172422.25948  21187840.8364   21187835.6914
        47.0004         50.7504
 -11258637.25447  -8757652.51346  23162227.6024   23162223.5474
        43.0004         39.7504
 -12615275.53147  -9799499.43246  22657346.8284   22657342.6174
        42.5004         40.5004
  -9626524.09347  -7434214.83046  23564667.2894   23564660.5824
        44.2504         38.7504
  -2464911.41645  -1906198.42144  24578749.0864   24578746.6724
        35.5004         28.7504
  31258570.37646  24368305.61943  25783192.8054   25783186.3634
        39.0004         22.0004
 20  5  2  1 27 30.0000000  0 11G23G16G27G 4G22G 9G 3G26G 7G 8G31
 -18245648.79847 -14204796.50946  21200426.0474   21200416.3054
        47.7504         37.0004
 -24270394.62847 -18750721.05546  20584923.7034   20584915.8404
        47.5004         38.7504
  -9572937.93447  -7439231.27346  23433921.3364   23433917.8404
        42.0004         40.7504
 -27420057.44147 -21325414.01446  20231747.9064   20231741.4964
        47.0004         41.7504
  -2914589.33946  -2249974.40043  25080494.3204   25080487.1954
        38.0004         19.2504
 -23424586.25747 -18220860.96948  21176011.6564   21176006.1294
        47.7504         50.5004
 -11155566.99447  -8677338.06446  23181840.8134   23181836.7424
        43.2504         38.7504
 -12525572.97347  -9729601.36346  22674416.5004   22674412.4184
        42.2504         40.0004
  -9698164.95947  -7490038.85346  23551034.8754   23551028.1684
        44.0004         38.7504
  -2566245.94446  -1985160.36845  24559467.1954   24559462.8164
        39.0004         30.5004
  31349045.97045  24438805.93342  25800409.9454   25800403.1684
        35.2504         17.7504
 20  5  2  1 28  0.0000000  0 11G23G16G27G 4G22G 9G 3G26G 7G 8G31
 -18303527.88547 -14249897.09546  21189411.8054   21189401.8714
        47.5004         37.0004
 -24234518.05947 -18722765.30646  20591750.6644   20591742.7234
        47.5004         38.7504
  -9657763.82746  -7505329.33246  23417778.7424   23417775.4414
        40.5004         39.7504
 -27417517.52547 -21323434.87047  20232230.8674   20232224.8164
        46.7504         42.0004
  -2810944.59046  -2169212.30843  25100218.6334   25100209.8714
        38.0004         19.2504
 -23486424.61747 -18269046.69948  21164244.3284   21164238.8754
        47.5004         50.5004
 -11052319.32947  -8596885.38046  23201488.8834   23201484.4694
        44.0004         39.2504
 -12435588.80947  -9659483.85646  22691540.4064   22691535.3524
        42.5004         40.0004
  -9769699.95747  -7545780.39546  23537422.5234   23537415.8284
        44.0004         39.0004
  -2667598.61746  -2064136.43945  24540179.9064   24540177.1134
        38.5004         31.5004
  31439463.415 5                  25817614.047
        32.000
 20  5  2  1 28 30.0000000  0 11G23G16G27G 4G22G 9G 3G26G 7G 8G31
 -18361103.70547 -14294761.37346  21178455.4304   21178445.8204
        47.5004         37.0004
 -24198033.97347 -18694336.15846  20598693.6094   20598685.5234
        47.5004         38.5004
  -9742310.59747  -7571209.95846  23401691.4694   23401686.2424
        43.0004         41.7504
 -27414529.36247 -21321106.43646  20232800.0004   20232793.6054
        46.5004         41.7504
  -2707352.40746  -2088491.16943  25119930.9614   25119922.7504
        40.0004         20.2504
 -23547934.31947 -18316976.33448  21152539.2504   21152534.1764
        47.5004         50.7504
 -10948895.27347  -8516295.23546  23221169.5634   23221165.3484
        44.2504         39.2504
 -12345323.65847  -9589147.39546  22708716.6954   22708712.7934
        42.0004         40.2504
  -9841126.86447  -7601437.69946  23523829.9384   23523823.2704
        44.0004         39.5004
  -2768964.62846  -2143122.86945  24520891.9144   24520887.9344
        39.2504         32.0004
                                  25834810.250
        27.250
 20  5  2  1 29  0.0000000  0 11G23G16G27G 4G22G 9G 3G26G 7G 8G31
 -18418380.27247 -14339392.45946  21167556.0704   21167546.4104
        47.7504         37.0004
 -24160950.59847 -18665440.02446  20605750.3674   20605742.4144
        47.5004         39.0004
  -9826581.16546  -7636875.26746  23385654.3594   23385651.5984
        41.2504         40.2504
 -27411098.40247 -21318432.97446  20233452.6174   20233446.5864
        46.7504         41.7504
  -2603821.91246  -2007818.13243  25139632.2504   25139624.3794
        38.5004         20.0004
 -23609119.60047 -18364653.17348  21140896.1094   21140890.9454
        47.5004         51.0004
 -10845304.10547  -8435574.89146  23240882.7504   23240877.9694
        44.0004         39.0004
 -12254786.41547  -9518598.91146  22725944.8914   22725941.5474
        42.0004         40.5004
  -9912452.29947  -7657015.94546  23510257.3834   23510250.2704
        43.7504         39.2504
  -2870347.13046  -2222122.23445  24501598.1334   24501595.8444
        38.0004         32.0004
  31620121.34656  24440885.53753  25851993.3204   25851986.6094
        37.0004         19.7504
 20  5  2  1 29 30.0000000  0 11G23G16G27G 4G22G 9G 3G26G 7G 8G31
 -18475349.19148 -14383783.82946  21156715.7974   21156705.8404
        48.0004         37.0004
 -24123263.01648 -18636073.08646  20612922.3444   20612914.1804
        48.0004         38.5004
  -9910565.23047  -7702317.42346  23369674.0474   23369668.7464
        43.2504         39.7504
 -27407216.97147 -21315408.49346  20234191.2664   20234185.0554
        47.0004         41.7504
  -2500347.99345  -1927189.14643  25159321.7584   25159314.9654
        35.7504         19.5004
 -23669971.58147 -18412070.29648  21129316.5004   21129311.4534
        47.7504         51.2504
 -10741541.96947  -8354721.30846  23260627.5314   23260623.3834
        42.2504         38.7504
 -12163972.86447  -9447835.13046  22743226.7664   22743222.6214
        42.0004         40.0004
  -9983669.88047  -7712510.15146  23496704.8284   23496697.6524
        43.5004         39.0004
  -2971736.55646  -2301126.93044  24482304.5864   24482301.6254
        37.0004         29.0004
  31710361.94646  24511202.85143  25869166.1804   25869159.2974
        38.2504         21.5004
 20  5  2  1 30  0.0000000  0 11G23G16G27G 4G22G 9G 3G26G 7G 8G31
 -18532010.96547 -14427935.86146  21145932.9774   21145923.8164
        47.5004         37.0004
 -24084975.69148 -18606238.81946  20620207.9144   20620200.0704
        48.0004         38.0004
  -9994262.28346  -7767535.92846  23353744.3134   23353740.3444
        37.5004         36.2504
 -27402886.90947 -21312034.43347  20235015.1954   20235009.2384
        47.0004         42.0004
  -2396936.11746  -1846608.56343  25179000.4534   25178993.6844
        37.7504         19.5004
 -23730490.89747 -18459228.19748  21117799.9534   21117794.6054
        47.7504         51.2504
 -10637614.47247  -8273738.89446  23280404.5474   23280400.3984
        43.2504         38.5004
 -12072888.25346  -9376860.14246  22760559.6254   22760555.3324
        41.5004         40.0004
 -10054781.05147  -7767921.44846  23483172.7664   23483165.8754
        44.2504         39.0004
  -3073132.25745  -2380136.61645  24463008.2664   24463006.6844
        34.7504         30.2504
  31800542.96846  24581473.73043  25886326.6334   25886320.5434
        39.7504         22.7504
 20  5  2  1 30 30.0000000  0 11G23G16G27G 4G22G 9G 3G26G 7G 8G31
 -18588363.30847 -14471846.77146  21135209.3134   21135200.0594
        47.7504         37.2504
 -24046090.49048 -18575938.66946  20627607.5234   20627599.4224
        48.2504         39.0004
 -10077668.58546  -7832527.82746  23337873.4144   23337870.0554
        40.7504         38.5004
 -27398107.19947 -21308309.99447  20235924.9064   20235918.5944
        47.0004         42.5004
  -2293588.50246  -1766078.06243  25198666.8364   25198661.6254
        37.5004         18.5004
 -23790675.27147 -18506125.11748  21106347.3054   21106341.9454
        47.7504         51.2504
 -10533524.39047  -8192629.78046  23300211.7584   23300208.2304
        42.5004         38.7504
 -11981535.02947  -9305675.84146  22777943.7734   22777939.5704
        42.5004         40.2504
 -10125785.69047  -7823249.72146  23469661.5634   23469654.3364
        45.0004         40.0004
  -3174531.00945  -2459148.54744  24443713.2274   24443710.4494
        35.7504         28.2504
  31890664.36246  24651698.12743  25903476.8594   25903470.1174
        39.0004         21.2504
 20  5  2  1 31  0.0000000  0 11G23G16G27G 4G22G 9G 3G26G 7G 8G31
 -18644403.57347 -14515514.51246  21124545.3204   21124535.8324
        47.5004         37.0004
 -24006608.21348 -18545173.27246  20635121.0314   20635112.8554
        48.2504         38.2504
 -10160779.91746  -7897289.91745  23322057.1414   23322051.9224
        39.5004         34.5004
 -27392876.13147 -21304233.85947  20236920.2344   20236914.2274
        46.7504         42.0004
  -2190306.543 6                  25218321.000
        36.500
 -23850521.73447 -18552758.72048  21094958.9304   21094953.1174
        47.5004         51.2504
 -10429273.78347  -8111395.58846  23320049.9844   23320046.7384
        43.0004         38.7504
 -11889914.85447  -9234283.52946  22795378.7034   22795374.4414
        42.0004         39.7504
 -10196682.92947  -7878494.31846  23456169.4534   23456162.5784
        44.0004         39.2504
  -3275929.42046  -2538160.33145  24424418.0474   24424415.1094
        38.2504         31.0004
                                  25920614.906
        28.250
 20  5  2  1 31 30.0000000  0 10G23G16G27G 4G22G 9G 3G26G 7G 8
 -18700132.08247 -14558939.31946  21113940.8134   21113930.9774
        47.7504         36.7504
 -23966533.61448 -18513946.31446  20642746.3914   20642738.6884
        48.5004         38.0004
 -10243595.49047  -7961821.57247  23306299.5944   23306296.4614
        43.0004         42.0004
 -27387195.57047 -21299807.45847  20238001.2814   20237995.1294
        47.0004         42.0004
  -2087095.13946  -1624797.19652  25237962.7274   25237954.9574
        37.7504         17.7504
 -23910030.87548 -18599129.47948  21083634.7584   21083629.1484
        48.2504         51.2504
 -10324868.23847  -8030040.65746  23339917.9384   23339914.2384
        42.5004         38.2504
 -11798032.90246  -9162687.23046  22812863.1254   22812859.4104
        41.7504         39.5004
 -10267475.63747  -7933657.46246  23442697.8444   23442691.7274
        43.5004         39.2504
  -3377326.40146  -2617170.93345  24405122.3594   24405119.7274
        38.2504         31.7504
 20  5  2  1 32  0.0000000  0 10G23G16G27G 4G22G 9G 3G26G 7G 8
 -18755544.51648 -14602117.84046  21103395.6954   21103386.4064
        48.0004         37.0004
 -23925866.46748 -18482257.64146  20650485.5394   20650477.8634
        48.7504         39.0004
 -10326109.85546  -8026118.43346  23290596.3204   23290593.1334
        41.5004         40.0004
 -27381062.64447 -21295028.56746  20239168.4454   20239161.8984
        47.2504         41.7504
  -1983954.85946  -1544428.16342  25257588.9534   25257580.8874
        36.5004         17.7504
 -23969198.58247 -18645234.18648  21072375.4694   21072369.9574
        47.7504         51.0004
 -10220308.68847  -7948565.73346  23359815.2664   23359811.1414
        42.5004         39.0004
 -11705889.76447  -9090887.42746  22830397.3204   22830393.1414
        42.0004         39.5004
 -10338161.49247  -7988737.32746  23429247.2424   23429240.5274
        44.0004         39.5004
  -3478717.40946  -2696176.89945  24385829.4064   24385825.7624
        39.0004         32.0004
 20  5  2  1 32 30.0000000  0 10G23G16G27G 4G22G 9G 3G26G 7G 8
 -18810639.86348 -14645049.28246  21092911.4384   21092901.8754
        48.0004         37.0004
 -23884609.95948 -18450109.71046  20658336.0164   20658327.9614
        48.0004         39.0004
 -10408320.51647  -8090178.72047  23274954.4454   23274949.2734
        44.0004         42.7504
 -27374477.32347 -21289897.16046  20240421.7344   20240415.2704
        47.2504         41.5004
  -1880888.96446  -1464117.15742  25277201.7034   25277194.4344
        36.7504         17.2504
 -24028023.52247 -18691071.80248  21061181.3134   21061176.0084
        47.7504         51.0004
 -10115598.80947  -7866973.66846  23379741.5314   23379737.0904
        42.7504         38.7504
 -11613488.71147  -9018886.62446  22847980.3524   22847976.3594
        42.2504         39.5004
 -10408740.95247  -8043734.29446  23415816.3444   23415809.3054
        43.7504         39.2504
  -3580099.71646  -2775176.08045  24366536.7894   24366533.9184
        39.0004         32.5004
 20  5  2  1 33  0.0000000  0 10G23G16G27G 4G22G 9G 3G26G 7G 8
 -18865415.43747 -14687731.54846  21082488.2344   21082478.8674
        47.7504         37.2504
 -23842765.53648 -18417503.67246  20666299.0394   20666290.8204
        48.7504         38.7504
 -10490223.42046  -8153999.11646  23259367.3834   23259365.1294
        41.5004         41.0004
 -27367438.34947 -21284412.26046  20241761.0474   20241754.7624
        47.0004         41.5004
  -1777899.21646  -1383865.42542  25296802.0474   25296792.8834
        39.0004         17.2504
 -24086503.14547 -18736640.33648  21050052.8984   21050047.5354
        47.7504         51.0004
 -10010741.05947  -7785266.38046  23399695.2974   23399690.5904
        43.0004         38.5004
 -11520831.82246  -8946686.48846  22865612.6334   22865608.4224
        41.5004         39.0004
 -10479213.71347  -8098648.11646  23402406.0474   23402399.2344
        43.7504         39.5004
  -3681469.71246  -2854165.67845  24347246.5474   24347243.2114
        37.5004         30.5004
 20  5  2  1 33 30.0000000  0 10G23G16G27G 4G22G 9G 3G26G 7G 8
 -18919869.25148 -14730163.09646  21072126.0864   21072116.6024
        48.0004         37.2504
 -23800335.08448 -18384440.98246  20674373.5084   20674365.5314
        48.7504         38.7504
 -10571815.59447  -8217577.39946  23243842.0634   23243835.5004
        44.2504         39.7504
 -27359945.11547 -21278573.38046  20243186.7424   20243180.7274
        47.2504         41.5004
  -1674987.56746  -1303674.63542  25316382.8284   25316376.5004
        36.7504         17.7504
 -24144635.55248 -18781938.32448  21038990.6804   21038985.1024
        48.0004         51.2504
  -9905738.51447  -7703446.24646  23419676.1254   23419672.0204
        42.0004         38.2504
 -11427921.85446  -8874289.13146  22883292.2734   22883288.8014
        41.5004         39.2504
 -10549579.45747  -8153478.54546  23389016.4224   23389009.0124
        44.2504         39.7504
  -3782825.20346  -2933143.96545  24327959.2664   24327955.8134
        37.5004         31.0004
 20  5  2  1 34  0.0000000  0 10G23G16G27G 4G22G 9G 3G26G 7G 8
 -18973999.63348 -14772342.62046  21061825.3674   21061815.5234
        48.2504         37.5004
 -23757320.59448 -18350923.20146  20682558.7504   20682550.7074
        49.0004         38.7504
 -10653093.42446  -8280910.78646  23228372.9454   23228370.6564
        40.2504         38.5004
 -27351996.82047 -21272379.90546  20244699.6094   20244693.2034
        47.5004         41.2504
  -1572157.13246  -1223547.11843  25335953.9694   25335945.5704
        40.5004         19.0004
 -24202418.61748 -18826964.09248  21027995.0784   21027989.5394
        48.2504         51.5004
  -9800594.05947  -7621515.54846  23439684.4304   23439680.4024
        42.2504         38.0004
 -11334761.27546  -8801696.51546  22901021.1414   22901017.0704
        41.5004         39.5004
 -10619838.38347  -8208225.74246  23375646.0474   23375638.9494
        44.0004         40.2504
  -3884162.31746  -3012107.89645  24308674.6644   24308672.6054
        36.7504         30.2504
 20  5  2  1 34 30.0000000  0 10G23G16G27G 4G22G 9G 3G26G 7G 8
 -19027804.69047 -14814268.62746  21051586.7974   21051577.0044
        47.7504         37.5004
 -23713724.90448 -18316952.54446  20690854.8364   20690846.8094
        49.0004         38.2504
 -10734054.03747  -8343996.92846  23212968.6644   23212963.0864
        42.0004         38.5004
 -27343593.14547 -21265831.59846  20246298.6174   20246292.2154
        47.0004         41.7504
  -1469409.96246  -1143484.46943  25355504.7894   25355497.0354
        39.2504         19.0004
 -24259850.65348 -18871716.33248  21017066.0314   21017060.5554
        48.5004         51.5004
  -9695311.07046  -7539476.90546  23459719.2584   23459715.3554
        41.7504         38.2504
 -11241353.02647  -8728910.89846  22918794.6564   22918792.1484
        42.2504         40.0004
 -10689990.13747  -8262889.42346  23362296.7344   23362289.9144
        45.2504         40.5004
  -3985478.69246  -3091055.70645  24289395.3284   24289392.2734
        36.2504         31.5004
 20  5  2  1 35  0.0000000  0 10G23G16G27G 4G22G 9G 3G26G 7G 8
 -19081281.88947 -14855939.18446  21041410.1094   21041400.6454
        47.7504         37.2504
 -23669549.50748 -18282530.15546  20699260.7664   20699252.8834
        48.5004         38.7504
 -10814693.59746  -8406832.97446  23197622.1174   23197618.2304
        41.5004         38.7504
 -27334732.91347 -21258927.53146  20247984.8364   20247978.2894
        46.5004         41.5004
  -1366748.59546  -1063488.62742  25375041.9304   25375032.0434
        40.0004         17.7504
 -24316929.17948 -18916193.10648  21006204.6484   21006199.1724
        48.5004         51.5004
  -9589891.99846  -7457332.22146  23479779.4304   23479775.5124
        41.7504         38.0004
 -11147699.25946  -8655933.96446  22936617.8204   22936613.5944
        41.5004         39.5004
 -10760034.63047  -8317469.52546  23348967.9064   23348960.7544
        44.5004         40.2504
  -4086770.84346  -3169984.60045  24270120.5314   24270117.7934
        38.7504         33.0004
 20  5  2  1 35 30.0000000  0 10G23G16G27G 4G22G 9G 3G26G 7G 8
 -19134429.38947 -14897352.82346  21031296.5704   21031287.0124
        47.5004         37.5004
 -23624796.54848 -18247657.72246  20707777.0234   20707768.8014
        49.0004         38.2504
 -10895008.89947  -8469416.32446  23182338.2734   23182334.6644
        42.2504         40.2504
 -27325415.56347 -21251667.26446  20249757.7894   20249751.7154
        46.2504         41.5004
  -1264174.98346   -983561.18443  25394559.6334   25394552.5044
        37.0004         19.0004
 -24373652.24848 -18960392.90748  20995410.2894   20995404.8054
        48.0004         51.5004
  -9484339.96147  -7375083.93246  23499866.0704   23499861.9184
        42.5004         37.2504
 -11053802.65747  -8582767.81846  22954486.1334   22954481.4454
        42.0004         39.2504
 -10829972.20647  -8371966.32346  23335658.9924   23335651.8054
        44.7504         40.5004
  -4188035.51346  -3248892.14045  24250850.2194   24250846.7854
        37.5004         33.0004
 20  5  2  1 36  0.0000000  0 10G23G16G27G 4G22G 9G 3G26G 7G 8
 -19187245.38347 -14938508.15046  21021245.8754   21021236.6134
        47.7504         37.5004
 -23579468.46648 -18212337.14646  20716402.9064   20716394.4654
        48.5004         38.2504
 -10974996.89947  -8531744.62946  23167117.2034   23167113.4454
        42.5004         40.0004
 -27315640.73947 -21244050.52646  20251618.0474   20251611.5864
        46.5004         41.5004
  -1161691.83046   -903704.45742  25414063.1174   25414053.7854
        37.5004         17.2504
 -24430018.13248 -19004314.37748  20984684.3754   20984679.3204
        48.0004         51.7504
  -9378658.18047  -7292734.53646  23519975.9534   23519972.1644
        42.7504         37.0004
 -10959666.05746  -8509414.65146  22972398.6954   22972394.8404
        41.7504         39.5004
 -10899802.58947  -8426379.59546  23322370.0944   23322363.5824
        44.2504         39.7504
  -4289270.04246  -3327776.16945  24231586.2584   24231582.6994
        38.5004         33.0004
 20  5  2  1 36 30.0000000  0 10G23G16G27G 4G22G 9G 3G26G 7G 8
 -19239727.61448 -14979403.40246  21011258.6484   21011249.4884
        48.0004         37.5004
 -23533566.75948 -18176569.58846  20725137.3674   20725129.4344
        48.0004         38.0004
 -11054653.91247  -8593814.99146  23151959.9224   23151955.2034
        43.5004         40.5004
 -27305407.29248 -21236076.41946  20253565.4304   20253558.6644
        48.0004         41.5004
  -1059301.278 6                  25433545.891
        37.500
 -24486024.40848 -19047955.63148  20974027.0554   20974021.4574
        48.0004         51.7504
  -9272849.17947  -7210286.00846  23540111.0864   23540107.0984
        42.7504         37.0004
 -10865291.58046  -8435876.13146  22990357.9454   22990353.6804
        41.7504         39.0004
 -10969525.29847  -8480708.97946  23309102.3984   23309095.7624
        44.0004         40.0004
  -4390471.13946  -3406634.14645  24212328.3594   24212324.8444
        38.2504         33.5004
 20  5  2  1 37  0.0000000  0 10G23G16G27G 4G22G 9G 3G26G 7G 8
 -19291873.95948 -15020036.92746  21001335.7424   21001326.2114
        48.5004         37.2504
 -23487094.36348 -18140357.33446  20733981.0164   20733972.8954
        49.0004         38.7504
 -11133976.59546  -8655624.83346  23136864.5314   23136861.6644
        41.7504         41.0004
 -27294714.55347 -21227744.41846  20255600.0314   20255593.6454
        47.5004         41.5004
  25825134.48756  20106215.40853  25453016.0864   25453006.6914
        40.2504         19.5004
 -24541668.94348 -19091315.01348  20963437.8284   20963432.4574
        48.7504         51.7504
  -9166915.88347  -7127740.62646  23560270.4064   23560265.7424
        42.2504         37.2504
 -10770681.76146  -8362154.23546  23008361.5634   23008357.6414
        41.5004         38.5004
 -11039140.37747  -8534954.48046  23295855.2114   23295848.9844
        43.2504         40.2504
  -4491635.45046  -3485463.49545  24193076.1954   24193073.4384
        37.0004         32.5004
 20  5  2  1 37 30.0000000  0 10G23G16G27G 4G22G 9G 3G26G 7G 8
 -19343682.31547 -15060407.08846  20991476.9844   20991468.0394
        47.7504         37.2504
 -23440052.95848 -18103701.70746  20742932.8054   20742924.8404
        48.0004         38.5004
 -11212961.57447  -8717171.53746  23121835.2424   23121830.1844
        43.2504         40.7504
 -27283561.91048 -21219054.05546  20257722.1334   20257715.7464
        48.0004         41.7504
  25927333.27146  20167091.82752  25472459.8754   25472452.0434
        37.0004         17.2504
 -24596949.77148 -19134390.98448  20952918.6724   20952912.8984
        49.0004         51.7504
  -9060861.27447  -7045100.72746  23580450.7734   23580447.7304
        42.2504         37.7504
 -10675839.18447  -8288250.96446  23026410.6564   23026405.8484
        42.2504         38.7504
 -11108647.53747  -8589115.88646  23282628.0234   23282621.4454
        43.0004         40.0004
  -4592760.26446  -3564262.03445  24173833.3594   24173829.9344
        37.5004         31.7504
 20  5  2  1 38  0.0000000  0 10G23G16G27G 4G22G 9G 3G26G 7G 8
 -19395151.15748 -15100512.68546  20981682.7974   20981673.6884
        48.2504         37.5004
 -23392445.07448 -18066604.65846  20751992.1724   20751984.5904
        48.5004         38.0004
 -11291605.93747  -8778452.80446  23106869.7584   23106866.1454
        42.5004         41.5004
 -27271949.01947 -21210005.05646  20259932.3444   20259925.8554
        47.5004         41.5004
  26029432.050 6                  25491889.102
        36.750
 -24651865.11548 -19177182.17048  20942467.7504   20942462.7504
        48.7504         52.0004
  -8954688.58547  -6962368.81246  23600655.7274   23600651.6994
        42.0004         37.5004
 -10580766.65147  -8214168.49746  23044501.5864   23044497.4184
        42.5004         38.7504
 -11178047.00747  -8643193.37546  23269422.3834   23269415.5784
        43.0004         40.0004
  -4693842.32546  -3643027.23345  24154598.6564   24154595.5664
        38.7504         32.5004
 20  5  2  1 38 30.0000000  0 10G23G16G27G 4G22G 9G 3G26G 7G 8
 -19446278.05347 -15140351.83246  20971953.6724   20971944.0434
        47.7504         37.2504
 -23344272.65648 -18029067.71746  20761158.9924   20761151.3914
        48.7504         38.5004
 -11369906.02947  -8839465.83146  23091968.8674   23091964.4844
        43.5004         40.2504
 -27259875.00147 -21200596.73146  20262229.8134   20262223.5044
        47.5004         41.5004
  26131428.876 6                  25511299.445
        39.250
 -24706412.62648 -19219686.73348  20932087.9534   20932082.9614
        48.0004         52.0004
  -8848400.43046  -6879546.92046  23620881.2974   23620877.1994
        41.5004         37.0004
 -10485466.47247  -8139908.65446  23062636.7974   23062632.4144
        42.2504         38.5004
 -11247338.50047  -8697186.72946  23256237.0234   23256229.6294
        43.2504         40.0004
  -4794878.46446  -3721756.65045  24135371.8914   24135368.4574
        37.5004         32.0004
 20  5  2  1 39  0.0000000  0 10G23G16G27G 4G22G 9G 3G26G 7G 8
 -19497060.81547 -15179922.82646  20962290.1174   20962280.7304
        47.5004         37.5004
 -23295537.57048 -17991092.32846  20770433.0084   20770425.2274
        48.5004         38.2504
 -11447858.43347  -8900207.93446  23077135.1644   23077131.2074
        43.2504         40.7504
 -27247339.02647 -21190828.44346  20264615.1254   20264608.8134
        47.0004         41.5004
  26233322.10846  20338556.33753  25530686.9844   25530681.1764
        37.0004         19.0004
 -24760590.19648 -19261903.03348  20921778.6414   20921773.2424
        48.0004         52.0004
  -8741999.58046  -6796637.22246  23641129.9304   23641124.6134
        41.2504         37.2504
 -10389940.94247  -8065473.20846  23080814.2814   23080810.1954
        42.0004         38.2504
 -11316521.72747  -8751095.72346  23243072.0394   23243064.5784
        43.7504         40.5004
  -4895865.13146  -3800447.50345  24116155.6414   24116151.4534
        37.5004         32.0004
 20  5  2  1 39 30.0000000  0 10G23G16G27G 4G22G 9G 3G26G 7G 8
 -19547498.36148 -15219224.82146  20952692.1644   20952682.4614
        48.7504         37.5004
 -23246243.41248 -17952681.29746  20779813.4454   20779805.2424
        48.7504         38.5004
 -11525460.68447  -8960677.21546  23062367.6884   23062362.8834
        43.5004         39.5004
 -27234341.38647 -21180700.41546  20267088.6724   20267082.6054
        47.2504         41.5004
  26335108.85246  20358174.80553  25550057.6954   25550050.6764
        38.7504         18.2504
 -24814396.58448 -19303830.09348  20911539.7664   20911534.3794
        49.7504         52.0004
  -8635489.83546  -6713642.65646  23661396.2664   23661392.9104
        40.2504         36.5004
 -10294193.47447  -7990864.81946  23099034.4384   23099030.4384
        42.0004         38.2504
 -11385597.64247  -8804921.08346  23229926.6724   23229919.5984
        43.5004         41.0004
  -4996800.07046  -3879098.10545  24096947.0164   24096944.5354
        38.5004         34.2504
 20  5  2  1 40  0.0000000  0 10G23G16G27G 4G22G 9G 3G26G 7G 8
 -19597587.71048 -15258255.49546  20943160.4844   20943150.7344
        48.2504         38.0004
 -23196391.32748 -17913835.52246  20789299.9614   20789291.8634
        48.5004         38.5004
 -11602708.72247  -9020870.47246  23047668.3284   23047663.1884
        43.5004         40.5004
 -27220880.73147 -21170211.60446  20269649.6884   20269643.8754
        47.2504         41.5004
  26436786.96846  20437404.45542  25569404.7814   25569397.7544
        36.7504         17.2504
 -24867828.98348 -19345465.74148  20901371.6954   20901366.2934
        49.2504         52.0004
  -8528873.31846  -6630564.91246  23681685.3204   23681681.1604
        40.5004         36.2504
 -10198225.78547  -7916084.84246  23117296.4614   23117292.4574
        42.0004         38.2504
 -11454564.91447  -8858661.80146  23216802.5314   23216795.5004
        43.5004         41.0004
  -5097679.45746  -3957705.36645  24077750.6094   24077747.0084
        38.7504         33.5004
 20  5  2  1 40 30.0000000  0 10G23G16G27G 4G22G 9G 3G26G 7G 8
 -19647322.35447 -15297009.76646  20933696.4534   20933686.9844
        47.7504         37.7504
 -23145979.32048 -17874553.43946  20798892.8444   20798885.3594
        48.0004         38.5004
 -11679594.71147  -9080781.63546  23033036.6094   23033032.7504
        42.0004         40.5004
 -27206951.90247 -21159357.97746  20272300.6094   20272294.2934
        47.0004         41.5004
                                  25588734.602
        26.750
 -24920880.80848 -19386804.83848  20891276.3834   20891270.9264
        48.0004         52.0004
  -8422148.42146  -6547402.68946  23701994.2424   23701990.3554
        40.2504         36.2504
 -10102035.82846  -7841131.66346  23135600.8984   23135596.9654
        41.2504         38.0004
 -11523419.13747  -8912314.42646  23203699.6884   23203693.1954
        44.5004         41.0004
  -5198495.62746  -4036263.39045  24058567.2734   24058562.8204
        40.0004         35.0004
 20  5  2  1 41  0.0000000  0  9G23G16G27G 4G 9G 3G26G 7G 8
 -19696709.96647 -15335493.62946  20924298.1884   20924288.8984
        47.7504         38.0004
 -23095019.02948 -17834844.12646  20808590.4304   20808582.3204
        48.2504         37.7504
 -11756125.01647  -9140415.59546  23018473.6954   23018469.5394
        43.0004         41.0004
 -27192563.93347 -21148146.57746  20275038.4144   20275032.5164
        47.0004         41.5004
 -24973559.61848 -19427853.26948  20881252.1334   20881246.6134
        48.0004         52.0004
  -8315327.61046  -6464165.74746  23722321.1884   23722317.8164
        40.5004         36.2504
 -10005635.69347  -7766014.71246  23153945.3674   23153941.4694
        42.0004         38.0004
 -11592169.63847  -8965886.23146  23190617.3914   23190610.6484
        45.0004         41.0004
  -5299255.16246  -4114777.30545  24039392.3984   24039389.4614
        39.7504         35.2504
 20  5  2  1 41 30.0000000  0  9G23G16G27G 4G 9G 3G26G 7G 8
 -19745742.96648 -15373701.16646  20914967.4144   20914958.1954
        49.0004         38.0004
 -23043507.57448 -17794705.33546  20818393.1174   20818384.8444
        48.5004         38.0004
 -11832290.97547  -9199765.66546  23003979.1954   23003975.5864
        42.0004         40.5004
 -27177710.94148 -21136572.82546  20277865.1254   20277858.8524
        48.2504         41.5004
 -25025858.06248 -19468605.31648  20871299.7814   20871294.5664
        49.0004         52.0004
  -8208408.53546  -6380852.24046  23742668.6174   23742663.8164
        41.5004         36.2504
  -9909022.59347  -7690731.82346  23172330.1094   23172326.0044
        42.0004         37.7504
 -11660811.09747  -9019373.06846  23177555.4384   23177548.4414
        45.0004         41.0004
  -5399949.73246  -4193240.57145  24020231.4384   24020226.8754
        39.2504         33.2504
 20  5  2  1 42  0.0000000  0  9G23G16G27G 4G 9G 3G26G 7G 8
 -19794421.49948 -15411632.49946  20905704.3054   20905695.0044
        49.2504         38.0004
 -22991449.26148 -17754140.42646  20828298.9534   20828291.0744
        48.5004         38.0004
 -11908091.27847  -9258830.79946  22989555.1954   22989551.1414
        42.2504         40.7504
 -27162394.30647 -21124637.79046  20280779.7424   20280773.3164
        47.0004         41.5004
 -25077776.01148 -19509060.86548  20861420.2194   20861415.0234
        49.5004         52.0004
  -8101395.86546  -6297465.80046  23763032.2274   23763028.3634
        41.2504         37.2504
  -9812200.89046  -7615286.37046  23190754.6954   23190751.1994
        40.7504         38.0004
 -11729345.23447  -9072776.27446  23164513.3984   23164506.7114
        43.2504         40.5004
  -5500577.45746  -4271651.75445  24001081.9614   24001077.7034
        39.0004         33.0004
 20  5  2  1 42 30.0000000  0  9G23G16G27G 4G 9G 3G26G 7G 8
 -19842739.67448 -15449283.02546  20896509.9064   20896500.2774
        49.0004         38.0004
 -22938842.73748 -17713148.33446  20838309.7894   20838301.6764
        48.5004         38.2504
 -11983518.91947  -9317605.55246  22975201.1414   22975197.9454
        42.2504         41.5004
 -27146609.78847 -21112338.18646  20283783.7114   20283776.8674
        47.2504         41.2504
 -25129307.71948 -19549215.44448  20851614.0164   20851608.4964
        49.5004         52.0004
  -7994288.96846  -6214005.93546  23783413.6254   23783409.9574
        40.7504         36.2504
  -9715169.38346  -7539677.44646  23209219.5004   23209214.9304
        40.7504         37.7504
 -11797767.86547  -9126092.58846  23151492.9534   23151486.5084
        43.5004         41.0004
  -5601131.75846  -4350005.75645  23981946.0394   23981943.5124
        36.7504         33.5004
 20  5  2  1 43  0.0000000  0  9G23G16G27G 4G 9G 3G26G 7G 8
 -19890699.29848 -15486654.16746  20887383.3204   20887373.9304
        48.7504         38.2504
 -22885693.80847 -17671733.59746  20848423.5634   20848415.9494
        47.7504         38.0004
 -12058574.30647  -9376090.22647  22960920.1954   22960915.4804
        43.2504         42.0004
 -27130360.51447 -21099676.42146  20286875.6564   20286869.1334
        47.5004         41.2504
 -25180454.83048 -19589070.33748  20841880.9144   20841875.6134
        49.0004         52.0004
  -7887094.28146  -6130477.65445  23803811.1644   23803808.2814
        39.7504         35.7504
  -9617934.15547  -7463909.78346  23227722.9304   23227718.8834
        42.0004         37.5004
 -11866082.64247  -9179324.86246  23138493.1414   23138486.4064
        43.2504         40.5004
  -5701612.85646  -4428302.65545  23962826.4064   23962823.0554
        38.2504         33.5004
 20  5  2  1 43 30.0000000  0  9G23G16G27G 4G 9G 3G26G 7G 8
 -19938296.67548 -15523743.03346  20878325.7504   20878316.3674
        49.7504         38.5004
 -22832003.52648 -17629897.02546  20858640.4694   20858632.5354
        48.0004         37.7504
 -12133252.72747  -9434281.16746  22946708.4454   22946704.7304
        42.5004         41.5004
 -27113644.42647 -21086650.92046  20290056.2894   20290050.3094
        47.5004         41.2504
 -25231213.77948 -19628622.76048  20832221.9454   20832216.4884
        49.2504         52.2504
  -7779813.16646  -6046882.04845  23824225.5784   23824222.9224
        38.7504         35.0004
  -9520496.25446  -7387984.16646  23246263.8984   23246260.6484
        41.0004         37.0004
 -11934288.36647  -9232472.16646  23125514.4844   23125507.0784
        43.5004         40.7504
  -5802016.34946  -4506539.13545  23943719.4064   23943716.5864
        38.0004         34.0004
 20  5  2  1 44  0.0000000  0  9G23G16G27G 4G 9G 3G26G 7G 8
 -19985530.39948 -15560548.53746  20869337.4224   20869328.5084
        48.7504         38.0004
 -22777774.80947 -17587640.89546  20868960.0634   20868952.0004
        47.7504         38.0004
 -12207551.40547  -9492176.22646  22932569.1884   22932565.8554
        42.5004         41.5004
 -27096461.58647 -21073261.70346  20293326.6954   20293320.2704
        47.7504         41.5004
 -25281583.11048 -19667871.59348  20822636.8134   20822631.6724
        49.7504         52.2504
  -7672449.06346  -5963221.75445  23844656.1094   23844653.4064
        40.0004         35.0004
  -9422858.51646  -7311902.85346  23264844.6174   23264840.9304
        41.0004         37.0004
 -12002385.03247  -9285534.49046  23112555.9454   23112548.7304
        43.7504         40.7504
  -5902339.80546  -4584713.22145  23924628.6954   23924626.6804
        38.2504         35.5004
 20  5  2  1 44 30.0000000  0  9G23G16G27G 4G 9G 3G26G 7G 8
 -20032398.14948 -15597068.87246  20860419.0084   20860409.6174
        49.0004         38.0004
 -22723009.58747 -17544966.70246  20879381.6414   20879373.0704
        47.7504         37.5004
 -12281466.91847  -9549772.69546  22918505.0004   22918500.0314
        43.2504         41.0004
 -27078811.33147 -21059508.28046  20296684.8594   20296678.8634
        47.5004         41.5004
 -25331560.60848 -19706815.10248  20813126.5314   20813121.0354
        49.7504         52.5004
  -7565004.67146  -5879498.91045  23865103.0394   23865099.4614
        40.7504         35.5004
  -9325023.21146  -7235667.59546  23283461.5704   23283457.6174
        41.0004         36.5004
 -12070372.33347  -9338511.59946  23099617.7734   23099610.9964
        43.7504         41.0004
  -6002579.52746  -4662822.05345  23905553.7114   23905550.4534
        40.0004         35.2504
 20  5  2  1 45  0.0000000  0  9G23G16G27G 4G 9G 3G26G 7G 8
 -20078898.37048 -15633302.81246  20851570.1644   20851560.7704
        49.5004         38.0004
 -22667710.24047 -17501876.30746  20889904.6024   20889896.3554
        47.2504         37.5004
 -12354996.41247  -9607068.39846  22904512.2194   22904507.6994
        43.5004         40.7504
 -27060693.46947 -21045390.48846  20300132.7814   20300126.6024
        47.0004         41.2504
 -25381144.53848 -19745451.93748  20803690.9774   20803685.7774
        50.0004         52.5004
  -7457483.12646  -5795715.93746  23885563.7034   23885560.9614
        40.2504         36.0004
  -9226993.22446  -7159280.62846  23302115.8914   23302112.3404
        40.7504         37.2504
 -12138250.44147  -9391403.62146  23086701.6414   23086694.3014
        44.0004         41.2504
  -6102732.31446  -4740863.16746  23886494.7194   23886492.8914
        39.0004         36.0004
 20  5  2  1 45 30.0000000  0  9G23G16G27G 4G 9G 3G26G 7G 8
 -20125029.65548 -15669249.27146  20842791.5864   20842782.3984
        49.5004         38.2504
 -22611880.95647 -17458372.97146  20900528.6174   20900520.1724
        47.2504         37.5004
 -12428137.37047  -9664061.33046  22890594.2664   22890589.7544
        43.5004         41.2504
 -27042108.34647 -21030908.59246  20303669.6094   20303663.3914
        47.2504         41.0004
 -25430333.65748 -19783781.12048  20794330.6024   20794325.4264
        49.5004         52.5004
  -7349888.09146  -5711875.69745  23906039.9614   23906035.2704
        40.5004         35.5004
  -9128771.62846  -7082744.36046  23320807.3134   23320803.1294
        41.2504         36.0004
 -12206020.01547  -9444211.07046  23073805.2974   23073798.4384
        44.0004         41.5004
  -6202796.37846  -4818835.13545  23867453.6724   23867450.4224
        39.2504         35.0004
 20  5  2  1 46  0.0000000  0  9G23G16G27G 4G 9G 3G26G 7G 8
 -20170786.41347 -15704903.89246  20834084.5864   20834075.3634
        47.5004         38.0004
 -22555519.97747 -17414455.33846  20911253.7114   20911245.6724
        47.2504         37.2504
 -12500883.04047  -9720746.23847  22876751.5394   22876747.2774
        43.0004         42.0004
 -27023051.82847 -21016059.37946  20307295.7344   20307289.7384
        46.7504         41.0004
 -25479122.32848 -19821798.26348  20785046.4224   20785041.2234
        48.0004         52.5004
  -7242218.70646  -5627977.52345  23926527.4844   23926524.4734
        39.7504         35.7504
  -9030357.24846  -7006057.86546  23339534.8594   23339531.3834
        41.0004         36.7504
 -12273677.07947  -9496930.84247  23060931.1094   23060923.6414
        43.7504         42.0004
  -6302764.26746  -4896732.16945  23848430.8984   23848425.4804
        39.2504         34.0004
 20  5  2  1 46 30.0000000  0 10G23G16G27G30G 4G 9G 3G26G 7G 8
 -20216170.38947 -15740268.03246  20825448.3444   20825438.9144
        47.5004         38.2504
 -22498633.56047 -17370128.26446  20922078.8674   20922071.1564
        47.5004         37.5004
 -12573233.83947  -9777123.47246  22862983.3284   22862979.0314
        43.0004         41.7504
    637649.75755    507864.19754  25662610.6644   25662606.6804
        34.7504         28.5004
 -27003527.21747 -21000845.41846  20311010.9064   20311004.8954
        47.0004         41.0004
 -25527512.27348 -19859504.70948  20775838.2814   20775832.6684
        48.2504         52.5004
  -7134481.72046  -5544026.68345  23947030.3754   23947026.1994
        40.0004         35.7504
  -8931756.26746  -6929225.97446  23358298.6884   23358294.5904
        40.7504         36.7504
 -12341225.72647  -9549566.12547  23048076.5004   23048069.7234
        44.0004         42.0004
  -6402636.69346  -4974554.76745  23829425.5394   23829422.9774
        39.0004         34.2504
 20  5  2  1 47  0.0000000  0 10G23G16G27G30G 4G 9G 3G26G 7G 8
 -20261185.60148 -15775344.82246  20816882.1644   20816872.6294
        49.2504         38.0004
 -22441229.92548 -17325398.17146  20933002.5474   20932994.8594
        48.0004         37.2504
 -12645192.54147  -9833195.16647  22849290.2344   22849285.8324
        44.5004         42.0004
    551280.56545    440563.45944  25646174.8444   25646170.6954
        35.5004         25.0004
 -26983540.01747 -20985270.98746  20314814.7114   20314808.6484
        47.0004         40.7504
 -25575507.35048 -19896903.47548  20766705.3444   20766699.7854
        49.7504         52.5004
  -7026685.75046  -5460029.88345  23967543.0554   23967539.3984
        39.5004         34.7504
  -8832976.91146  -6852255.09446  23377095.7664   23377091.2814
        41.2504         36.5004
 -12408671.04947  -9602120.91947  23035241.8984   23035235.3014
        44.2504         42.0004
  -6502416.32246  -5052305.13245  23810438.3674   23810434.4104
        40.0004         35.0004
 20  5  2  1 47 30.0000000  0 10G23G16G27G30G 4G 9G 3G26G 7G 8
 -20305816.10348 -15810121.83946  20808389.0784   20808379.7894
        49.0004         38.2504
 -22383297.61847 -17280256.12346  20944026.5704   20944018.7664
        47.5004         37.2504
 -12716742.14647  -9888948.09446  22835674.2504   22835669.6214
        43.0004         41.5004
    464941.90345    373286.49544  25629744.8834   25629741.2504
        34.7504         24.0004
 -26963076.04747 -20969325.05546  20318709.0704   20318702.9574
        46.5004         41.0004
 -25623091.81648 -19933982.28748  20757650.1564   20757644.4494
        49.0004         52.5004
  -6918819.84846  -5375978.60845  23988069.0944   23988065.2274
        39.7504         34.7504
  -8734007.96746  -6775136.46746  23395928.1174   23395924.5274
        41.2504         37.2504
 -12475999.43947  -9654584.59146  23022429.9614   23022423.0904
        44.0004         41.5004
  -6602086.21846  -5129970.00345  23791471.8594   23791468.8984
        40.5004         35.5004
 20  5  2  1 48  0.0000000  0 10G23G16G27G30G 4G 9G 3G26G 7G 8
 -20350068.02448 -15844603.86046  20799968.6254   20799959.4614
        49.0004         38.2504
 -22324847.67247 -17234710.71646  20955149.1884   20955141.4184
        47.5004         37.7504
 -12787887.65847  -9944386.14646  22822135.6024   22822131.5354
        42.5004         41.5004
    378626.18845    306027.44944  25613320.0704   25613315.9304
        33.5004         26.5004
 -26942143.02447 -20953013.62646  20322692.3284   20322686.2114
        46.2504         41.0004
 -25670271.82148 -19970745.93048  20748671.9844   20748666.6994
        49.5004         52.5004
  -6810895.05746  -5291881.42845  24008607.5474   24008602.5434
        40.7504         34.5004
  -8634859.84046  -6697878.23946  23414795.7424   23414791.9494
        41.2504         36.7504
 -12543218.81647  -9706963.31046  23009638.0554   23009631.7974
        44.2504         41.7504
  -6701651.07346  -5207552.98845  23772525.4774   23772520.0744
        40.0004         35.0004
 20  5  2  1 48 30.0000000  0 10G23G16G27G30G 4G 9G 3G26G 7G 8
 -20393935.96847 -15878786.68046  20791620.3134   20791610.8594
        47.5004         38.5004
 -22265878.75747 -17188760.93546  20966370.5554   20966362.9024
        47.7504         37.5004
 -12858622.32747  -9999504.04947  22808675.6884   22808671.2504
        42.7504         42.0004
    292336.97346    238789.07944  25596898.7584   25596895.2504
        36.2504         27.0004
 -26920737.01247 -20936333.63846  20326765.6414   20326759.3954
        46.7504         40.7504
 -25717041.76448 -20007190.04948  20739771.8674   20739766.4184
        48.0004         52.5004
  -6702910.66946  -5207737.75545  24029153.5864   24029151.4534
        38.5004         34.2504
  -8535531.42146  -6620479.49746  23433697.5314   23433693.9924
        40.7504         36.2504
 -12610325.35747  -9759254.11146  22996868.8054   22996861.9924
        44.0004         41.7504
  -6801104.30346  -5285048.99145  23753600.1884   23753596.1804
        41.0004         35.7504
 20  5  2  1 49  0.0000000  0 10G23G16G27G30G 4G 9G 3G26G 7G 8
 -20437421.68947 -15912671.66046  20783345.4844   20783335.8204
        47.7504         38.5004
 -22206397.11947 -17142411.62446  20977689.8054   20977682.2274
        47.0004         37.5004
 -12928946.66747 -10054302.23046  22795293.4304   22795288.6094
        43.2504         41.7504
    206071.01146    171568.79444  25580483.0164   25580479.4264
        36.2504         24.0004
 -26898861.32447 -20919287.66646  20330928.6644   20330922.1804
        46.0004         40.7504
 -25763403.42548 -20043316.01248  20730949.5474   20730944.0904
        48.2504         52.5004
  -6594873.13246  -5123552.71645  24049714.7344   24049710.2344
        40.7504         34.2504
  -8436028.75246  -6542944.99546  23452632.2814   23452628.4654
        41.2504         36.7504
 -12677322.49247  -9811459.65047  22984119.6484   22984112.4534
        45.0004         42.5004
  -6900446.33446  -5362458.32446  23734695.7504   23734691.7154
        39.7504         36.0004
 20  5  2  1 49 30.0000000  0 10G23G16G27G30G 4G 9G 3G26G 7G 8
 -20480521.33348 -15946255.80246  20775143.9384   20775134.8484
        49.7504         38.0004
 -22146403.84748 -17095663.63546  20989106.1174   20989097.8554
        48.2504         37.7504
 -12998856.08547 -10108777.09146  22781989.5704   22781985.7344
        42.7504         41.5004
    119829.83845    104367.73544  25564071.9224   25564068.5164
        35.5004         26.0004
 -26876514.12947 -20901874.28546  20335180.9224   20335175.2814
        46.5004         41.0004
 -25809353.27448 -20079121.09048  20722205.7814   20722200.3634
        50.0004         52.5004
  -6486783.82346  -5039327.32245  24070283.6174   24070279.2734
        40.2504         34.5004
  -8336352.73647  -6465275.41746  23471599.8054   23471596.4454
        42.0004         36.2504
 -12744208.79647  -9863578.83147  22971391.4534   22971384.2274
        44.2504         42.2504
  -6999672.22246  -5439777.20846  23715813.7504   23715810.0474
        40.5004         36.5004
 20  5  2  1 50  0.0000000  0 10G23G16G27G30G 4G 9G 3G26G 7G 8
 -20523233.34148 -15979537.89746  20767016.1334   20767006.7344
        48.0004         38.7504
 -22085901.51147 -17048518.97746  21000619.1254   21000611.4534
        47.7504         37.7504
 -13068347.56747 -10162926.28846  22768765.5634   22768761.3834
        42.7504         41.7504
     33613.68245     37186.22944  25547666.0084   25547662.7274
        35.0004         25.7504
 -26853695.23147 -20884093.33646  20339523.5314   20339517.6374
        46.5004         41.0004
 -25854889.54748 -20114603.90948  20713540.3364   20713534.9454
        49.0004         52.5004
  -6378645.72346  -4955063.89045  24090860.0704   24090857.2624
        39.0004         33.5004
  -8236505.91246  -6387472.74846  23490600.3444   23490596.2584
        41.7504         36.2504
 -12810984.36347  -9915611.70047  22958684.5634   22958677.2114
        45.0004         42.0004
  -7098778.90046  -5517003.16345  23696954.0314   23696950.7774
        39.5004         35.5004
 20  5  2  1 50 30.0000000  0 10G23G16G27G30G 4G 9G 3G26G 7G 8
 -20565557.76148 -16012517.96946  20758961.7974   20758952.6804
        48.7504         38.5004
 -22024894.32147 -17000980.92446  21012228.2424   21012220.6954
        47.5004         37.0004
 -13137419.81047 -10216748.80747  22755621.6724   22755617.3404
        42.7504         42.0004
    -52579.13346    -29977.03944  25531263.9454   25531260.2584
        36.2504         26.2504
 -26830406.14947 -20865946.02246  20343955.2504   20343948.8834
        46.5004         41.0004
 -25900012.01748 -20149764.28048  20704953.8284   20704948.1414
        49.7504         52.7504
  -6270463.39146  -4870766.01345  24111446.1174   24111443.6214
        39.0004         34.2504
  -8136492.41246  -6309540.19745  23509631.3524   23509628.3404
        40.5004         35.7504
 -12877650.19947  -9967559.08247  22945998.8204   22945991.3954
        44.5004         42.0004
  -7197764.52346  -5594134.84246  23678117.0474   23678114.8674
        39.0004         36.0004
 20  5  2  1 51  0.0000000  0 10G23G16G27G30G 4G 9G 3G26G 7G 8
 -20607487.99148 -16045190.88446  20750983.3054   20750973.5394
        49.5004         38.7504
 -21963380.80347 -16953048.32846  21023933.9844   21023926.5824
        47.0004         37.2504
 -13206065.54047 -10270238.96847  22742558.7274   22742554.9494
        43.0004         42.0004
   -138744.04246    -97118.62244  25514867.8914   25514863.9574
        36.5004         28.5004
 -26806642.30047 -20847428.75346  20348477.3444   20348470.9654
        46.5004         40.5004
 -25944714.53748 -20184597.41548  20696447.3914   20696441.7424
        50.0004         52.7504
  -6162235.47446  -4786432.65945  24132043.2424   24132038.8914
        39.5004         34.0004
  -8036310.37746  -6231476.31445  23528696.6174   23528692.1804
        41.5004         35.7504
 -12944202.10147 -10019417.69447  22933334.4614   22933326.8524
        44.5004         42.5004
  -7296622.13446  -5671166.71245  23659305.9774   23659300.2424
        39.0004         33.5004
 20  5  2  1 51 30.0000000  0 10G23G16G27G30G 4G 9G 3G26G 7G 8
 -20649026.19248 -16077558.31546  20743078.7504   20743069.1604
        48.7504         38.5004
 -21901367.73347 -16904726.46746  21035735.3754   21035727.2074
        47.7504         36.7504
 -13274285.68547 -10323397.49847  22729577.2584   22729573.3524
        43.0004         42.0004
   -224884.79946   -164241.32144  25498474.9694   25498472.1914
        36.2504         25.5004
 -26782407.54147 -20828544.54346  20353089.0314   20353082.8634
        46.5004         40.7504
 -25988999.22948 -20219104.98148  20688020.1174   20688015.2704
        50.7504         53.0004
  -6053968.92346  -4702069.13945  24152645.2734   24152641.7344
        40.0004         34.0004
  -7935966.30347  -6153286.16246  23547790.8984   23547786.9024
        42.0004         36.0004
 -13010644.10147 -10071190.67447  22920690.4384   22920683.0904
        44.2504         42.2504
  -7395352.65546  -5748099.50845  23640517.2504   23640514.7154
        40.0004         35.5004
 20  5  2  1 52  0.0000000  0 10G23G16G27G30G 4G 9G 3G26G 7G 8
 -20690168.84748 -16109617.53646  20735249.5164   20735239.7344
        49.2504         39.0004
 -21838856.06647 -16856016.09046  21047630.2504   21047622.4804
        47.7504         37.0004
 -13342075.77147 -10376220.91847  22716677.2664   22716672.8674
        43.0004         42.0004
   -310999.92445   -231344.10644  25482089.1644   25482084.9694
        35.7504         26.7504
 -26757700.13847 -20809292.03346  20357790.7504   20357784.7894
        46.2504         40.5004
 -26032862.73448 -20253284.34048  20679673.3524   20679667.8554
        50.2504         53.0004
  -5945665.01546  -4617676.52945  24173253.9774   24173251.0474
        39.2504         34.0004
  -7835461.11246  -6074970.46045  23566915.9064   23566912.5204
        40.7504         35.0004
 -13076974.57947 -10122876.74147  22908068.0164   22908061.0864
        44.7504         42.0004
  -7493950.81846  -5824929.27046  23621754.7344   23621751.4884
        40.0004         36.5004
 20  5  2  1 52 30.0000000  0 10G23G16G27G30G 4G 9G 3G26G 7G 8
 -20730914.28148 -16141367.23746  20727495.8674   20727486.2544
        49.5004         39.0004
 -21775848.17848 -16806919.04646  21059620.2504   21059612.5704
        48.0004         36.5004
 -13409432.47947 -10428706.65647  22703859.6724   22703854.7154
        43.5004         42.5004
   -397088.73146   -298426.36945  25465707.3204   25465703.2424
        37.5004         30.0004
 -26732519.61847 -20789670.87146  20362582.6484   20362576.2704
        46.2504         40.7504
 -26076302.87048 -20287133.80248  20671406.8674   20671401.6914
        50.0004         53.0004
  -5837326.45746  -4533256.91345  24193870.8364   24193867.2234
        38.7504         34.5004
  -7734796.84946  -5996530.83745  23586073.0164   23586068.3364
        41.7504         35.7504
 -13143193.36347 -10174475.77747  22895466.7584   22895460.0864
        44.0004         42.5004
  -7592413.97946  -5901653.78746  23603018.3134   23603015.6884
        40.0004         37.0004
 20  5  2  1 53  0.0000000  0 10G23G16G27G30G 4G 9G 3G26G 7G 8
 -20771260.70047 -16172806.01546  20719817.8284   20719808.5784
        47.7504         38.2504
 -21712346.99447 -16757437.62446  21071704.7344   21071696.2894
        47.7504         37.0004
 -13476353.17747 -10480852.64847  22691125.3754   22691120.9384
        44.2504         42.2504
   -483151.55146   -365488.40744  25449330.1484   25449325.6294
        36.7504         28.2504
 -26706866.12047 -20769681.15146  20367464.1644   20367457.9304
        46.2504         40.2504
 -26119318.13548 -20320652.19448  20663221.3984   20663215.7934
        48.2504         53.0004
  -5728956.25546  -4448812.63445  24214490.8054   24214489.3054
        37.5004         34.2504
  -7633976.36147  -5917969.45445  23605258.9534   23605253.8754
        42.0004         35.5004
 -13209300.61847 -10225987.90847  22882886.7424   22882880.2704
        44.5004         42.0004
  -7690738.29446  -5978270.16146  23584307.3204   23584305.4064
        39.2504         36.7504
 20  5  2  1 53 30.0000000  0 10G23G16G27G30G 4G 9G 3G26G 7G 8
 -20811206.14047 -16203932.34446  20712216.6804   20712207.2304
        47.7504         39.0004
 -21648355.26347 -16707573.95346  21083881.8444   21083873.5514
        47.7504         36.5004
 -13542834.93947 -10532656.60447  22678473.9774   22678469.7154
        43.2504         42.2504
   -569188.06845   -432529.88043  25432956.8284   25432953.7074
        31.7504         22.7504
 -26680739.51647 -20749322.77746  20372435.8364   20372429.6564
        46.2504         40.5004
 -26161906.70248 -20353838.09948  20655117.0784   20655111.6134
        48.2504         53.2504
  -5620557.54746  -4364346.17745  24235120.8284   24235116.5904
        40.5004         33.0004
  -7533002.03846  -5839288.19745  23624473.1414   23624469.3524
        41.0004         35.5004
 -13275296.21347 -10277413.03047  22870328.3284   22870321.8954
        44.0004         42.2504
  -7788921.23946  -6054776.28746  23565623.9224   23565619.8244
        39.7504         36.0004
 20  5  2  1 54  0.0000000  0 10G23G16G27G30G 4G 9G 3G26G 7G 8
 -20850748.71448 -16234744.74046  20704692.2584   20704682.7894
        48.5004         38.5004
 -21583875.55048 -16657330.02846  21096152.0704   21096143.7974
        48.2504         37.2504
 -13608874.58847 -10584116.05447  22665906.4614   22665902.5044
        43.2504         42.5004
   -655198.09945   -499550.66644  25416590.0704   25416587.0084
        35.5004         28.2504
 -26654139.50047 -20728595.50846  20377497.6724   20377491.5044
        46.0004         40.5004
 -26204066.52048 -20386689.90248  20647094.0164   20647088.6724
        50.0004         53.0004
  -5512132.82146  -4279859.41245  24255753.4064   24255748.7384
        41.2504         33.5004
  -7431876.02946  -5760488.74145  23643715.0634   23643713.1884
        40.2504         34.7504
 -13341179.39647 -10328750.56647  22857791.5704   22857784.3634
        44.5004         42.5004
  -7886959.01446  -6131169.30346  23546967.7584   23546964.4184
        39.7504         36.0004
 20  5  2  1 54 30.0000000  0 10G23G16G27G30G 4G 9G 3G26G 7G 8
 -20889887.55948 -16265242.55146  20697244.0944   20697234.5084
        48.7504         39.0004
 -21518911.31548 -16606708.56246  21108513.8364   21108505.8094
        48.0004         36.2504
 -13674470.14547 -10635229.44447  22653424.2814   22653420.2234
        43.5004         42.5004
   -741182.18346   -566551.39644  25400228.7274   25400224.3164
        36.5004         29.0004
 -26627066.86847 -20707499.96746  20382649.2114   20382643.6564
        46.0004         40.2504
 -26245796.71948 -20419206.95748  20639153.2584   20639148.0634
        50.0004         53.2504
  -5403686.00546  -4195355.42645  24276388.9454   24276386.0944
        39.0004         33.0004
  -7330601.72247  -5681573.76046  23662987.8984   23662984.6914
        42.5004         36.0004
 -13406951.17647 -10380001.28347  22845275.4694   22845268.7304
        44.2504         42.7504
  -7984849.68546  -6207447.70046  23528339.8284   23528337.9924
        40.0004         37.2504
 20  5  2  1 55  0.0000000  0 10G23G16G27G30G 4G 9G 3G26G 7G 8
 -20928617.20547 -16295421.49846  20689874.1724   20689864.5394
        47.7504         38.5004
 -21453461.77448 -16555708.94246  21120968.7504   21120960.9064
        48.7504         36.7504
 -13739615.23047 -10685991.82547  22641027.9614   22641023.6644
        43.2504         42.5004
   -827136.79545   -633529.02844  25383870.7114   25383868.2774
        34.7504         28.0004
 -26599518.06547 -20686033.37046  20387891.7194   20387885.6524
        46.0004         40.5004
 -26287092.01548 -20451385.10548  20631295.0164   20631289.9104
        48.2504         53.2504
  -5295216.38746  -4110833.69045  24297031.0164   24297026.8094
        39.0004         32.7504
  -7229178.08347  -5602542.40045  23682289.6174   23682284.5704
        42.7504         35.5004
 -13472608.33147 -10431162.68847  22832781.3364   22832774.1334
        44.5004         42.7504
  -8082586.74846  -6283606.40146  23509741.4064   23509738.5474
        40.2504         38.0004
 20  5  2  1 55 30.0000000  0 10G23G16G27G30G 4G 9G 3G26G 7G 8
 -20966939.78048 -16325283.24846  20682581.3914   20682572.3754
        48.5004         38.7504
 -21387533.82748 -16504336.52846  21133514.3834   21133506.5594
        48.0004         36.0004
 -13804310.63847 -10736403.81447  22628717.0944   22628712.3324
        43.7504         42.5004
   -913065.48546   -700486.51044  25367520.4144   25367515.6764
        37.0004         29.5004
 -26571496.73347 -20664198.58046  20393223.8674   20393217.5554
        46.0004         40.0004
 -26327954.30348 -20483225.85348  20623519.3674   20623514.0474
        50.0004         53.0004
  -5186730.64946  -4026299.39945  24317675.5164   24317671.1844
        40.5004         32.5004
  -7127611.09646  -5523399.33545  23701616.3364   23701612.6564
        41.5004         35.0004
 -13538154.08347 -10482237.29447  22820308.8834   22820301.3714
        45.0004         43.0004
  -8180170.47446  -6359645.60545  23491171.6094   23491167.5864
        39.7504         35.7504
 20  5  2  1 56  0.0000000  0 10G23G16G27G30G 4G 9G 3G26G 7G 8
 -21004851.79348 -16354825.08846  20675367.4224   20675357.6214
        48.7504         38.7504
 -21321128.61848 -16452592.23446  21146150.8204   21146143.0314
        48.5004         37.2504
 -13868552.14847 -10786462.11947  22616491.6174   22616487.5354
        44.0004         43.0004
   -998966.69946   -767422.58544  25351173.8984   25351169.4344
        36.0004         27.5004
 -26543001.42447 -20641994.45346  20398646.6094   20398640.5704
        46.5004         40.2504
 -26368380.43948 -20514726.74948  20615826.3834   20615820.7974
        49.5004         53.0004
  -5078230.23646  -3941753.64245  24338320.5164   24338319.2034
        36.5004         32.5004
  -7025901.85346  -5444145.43445  23720970.6484   23720966.7274
        40.5004         34.2504
 -13603587.08247 -10533224.03747  22807857.0394   22807849.8364
        45.5004         43.2504
  -8277596.08846  -6435561.63346  23472632.1484   23472628.1484
        41.0004         37.0004
 20  5  2  1 56 30.0000000  0 10G23G16G27G30G 4G 9G 3G26G 7G 8
 -21042351.45048 -16384045.60946  20668231.1414   20668221.5204
        48.2504         39.0004
 -21254248.28048 -16400477.70446  21158877.9384   21158869.9964
        48.5004         36.0004
 -13932336.59847 -10836164.26147  22604354.5784   22604349.9064
        44.5004         42.7504
  -1084840.00746   -834336.85044  25334832.4614   25334829.0164
        37.5004         29.5004
 -26514031.86547 -20619420.78246  20404159.0164   20404153.1134
        46.5004         40.0004
 -26408368.36748 -20545886.17848  20608216.7894   20608211.7114
        49.7504         53.0004
  -4969717.69246  -3857198.46645  24358970.6254   24358968.1054
        38.7504         33.5004
  -6924052.53046  -5364782.35945  23740351.4614   23740348.0084
        40.2504         35.0004
 -13668907.10847 -10584122.75147  22795426.9144   22795420.0824
        44.2504         42.7504
  -8374860.62346  -6511352.11246  23454123.1954   23454120.3794
        40.0004         36.7504
 20  5  2  1 57  0.0000000  0 10G23G16G27G30G 4G 9G 3G26G 7G 8
 -21079437.94748 -16412944.18946  20661173.8594   20661164.3204
        48.5004         38.7504
 -21186897.18848 -16347996.34546  21171694.5314   21171686.4964
        48.7504         37.0004
 -13995662.40547 -10885509.02947  22592304.0314   22592299.2544
        43.7504         42.2504
  -1170686.51546   -901230.37544  25318496.1884   25318492.7894
        36.5004         28.5004
 -26484589.22547 -20596478.47846  20409761.8524   20409755.4924
        46.2504         40.2504
 -26447917.53448 -20576703.72048  20600690.9224   20600685.5704
        49.5004         53.0004
  -4861197.17646  -3772637.09145  24379621.5634   24379619.0164
        38.0004         33.0004
  -6822066.68246  -5285312.92245  23759758.9064   23759756.0004
        40.7504         34.5004
 -13734115.11647 -10634934.16547  22783018.8524   22783011.4924
        44.2504         42.7504
  -8471961.71846  -6587015.28446  23435645.7034   23435641.9384
        40.5004         36.5004
 20  5  2  1 57 30.0000000  0 10G23G16G27G30G 4G 9G 3G26G 7G 8
 -21116105.97348 -16441516.68446  20654196.2424   20654186.4414
        48.2504         39.0004
 -21119074.40348 -16295147.45046  21184600.6334   21184592.8364
        48.0004         36.5004
 -14058523.08847 -10934491.36447  22580341.4144   22580336.8754
        43.2504         42.2504
  -1256502.50646   -968099.97944  25302166.1804   25302162.1684
        36.5004         29.2504
 -26454669.95347 -20573164.77346  20415455.4384   20415449.3524
        46.0004         40.2504
 -26487022.62948 -20607175.22548  20593249.3984   20593244.3794
        49.2504         53.0004
  -4752668.01346  -3688068.96045  24400274.8674   24400271.8524
        39.0004         33.7504
  -6719943.12146  -5205736.15445  23779193.2664   23779189.2504
        40.5004         34.2504
 -13799207.50547 -10685655.49947  22770631.4224   22770624.3014
        44.5004         42.7504
  -8568892.47246  -6662545.70346  23417200.3134   23417197.1914
        39.5004         36.7504
 20  5  2  1 58  0.0000000  0 10G23G16G27G30G 4G 9G 3G26G 7G 8
 -21152357.39848 -16469764.56446  20647297.8134   20647288.3094
        48.5004         38.7504
 -21050786.28548 -16241935.95346  21197595.2894   21197587.4184
        48.5004         36.2504
 -14120919.30647 -10983111.77947  22568467.4694   22568463.3524
        43.2504         42.2504
  -1342291.19745  -1034948.33944  25285839.9774   25285837.6484
        35.0004         28.0004
 -26424277.42447 -20549482.29246  20421238.6024   20421232.9304
        46.2504         40.0004
 -26525685.27048 -20637301.96948  20585892.2894   20585886.7974
        49.0004         53.2504
  -4644136.39746  -3603498.91745  24420927.7974   24420925.3134
        38.7504         32.7504
  -6617687.58046  -5126056.56445  23798651.5004   23798647.5634
        40.0004         34.7504
 -13864187.47747 -10736289.22447  22758266.0634   22758259.5274
        44.5004         43.2504
  -8665653.44046  -6737943.76846  23398787.5314   23398784.7624
        40.2504         37.2504
 20  5  2  1 58 30.0000000  0 10G23G16G27G30G 4G 9G 3G26G 7G 8
 -21188189.13848 -16497685.40246  20640479.5634   20640469.8164
        48.2504         39.0004
 -20982034.38648 -16188363.06846  21210678.3444   21210670.7664
        48.5004         37.0004
 -14182847.21547 -11031367.26647  22556683.6484   22556678.7344
        43.2504         42.5004
  -1428051.34546  -1101774.50544  25269521.1024   25269517.2774
        37.0004         28.2504
 -26393410.65947 -20525430.28146  20427112.7584   20427106.7934
        46.0004         40.2504
 -26563902.67648 -20667081.77848  20578619.7034   20578614.6914
        49.5004         53.2504
  -4535604.03846  -3518928.29945  24441580.2114   24441577.0704
        38.7504         32.0004
  -6515301.41747  -5046275.19145  23818135.7734   23818131.3554
        42.5004         34.7504
 -13929053.94447 -10786834.50747  22745922.6884   22745915.6884
        44.5004         43.0004
  -8762240.13146  -6813206.10945  23380406.6884   23380402.3554
        39.5004         35.5004
 20  5  2  1 59  0.0000000  0 10G23G16G27G30G 4G 9G 3G26G 7G 8
 -21223599.18148 -16525277.64846  20633741.2584   20633731.6644
        48.0004         39.0004
 -20912821.28848 -16134430.80546  21223849.1094   21223841.2074
        48.0004         36.2504
 -14244303.75047 -11079255.45747  22544988.3204   22544984.3834
        44.0004         42.5004
  -1513782.57345  -1168578.15445  25253206.9774   25253203.9104
        35.5004         30.0004
 -26362069.41147 -20501008.55746  20433076.8834   20433070.8524
        45.5004         40.5004
 -26601672.88148 -20696513.11148  20571432.2894   20571426.8444
        49.7504         53.2504
  -4427073.62746  -3434359.20145  24462233.2034   24462229.8714
        39.0004         31.2504
  -6412786.68246  -4966393.63245  23837642.6724   23837639.9064
        40.0004         34.0004
 -13993806.33847 -10837290.92447  22733599.9614   22733593.3484
        44.0004         43.0004
  -8858649.24546  -6888330.00546  23362061.1564   23362058.1334
        41.0004         38.2504
 20  5  2  1 59 30.0000000  0 10G23G16G27G30G 4G 9G 3G26G 7G 8
 -21258587.08348 -16552540.96646  20627083.2584   20627073.7544
        48.5004         39.2504
 -20843151.01548 -16080142.29846  21237106.8444   21237099.0084
        48.0004         36.5004
 -14305287.27847 -11126775.06447  22533383.5784   22533379.4414
        43.5004         42.7504
  -1599485.93145  -1235360.04744  25236897.5944   25236894.3954
        33.2504         27.5004
 -26330254.87547 -20476218.02246  20439130.8364   20439124.8914
        45.5004         39.5004
 -26638995.30848 -20725595.53248  20564330.4694   20564324.4734
        49.0004         53.2504
  -4318549.09346  -3349794.66945  24482883.8594   24482881.2424
        38.7504         30.7504
  -6310146.92046  -4886414.62245  23857173.8364   23857171.1094
        38.5004         33.5004
 -14058445.60947 -10887659.16447  22721300.3754   22721293.0704
        45.0004         43.5004
  -8954878.81046  -6963314.03046  23343748.9694   23343746.1914
        39.7504         37.7504
 20  5  2  2  0  0.0000000  0 10G23G16G27G30G 4G 9G 3G26G 7G 8
 -21293147.59448 -16579471.24046  20620506.3594   20620497.1644
        48.5004         39.0004
 -20773022.80048 -16025496.95446  21250451.8914   21250444.3284
        48.5004         36.0004
 -14365791.58947 -11173921.26347  22521869.8984   22521866.0274
        43.5004         43.0004
  -1685157.73046  -1302117.28444  25220595.9454   25220591.4614
        36.5004         28.5004
 -26297963.69247 -20451056.07546  20445275.7974   20445270.0084
        45.7504         40.0004
 -26675864.74648 -20754324.97148  20557314.2974   20557308.6724
        49.7504         53.2504
  -4210029.92446  -3265234.32345  24503535.5394   24503531.3714
        39.5004         30.0004
  -6207380.95946  -4806337.33445  23876731.2894   23876727.1724
        41.2504         35.0004
 -14122968.53947 -10937936.76647  22709021.5634   22709014.7344
        45.0004         43.5004
  -9050922.19046  -7038152.96746  23325472.8204   23325468.8714
        41.2504         37.5004
 20  5  2  2  0 30.0000000  0 10G23G16G27G30G 4G 9G 3G26G 7G 8
 -21327280.85348 -16606068.60846  20614011.0394   20614001.4104
        48.0004         39.5004
 -20702441.35248 -15970498.43846  21263882.8914   21263875.4574
        48.2504         36.0004
 -14425815.79047 -11220693.35447  22510447.9924   22510443.4344
        44.2504         42.7504
  -1770799.56345  -1368851.15844  25204297.8444   25204294.7624
        35.0004         27.2504
 -26265197.75147 -20425524.19646  20451510.7424   20451504.8524
        46.5004         39.2504
 -26712281.30348 -20782701.52048  20550384.1484   20550378.8674
        48.5004         53.2504
  -4101520.59946  -3180681.60845  24524183.2584   24524180.3364
        38.5004         32.2504
  -6104492.95846  -4726164.90645  23896308.5944   23896306.0354
        39.0004         33.0004
 -14187376.70347 -10988124.94747  22696765.5004   22696758.5784
        44.5004         43.7504
  -9146777.67046  -7112845.50346  23307231.5554   23307228.4884
        40.2504         37.0004
 20  5  2  2  1  0.0000000  0 10G23G16G27G30G 4G 9G 3G26G 7G 8
 -21360987.12648 -16632333.23746  20607597.0164   20607587.5824
        48.0004         39.2504
 -20631411.52848 -15915150.54345  21277399.7894   21277392.1604
        48.5004         35.5004
 -14485359.08247 -11267090.71347  22499117.3444   22499112.3204
        43.5004         42.7504
  -1856413.31746  -1435563.18044  25188008.1724   25188003.8714
        36.5004         29.0004
 -26231959.13947 -20399623.99046  20457835.6724   20457830.0634
        46.5004         39.2504
 -26748245.32848 -20810725.43948  20543540.4144   20543535.2774
        49.5004         53.2504
  -3993026.09046  -3096140.48145  24544830.8524   24544826.3984
        40.0004         32.0004
  -6001487.22946  -4645900.74345  23915910.9224   23915907.2854
        41.0004         34.2504
 -14251672.04947 -11038225.19047  22684530.4224   22684523.5984
        45.0004         43.7504
  -9242444.12246  -7187390.73346  23289027.6564   23289023.1644
        40.2504         37.0004
 20  5  2  2  1 30.0000000  0 10G23G16G27G30G 4G 9G 3G26G 7G 8
 -21394262.87847 -16658262.40846  20601264.9844   20601255.1914
        47.7504         39.2504
 -20559934.21848 -15859453.95946  21291001.4064   21290993.6024
        48.2504         36.2504
 -14544417.06947 -11313109.91447  22487878.4694   22487874.1564
        44.2504         43.0004
  -1941997.09346  -1502251.87344  25171720.9694   25171717.6604
        36.0004         29.2504
 -26198246.27647 -20373354.24246  20464251.3204   20464245.4774
        46.7504         39.2504
 -26783753.35148 -20838394.03748  20536783.5474   20536778.3984
        48.7504         53.2504
  -3884547.28246  -3011611.60445  24565473.2274   24565469.0234
        40.2504         33.0004
  -5898364.38946  -4565545.31845  23935533.2344   23935530.5204
        39.2504         34.2504
 -14315852.59047 -11088235.98347  22672317.4924   22672310.4224
        45.0004         44.5004
  -9337916.62446  -7261784.84946  23270859.4844   23270855.6134
        39.7504         37.5004
 20  5  2  2  2  0.0000000  0 10G23G16G27G30G 4G 9G 3G26G 7G 8
 -21427106.97248 -16683855.21446  20595014.5944   20595005.6174
        48.0004         39.0004
 -20488013.20048 -15803411.62446  21304687.6884   21304679.5784
        48.5004         36.0004
 -14602987.82747 -11358749.44347  22476733.6414   22476728.8794
        44.0004         43.2504
  -2027551.44746  -1568917.65645  25155441.0084   25155436.7544
        38.2504         31.2504
 -26164059.99847 -20346715.59346  20470756.5084   20470750.9454
        47.0004         40.0004
 -26818804.43948 -20865706.58348  20530113.5634   20530108.1954
        49.0004         53.2504
  -3776087.93246  -2927097.86445  24586111.2894   24586108.2424
        39.0004         33.5004
  -5795127.44746  -4485100.97845  23955178.8364   23955176.9304
        40.2504         34.2504
 -14379918.69947 -11138157.61247  22660125.8674   22660118.6174
        44.7504         43.7504
  -9433192.96846  -7336026.12146  23252728.2974   23252724.7464
        40.2504         38.0004
 20  5  2  2  2 30.0000000  0 10G23G16G27G30G 4G 9G 3G26G 7G 8
 -21459514.59548 -16709107.92446  20588847.6414   20588838.4144
        48.0004         39.0004
 -20415648.24548 -15747023.37146  21318458.0704   21318450.3244
        48.5004         36.0004
 -14661065.54347 -11404004.78947  22465681.2194   22465676.6454
        44.2504         43.0004
  -2113073.19746  -1635557.97944  25139166.4384   25139162.2194
        37.7504         29.5004
 -26129397.35347 -20319705.75846  20477352.8054   20477347.0434
        46.2504         39.5004
 -26853393.85648 -20892659.37948  20523531.5704   20523526.2854
        48.7504         53.5004
  -3667647.62946  -2842598.98845  24606747.4224   24606744.5864
        40.5004         33.5004
  -5691775.63646  -4404567.17845  23974847.6094   23974844.1844
        40.7504         34.0004
 -14443867.22547 -11187987.60947  22647957.1954   22647949.8524
        44.5004         43.5004
  -9528266.60346  -7410109.40946  23234637.1334   23234633.1484
        40.7504         38.5004
 20  5  2  2  3  0.0000000  0 10G23G16G27G30G 4G 9G 3G26G 7G 8
 -21491487.47347 -16734021.85746  20582763.2814   20582754.0354
        47.7504         39.0004
 -20342845.28148 -15690293.81145  21332312.3134   21332304.4224
        48.0004         35.5004
 -14718650.73447 -11448876.36247  22454723.4064   22454719.0204
        44.2504         43.5004
  -2198565.29746  -1702175.20245  25122898.2894   25122893.8874
        38.0004         31.2504
 -26094261.63647 -20292327.29146  20484038.7424   20484032.8324
        47.0004         39.5004
 -26887523.04848 -20919253.56748  20517037.0474   20517031.6374
        49.0004         53.2504
  -3559232.33846  -2758119.57845  24627377.7664   24627375.0904
        39.5004         33.0004
  -5588314.31546  -4323947.97745  23994534.7194   23994531.1214
        40.0004         33.2504
 -14507701.25347 -11237728.39547  22635809.2344   22635802.1884
        45.0004         43.5004
  -9623137.80746  -7484034.98646  23216583.5234   23216580.1954
        41.5004         39.0004
 20  5  2  2  3 30.0000000  0 10G23G16G27G30G 4G 9G 3G26G 7G 8
 -21523022.79848 -16758594.84546  20576762.5084   20576753.0864
        48.5004         39.7504
 -20269605.98648 -15633224.25245  21346249.2194   21346241.5234
        48.0004         35.5004
 -14775739.61047 -11493361.18247  22443859.3914   22443855.3404
        44.5004         43.2504
  -2284026.43546  -1768768.30545  25106634.2664   25106631.5164
        36.2504         30.5004
 -26058651.97947 -20264579.51646  20490815.4064   20490809.0204
        46.5004         39.0004
 -26921189.30848 -20945487.02248  20510630.2814   20510625.1334
        49.0004         53.5004
  -3450843.77946  -2673661.04645  24648003.8594   24648000.7664
        39.7504         32.2504
  -5484744.71546  -4243244.43445  24014242.9384   24014240.1174
        39.5004         33.5004
 -14571419.63047 -11287379.06747  22623684.1414   22623677.6134
        45.0004         43.5004
  -9717801.84746  -7557799.13446  23198569.6254   23198566.6684
        40.7504         39.0004
 20  5  2  2  4  0.0000000  0 10G23G16G27G30G 4G 9G 3G26G 7G 8
 -21554118.56947 -16782825.32546  20570845.0004   20570835.7464
        47.7504         39.7504
 -20195933.14448 -15575816.86046  21360268.5084   21360261.1094
        48.0004         36.0004
 -14832329.36447 -11537457.07847  22433091.3284   22433086.5044
        44.7504         43.5004
  -2369456.20646  -1835336.97745  25090377.9924   25090374.7504
        36.7504         30.7504
 -26022568.33847 -20236462.41146  20497681.9844   20497676.0164
        46.5004         39.0004
 -26954390.72948 -20971358.26448  20504312.5704   20504306.8164
        48.5004         53.5004
  -3342484.42846  -2589225.24645  24668624.2194   24668621.0434
        38.7504         30.2504
  -5381068.90546  -4162458.17545  24033973.0394   24033969.4184
        39.5004         33.7504
 -14635022.18847 -11336939.51047  22611581.2504   22611574.5634
        45.0004         44.0004
  -9812255.33046  -7631399.20846  23180595.4694   23180591.7974
        41.0004         38.5004
 20  5  2  2  4 30.0000000  0 10G23G16G27G30G 4G 9G 3G26G 7G 8
 -21584773.35548 -16806712.18046  20565012.0554   20565002.7584
        48.5004         39.5004
 -20121829.88748 -15518074.07445  21374370.3524   21374362.7814
        48.5004         35.5004
 -14888417.62647 -11581162.19847  22422418.1884   22422413.5744
        45.2504         43.5004
  -2454854.73146  -1901881.31645  25074126.8524   25074124.1914
        36.7504         30.5004
 -25986011.13447 -20207976.29246  20504638.1884   20504632.1374
        46.2504         39.7504
 -26987125.98148 -20996866.26148  20498083.2114   20498077.6094
        49.0004         53.5004
  -3234157.32646  -2504814.55345  24689236.9304   24689234.8484
        36.7504         30.2504
  -5277289.38046  -4081591.07445  24053721.5864   24053718.1414
        40.7504         34.0004
 -14698508.64447 -11386409.46747  22599500.4534   22599492.8954
        45.2504         44.0004
  -9906495.51546  -7704833.07046  23162662.5864   23162658.3754
        40.2504         37.7504
 20  5  2  2  5  0.0000000  0 10G23G16G27G30G 4G 9G 3G26G 7G 8
 -21614984.97648 -16830253.71346  20559263.1094   20559253.3794
        48.0004         39.7504
 -20047298.41648 -15459997.63346  21388552.9384   21388545.2384
        48.2504         36.0004
 -14944001.29747 -11624474.14447  22411840.8754   22411835.7664
        45.5004         43.0004
  -2540221.36946  -1968400.76544  25057882.6954   25057878.7624
        37.5004         29.5004
 -25948980.16347 -20179120.99946  20511684.9534   20511678.8674
        46.2504         39.7504
 -27019392.90448 -21022009.32648  20491943.0704   20491937.7544
        48.2504         53.5004
  -3125864.80446  -2420430.86745  24709845.8284   24709842.2624
        38.7504         30.0004
  -5173407.87146  -4000644.51445  24073489.7974   24073486.0004
        40.5004         32.7504
 -14761878.64347 -11435788.65747  22587441.1484   22587434.2384
        45.0004         44.2504
 -10000518.84946  -7778097.97246  23144769.2504   23144766.3404
        40.2504         37.7504
 20  5  2  2  5 30.0000000  0 10G23G16G27G30G 4G 9G 3G26G 7G 8
 -21644752.24048 -16853448.99746  20553598.1564   20553589.2504
        48.5004         40.0004
 -19972342.01748 -15401590.06545  21402816.4454   21402808.7734
        48.5004         35.2504
 -14999078.27947 -11667391.26747  22401359.8284   22401355.0124
        45.2504         43.0004
  -2625556.31646  -2034895.52144  25041645.0634   25041640.7894
        37.2504         29.2504
 -25911476.05947 -20149897.03946  20518821.9534   20518815.7194
        46.5004         39.5004
 -27051190.34548 -21046786.55648  20485892.0234   20485886.8324
        48.7504         53.5004
  -3017609.99646  -2336076.50745  24730444.8364   24730442.0744
        37.0004         30.7504
  -5069427.11946  -3919620.56545  24093276.0864   24093272.6054
        41.0004         34.2504
 -14825132.08747 -11485077.03547  22575404.8204   22575397.5434
        45.2504         44.2504
 -10094322.20646  -7851191.47646  23126919.6954   23126915.8914
        41.0004         38.5004
 20  5  2  2  6  0.0000000  0 10G23G16G27G30G 4G 9G 3G26G 7G 8
 -21674074.62548 -16876297.60946  20548018.4694   20548009.2114
        48.2504         39.5004
 -19896964.44247 -15342854.30645  21417160.5634   21417152.8444
        47.7504         35.5004
 -15053646.89847 -11709912.26147  22390975.8204   22390971.1524
        45.0004         43.2504
  -2710860.34546  -2101366.18844  25025411.0784   25025408.1804
        37.0004         29.5004
 -25873499.95347 -20120305.27446  20526048.6484   20526042.0784
        46.2504         39.2504
 -27082517.63448 -21071197.43948  20479930.9224   20479925.3094
        49.0004         53.5004
  -2909396.70746  -2251754.56545  24751039.6724   24751034.6844
        40.0004         30.5004
  -4965350.18746  -3838521.71845  24113081.5314   24113077.9534
        39.5004         33.5004
 -14888269.87847 -11534275.31247  22563389.6644   22563382.7114
        45.2504         44.0004
 -10187903.32446  -7924111.81746  23109111.6954   23109107.6604
        40.5004         38.0004
 20  5  2  2  6 30.0000000  0 10G23G16G27G30G 4G 9G 3G26G 7G 8
 -21702946.72248 -16898795.35946  20542523.9384   20542514.7974
        48.2504         40.0004
 -19821165.51448 -15283790.23045  21431584.8054   21431576.8754
        48.2504         35.5004
 -15107701.19047 -11752032.48547  22380689.6414   22380684.7344
        44.0004         43.2504
  -2796129.82846  -2167809.97244  25009183.9774   25009181.2624
        36.7504         28.7504
 -25835048.79347 -20090343.35346  20533365.4534   20533359.4344
        46.2504         38.7504
 -27113369.76448 -21095238.06848  20474059.6724   20474054.0554
        48.5004         53.5004
  -2801224.12546  -2167464.25645  24771622.3674   24771618.9774
        38.7504         30.5004
  -4861176.02246  -3757347.04645  24132906.8054   24132902.6094
        41.7504         34.5004
 -14951288.43447 -11583380.66847  22551397.5784   22551390.6334
        44.7504         44.2504
 -10281255.76746  -7996853.98646  23091347.7734   23091343.5984
        41.2504         38.5004
 20  5  2  2  7  0.0000000  0 10G23G16G27G30G 4G 9G 3G26G 7G 8
 -21731370.15348 -16920943.49746  20537115.5554   20537106.0164
        48.0004         39.7504
 -19744950.83948 -15224402.18446  21446088.1094   21446080.3674
        48.5004         36.2504
 -15161241.62647 -11793752.30347  22370501.4304   22370496.1564
        45.0004         43.0004
  -2881367.63646  -2234229.02245  24992965.0634   24992961.4184
        37.7504         30.2504
 -25796125.76947 -20060013.73246  20540772.6254   20540766.6174
        47.2504         39.0004
 -27143748.08348 -21118909.48948  20468279.0084   20468273.6174
        49.2504         53.5004
  -2693097.96946  -2083210.22444  24792200.2504   24792195.1914
        39.5004         29.7504
  -4756909.65246  -3676100.59245  24152745.7894   24152743.4774
        38.5004         33.2504
 -15014190.56147 -11632395.30747  22539427.6254   22539420.5664
        44.7504         44.0004
 -10374379.23246  -8069417.71946  23073626.6254   23073623.2814
        41.7504         39.2504
 20  5  2  2  7 30.0000000  0 10G23G16G27G30G 4G 9G 3G26G 7G 8
 -21759342.46048 -16942740.11246  20531792.3674   20531783.0394
        48.0004         39.7504
 -19668322.44747 -15164691.77145  21460669.8524   21460662.0004
        47.7504         35.2504
 -15214265.01647 -11835069.24747  22360410.8134   22360406.4344
        45.5004         43.5004
  -2966572.84146  -2300622.73344  24976750.0314   24976746.8134
        37.5004         29.2504
 -25756730.53347 -20029316.17046  20548269.1564   20548263.1914
        46.5004         39.0004
 -27173650.42448 -21142210.02448  20462588.4924   20462583.6484
        48.5004         53.5004
  -2585020.30446  -1998993.90345  24812766.1724   24812762.4964
        39.2504         30.5004
  -4652552.70346  -3594783.52145  24172605.1094   24172602.1334
        39.0004         33.0004
 -15076975.47347 -11681318.60847  22527479.9924   22527473.5394
        44.7504         44.0004
 -10467269.61847  -8141799.81746  23055950.0394   23055946.5594
        42.0004         39.2504
 20  5  2  2  8  0.0000000  0 10G23G16G27G30G 4G 9G 3G26G 7G 8
 -21786861.19148 -16964183.29046  20526555.9144   20526546.5664
        48.0004         39.7504
 -19591282.50748 -15104660.66545  21475330.1414   21475322.5984
        48.2504         34.5004
 -15266767.95147 -11875980.61647  22350420.2114   22350415.3754
        45.0004         43.7504
  -3051744.37646  -2366990.14344  24960542.7664   24960539.4344
        37.7504         29.7504
 -25716862.49247 -19998250.18546  20555855.7664   20555849.7344
        47.0004         38.7504
 -27203074.25048 -21165137.69148  20456989.7114   20456984.2114
        49.0004         53.5004
  -2476993.02446  -1914816.84145  24833321.9144   24833319.0704
        38.0004         31.2504
  -4548106.43146  -3513396.89645  24192480.3834   24192477.3914
        38.5004         31.5004
 -15139642.10147 -11730149.73247  22515555.3134   22515548.0634
        45.2504         44.0004
 -10559923.40447  -8213997.55446  23038319.2344   23038314.7464
        42.0004         39.5004
 20  5  2  2  8 30.0000000  0 10G23G16G27G30G 4G 9G 3G26G 7G 8
 -21813925.57648 -16985272.43646  20521405.8524   20521396.4654
        48.2504         40.0004
 -19513834.79147 -15044311.81445  21490067.3754   21490059.8094
        47.5004         35.5004
 -15318748.75547 -11916485.14147  22340528.4844   22340523.8324
        44.7504         43.5004
  -3136882.71946  -2433331.71545  24944342.1884   24944337.7424
        37.7504         31.5004
 -25676522.70947 -19966816.60046  20563532.3674   20563526.2584
        47.0004         39.0004
 -27232018.80148 -21187691.90148  20451481.9454   20451476.4494
        49.5004         53.5004
  -2369019.61446  -1830681.79045  24853868.8594   24853866.1684
        39.0004         31.0004
  -4443573.78846  -3431942.92745  24212373.2584   24212368.1254
        40.7504         31.7504
 -15202190.90847 -11778889.04947  22503651.9924   22503645.2664
        44.7504         44.2504
 -10652337.51346  -8286008.49946  23020733.4384   23020729.5474
        40.7504         39.0004
 20  5  2  2  9  0.0000000  0 10G23G16G27G30G 4G 9G 3G26G 7G 8
 -21840533.62748 -17006005.99446  20516342.6334   20516333.0474
        49.0004         39.7504
 -19435981.68947 -14983647.07545  21504882.6884   21504875.2854
        47.5004         34.7504
 -15370204.40847 -11956580.45447  22330736.7584   22330732.1804
        44.7504         43.7504
  -3221987.29746  -2499646.95345  24928147.3524   24928143.5984
        37.2504         30.5004
 -25635711.03947 -19935015.31746  20571298.1884   20571292.3244
        46.7504         39.0004
 -27260482.05348 -21209871.05848  20446065.4144   20446059.7704
        49.5004         53.5004
  -2261102.03046  -1746590.35645  24874407.5944   24874402.7034
        40.5004         30.0004
  -4338956.47046  -3350422.97745  24232279.5784   24232276.5474
        38.7504         31.5004
 -15264621.00947 -11827535.86747  22491772.6024   22491765.2424
        45.2504         44.0004
 -10744508.42446  -8357829.95546  23003193.7504   23003189.5864
        41.5004         39.0004
 20  5  2  2  9 30.0000000  0 10G23G16G27G30G 4G 9G 3G26G 7G 8
 -21866684.13748 -17026383.02746  20511366.3204   20511356.9344
        49.0004         40.0004
 -19357726.57547 -14922669.08245  21519774.3204   21519766.2974
        47.5004         34.7504
 -15421133.17347 -11996265.20547  22321045.5164   22321040.6374
        45.2504         43.7504
  -3307058.56746  -2565936.27145  24911958.9774   24911954.7974
        38.0004         31.7504
 -25594428.45147 -19902847.08646  20579154.0554   20579148.3594
        46.2504         38.7504
 -27288463.04248 -21231674.43248  20440740.6414   20440735.3134
        48.7504         53.5004
  -2153243.84146  -1662545.02145  24894928.5474   24894926.4574
        38.0004         31.5004
  -4234257.17946  -3268839.17645  24252205.0474   24252200.3094
        38.7504         32.5004
 -15326933.30547 -11876090.89547  22479914.5704   22479907.4534
        45.5004         44.2504
 -10836433.56147  -8429459.93146  22985701.1884   22985696.9344
        42.0004         38.5004
 20  5  2  2 10  0.0000000  0 10G23G16G27G30G 4G 9G 3G26G 7G 8
 -21892374.96348 -17046401.85746  20506477.3444   20506468.2074
        49.5004         40.0004
 -19279071.72947 -14861379.60345  21534741.3984   21534734.1334
        47.5004         34.5004
 -15471532.00747 -12035537.03547  22311455.0234   22311450.3524
        45.0004         44.0004
  -3392095.59446  -2632198.85945  24895775.5164   24895773.4774
        36.5004         31.7504
 -25552674.77547 -19870311.77746  20587099.5084   20587093.9264
        46.2504         38.7504
 -27315959.72048 -21253100.43148  20435508.1724   20435502.8594
        49.0004         53.5004
  -2045447.13946  -1578547.66445  24915441.8204   24915439.7584
        36.5004         31.2504
  -4129477.72746  -3187192.81545  24272141.4224   24272140.1764
        37.5004         33.7504
 -15389126.64747 -11924553.22847  22468079.9534   22468072.7074
        45.7504         44.2504
 -10928109.18246  -8500895.49446  22968255.3204   22968252.1094
        40.7504         38.7504
 20  5  2  2 10 30.0000000  0 10G23G16G27G30G 4G 9G 3G26G 7G 8
 -21917604.68448 -17066061.39646  20501676.6024   20501667.1254
        49.2504         40.0004
 -19200020.10347 -14799780.95845  21549784.8914   21549776.9384
        47.5004         35.0004
 -15521398.52447 -12074394.06647  22301965.5474   22301961.1334
        45.2504         44.0004
  -3477098.34046  -2698434.77145  24879600.0394   24879597.3484
        37.0004         31.2504
 -25510450.28747 -19837409.61246  20595134.8054   20595128.5904
        47.0004         39.0004
 -27342970.57648 -21274147.85848  20430368.1884   20430362.9614
        49.5004         53.5004
  -1937714.45846  -1494600.29944  24935945.3674   24935940.4614
        39.0004         28.7504
  -4024620.01146  -3105485.58945  24292096.0784   24292093.9924
        38.0004         32.2504
 -15451200.61247 -11972922.53747  22456267.5394   22456260.3284
        45.2504         44.5004
 -11019532.04146  -8572134.09946  22950858.5234   22950853.9884
        41.2504         38.5004
 20  5  2  2 11  0.0000000  0 10G23G16G27G30G 4G 9G 3G26G 7G 8
 -21942371.93748 -17085360.56746  20496963.2034   20496954.2464
        49.2504         40.0004
 -19120574.64647 -14737875.42845  21564902.8674   21564894.7424
        47.5004         34.7504
 -15570730.47847 -12112834.56947  22292578.1484   22292573.1994
        45.5004         44.0004
  -3562066.66446  -2764643.85845  24863431.8134   24863428.3364
        36.2504         30.2504
 -25467755.64947 -19804141.08246  20603259.6334   20603253.4264
        46.5004         39.0004
 -27369494.26548 -21294815.67948  20425320.8594   20425315.5634
        49.0004         53.5004
  -1830048.75246  -1410704.95244  24956431.3284   24956429.2274
        38.0004         29.5004
  -3919686.31346  -3023719.15945  24312067.1644   24312062.5204
        41.7504         34.0004
 -15513155.66847 -12021199.18947  22444478.1254   22444471.0234
        45.5004         44.7504
 -11110699.14146  -8643173.38746  22933509.7344   22933505.8984
        41.2504         38.7504
 20  5  2  2 11 30.0000000  0 10G23G16G27G30G 4G 9G 3G26G 7G 8
 -21966674.55748 -17104297.68446  20492338.4774   20492329.1414
        48.0004         40.2504
 -19040737.96247 -14675665.03745  21580095.5704   21580087.7704
        47.7504         34.0004
 -15619525.08247 -12150856.35447  22283292.8284   22283288.0204
        45.5004         44.2504
  -3646999.90546  -2830825.58345  24847269.7814   24847267.0594
        37.7504         32.2504
 -25424590.78347 -19770506.14346  20611473.4694   20611467.4574
        46.2504         38.7504
 -27395528.84748 -21315102.37648  20420366.8444   20420361.6954
        48.7504         53.5004
  -1722452.25746  -1326863.63744  24976906.7344   24976903.5664
        38.2504         28.5004
  -3814678.43046  -2941894.84345  24332045.9614   24332044.3594
        36.2504         31.7504
 -15574990.87647 -12069382.46347  22432711.1414   22432703.9574
        45.5004         44.7504
 -11201606.78046  -8714010.50846  22916210.2114   22916207.0864
        41.2504         40.2504
 20  5  2  2 12  0.0000000  0 10G23G16G27G30G 4G 9G 3G26G 7G 8
 -21990512.00348 -17122872.32046  20487802.4774   20487792.9144
        48.7504         40.0004
 -18960513.71347 -14613152.65645  21595361.5234   21595354.0434
        47.5004         35.0004
 -15667780.97347 -12188458.36147  22274110.2424   22274105.0084
        46.0004         44.2504
  -3731898.93446  -2896980.67145  24831113.9304   24831110.5434
        37.5004         31.7504
 -25380957.08647 -19736505.87946  20619776.5784   20619770.9344
        46.7504         39.0004
 -27421073.82148 -21335007.56448  20415505.7974   20415499.8594
        49.2504         53.5004
  -1614928.50646  -1243078.96144  24997369.3204   24997364.4654
        39.0004         28.7504
  -3709599.51546  -2860015.22045  24352042.3674   24352040.3954
        36.7504         32.5004
 -15636706.94647 -12117472.88947  22420966.8674   22420960.1334
        45.2504         45.2504
 -11292252.90046  -8784643.84746  22898960.9774   22898957.0124
        41.2504         39.7504
 20  5  2  2 12 30.0000000  0 10G23G16G27G30G 4G 9G 3G26G 7G 8
 -22013879.89348 -17141081.08046  20483355.5634   20483346.3954
        49.7504         39.7504
 -18879902.03447 -14550338.38445  21610701.4224   21610693.9654
        47.7504         34.5004
 -15715492.96947 -12225636.54247  22265030.6884   22265026.1484
        46.0004         44.0004
  -3816760.57246  -2963106.56745  24814965.3914   24814961.3754
        37.7504         30.0004
 -25336852.17147 -19702138.43046  20628169.7034   20628163.7384
        46.5004         38.2504
 -27446124.90948 -21354527.89948  20410738.6644   20410733.2384
        50.0004         53.7504
  -1507477.37346  -1159350.88044  25017816.1024   25017811.8054
        36.0004         27.0004
  -3604448.68146  -2778079.59445  24372054.8984   24372050.5124
        41.0004         33.5004
 -15698300.91947 -12165468.18247  22409245.6174   22409238.9884
        45.5004         45.0004
 -11382630.94346  -8855068.26346  22881763.1884   22881758.5434
        41.7504         39.5004
 20  5  2  2 13  0.0000000  0 10G23G16G27G30G 4G 9G 3G26G 7G 8
 -22036779.92748 -17158925.26846  20478998.0704   20478988.5354
        50.0004         40.2504
 -18798908.79947 -14487226.78245  21626113.6804   21626106.1374
        47.0004         34.5004
 -15762661.51847 -12262391.26147  22256054.3364   22256050.1484
        45.5004         44.0004
  -3901587.40546  -3029205.41945  24798822.4224   24798819.8914
        36.0004         31.0004
 -25292279.22247 -19667406.28446  20636651.5164   20636645.5434
        47.0004         38.2504
 -27470683.37048 -21373664.37348  20406065.2424   20406060.0234
        50.2504         53.7504
  -1400104.22446  -1075683.54244  25038249.0394   25038244.7304
        37.0004         27.5004
  -3499230.86346  -2696091.66445  24392075.1174   24392073.4534
        38.2504         31.7504
 -15759775.10547 -12213370.13747  22397547.8754   22397541.0634
        45.5004         45.0004
 -11472740.72746  -8925283.66746  22864615.1804   22864611.5984
        41.5004         40.2504
 20  5  2  2 13 30.0000000  0 10G23G16G27G30G 4G 9G 3G26G 7G 8
 -22059209.76348 -17176403.07846  20474729.7424   20474720.5864
        48.0004         40.0004
 -18717536.24547 -14423819.61145  21641598.1254   21641591.1254
        47.0004         34.5004
 -15809283.82247 -12298720.32447  22247182.9614   22247178.2274
        45.5004         44.2504
  -3986378.68446  -3095276.56245  24782688.4694   24782684.4964
        37.2504         30.5004
 -25247238.22847 -19632309.41346  20645222.0704   20645216.4614
        46.5004         38.5004
 -27494747.28548 -21392415.48548  20401486.1804   20401481.0664
        48.5004         53.7504
  -1292811.17045   -992078.70844  25058664.7664   25058663.0164
        35.5004         29.0004
  -3393947.52346  -2614052.81345  24412112.0394   24412107.5314
        40.5004         32.2504
 -15821129.35547 -12261178.62647  22385872.1564   22385865.2464
        45.0004         44.7504
 -11562578.75046  -8995287.30246  22847519.6804   22847516.4614
        41.7504         40.2504
 20  5  2  2 14  0.0000000  0 10G23G16G27G30G 4G 9G 3G26G 7G 8
 -22081167.34648 -17193512.88846  20470551.3674   20470542.0044
        48.0004         40.0004
 -18635786.60247 -14360118.62445  21657154.7194   21657147.6334
        47.0004         33.7504
 -15855357.13947 -12334621.61047  22238415.5004   22238410.8094
        44.5004         44.0004
  -4071133.82146  -3161319.46745  24766559.7814   24766555.9104
        37.5004         30.0004
 -25201729.18147 -19596847.83546  20653882.6174   20653876.5044
        46.5004         39.0004
 -27518314.76448 -21410779.76148  20397001.3754   20396996.2074
        48.5004         53.7504
  -1185600.39345   -908537.89145  25079065.3284   25079064.2664
        34.0004         30.0004
  -3288600.49746  -2531964.18145  24432157.9924   24432153.2854
        41.0004         33.0004
 -15882362.19047 -12308892.51747  22374220.0784   22374213.2974
        45.0004         44.5004
 -11652141.12346  -9065076.16046  22830476.6174   22830472.9344
        40.7504         39.5004
 20  5  2  2 14 30.0000000  0 10G23G16G27G30G 4G 9G 3G26G 7G 8
 -22102651.51948 -17210253.81946  20466463.2114   20466453.8324
        49.2504         40.2504
 -18553663.17547 -14296126.35545  21672782.5314   21672774.9384
        46.7504         34.0004
 -15900879.45347 -12370093.54047  22229752.8204   22229748.1564
        45.2504         44.5004
  -4155852.64046  -3227334.15745  24750438.7344   24750434.4344
        38.0004         30.7504
 -25155752.84947 -19561022.14646  20662631.6644   20662625.6484
        46.5004         38.2504
 -27541384.60348 -21428756.27148  20392611.4774   20392605.7584
        50.0004         53.7504
  -1078474.64746   -825063.53945  25099453.6884   25099450.3484
        38.7504         30.0004
  -3183191.83246  -2449827.65545  24452215.6724   24452212.8954
        39.0004         33.2504
 -15943473.79847 -12356511.93547  22362591.4064   22362584.1644
        45.5004         45.0004
 -11741425.22747  -9134648.18946  22813486.7734   22813482.4024
        42.5004         39.2504
 20  5  2  2 15  0.0000000  0 10G23G16G27G30G 4G 9G 3G26G 7G 8
 -22123660.32247 -17226624.33046  20462465.2114   20462456.4344
        47.7504         40.2504
 -18471168.32447 -14231844.67445  21688480.7664   21688473.1454
        46.7504         34.0004
 -15945848.06047 -12405133.99947  22221195.5554   22221190.9104
        46.0004         44.5004
  -4240534.60446  -3293320.11845  24734323.0634   24734319.9024
        37.2504         30.2504
 -25109309.22447 -19524832.32346  20671469.4614   20671463.7464
        47.0004         38.2504
 -27563954.94248 -21446343.55648  20388316.6484   20388311.1884
        48.5004         53.7504
   -971436.19346   -741657.00245  25119822.8204   25119819.0274
        40.2504         32.7504
  -3077723.13346  -2367644.33845  24472285.2274   24472283.2814
        38.2504         31.7504
 -16004463.60447 -12404036.45747  22350985.1484   22350978.0004
        45.5004         45.0004
 -11830426.74247  -9204000.02646  22796550.3524   22796545.9694
        42.0004         39.5004
 20  5  2  2 15 30.0000000  0 10G23G16G27G30G 4G 9G 3G26G 7G 8
 -22144194.13748 -17242624.70946  20458557.7894   20458548.7344
        49.7504         40.0004
 -18388307.01547 -14167277.44045  21704248.6334   21704241.1414
        46.7504         34.0004
 -15990262.76847 -12439742.83447  22212744.2504   22212738.9454
        46.2504         44.5004
  -4325181.32646  -3359278.57545  24718216.8364   24718212.4534
        39.5004         32.0004
 -25062400.83047 -19488280.34646  20680396.1174   20680390.3834
        46.2504         38.2504
 -27586026.38748 -21463542.10148  20384116.0394   20384110.7854
        49.5004         53.5004
   -864489.60646   -658322.04944  25140171.1954   25140169.3634
        36.5004         29.5004
  -2972198.57946  -2285417.44945  24492367.2974   24492363.2664
        39.2504         32.5004
 -16065333.31247 -12451467.38747  22339401.9064   22339394.5124
        45.5004         44.7504
 -11919144.80447  -9273130.98146  22779667.2734   22779664.0864
        42.5004         40.2504
 20  5  2  2 16  0.0000000  0 10G23G16G27G30G 4G 9G 3G26G 7G 8
 -22164247.25648 -17258250.52546  20454742.0164   20454732.4884
        50.0004         40.2504
 -18305077.57747 -14102423.34945  21720086.3754   21720078.9614
        46.2504         33.0004
 -16034116.82047 -12473914.80947  22204398.3284   22204393.6054
        46.0004         44.2504
  -4409788.06446  -3425205.94945  24702116.2664   24702112.9264
        39.2504         33.0004
 -25015023.70547 -19451363.12946  20689411.6174   20689405.6454
        46.2504         38.5004
 -27607592.99548 -21480347.25448  20380012.3674   20380007.0514
        50.0004         53.7504
   -757632.80946   -575057.07645  25160506.6564   25160503.1294
        37.2504         30.0004
  -2866615.54946  -2203144.99345  24512458.4844   24512455.4064
        38.7504         31.7504
 -16126078.02447 -12498800.92347  22327842.6174   22327835.5234
        45.7504         45.0004
 -12007572.13246  -9342035.37046  22762840.5004   22762836.9264
        41.5004         40.2504
 20  5  2  2 16 30.0000000  0 10G23G16G27G30G 4G 9G 3G26G 7G 8
 -22183822.01348 -17273503.60046  20451016.9694   20451007.5864
        49.5004         40.0004
 -18221486.71547 -14037287.62745  21735992.8754   21735985.7424
        46.5004         33.5004
 -16077411.94047 -12507651.24647  22196159.6024   22196155.1334
        46.0004         44.2504
  -4494358.59946  -3491105.02745  24686023.1564   24686019.1214
        39.2504         31.5004
 -24967182.22747 -19414084.07646  20698515.4304   20698509.5084
        46.2504         38.5004
 -27628657.25048 -21496760.97348  20376004.0164   20375998.7074
        50.2504         53.7504
   -650872.26146   -491867.21444  25180823.4614   25180819.4064
        39.0004         27.7504
  -2760979.97546  -2120831.60845  24532560.0164   24532557.1094
        39.0004         31.7504
 -16186701.23547 -12546039.78347  22316306.3984   22316299.1334
        45.5004         44.7504
 -12095708.75547  -9410713.23946  22746068.7274   22746064.8834
        42.7504         41.2504
 20  5  2  2 17  0.0000000  0 10G23G16G27G30G 4G 9G 3G26G 7G 8
 -22202915.58648 -17288381.71646  20447383.5004   20447374.3094
        50.0004         40.2504
 -18137536.02847 -13971871.53345  21751968.7894   21751961.1484
        46.5004         34.0004
 -16120144.64447 -12540949.42347  22188027.8444   22188023.2974
        45.2504         44.5004
  -4578891.18646  -3556974.56945  24669936.2504   24669933.5434
        37.7504         31.5004
 -24918875.64247 -19376442.60146  20707708.0084   20707702.1414
        46.5004         38.0004
 -27649216.49248 -21512781.16148  20372091.4384   20372086.5824
        50.2504         53.7504
   -544209.28646   -408753.26644  25201121.2194   25201118.6094
        37.5004         29.7504
  -2655292.41146  -2038477.74345  24552671.6954   24552669.1454
        38.2504         30.5004
 -16247201.28947 -12593182.67147  22304793.1884   22304786.3984
        45.7504         45.2504
 -12183550.09247  -9479161.01446  22729353.2504   22729349.7154
        42.5004         41.5004
 20  5  2  2 17 30.0000000  0 10G23G16G27G30G 4G 9G 3G26G 7G 8
 -22221526.90448 -17302884.04746  20443842.0784   20443832.9384
        50.0004         40.0004
 -18053228.67247 -13906177.50845  21768012.4224   21768004.8554
        46.7504         34.0004
 -16162313.02747 -12573807.87847  22180003.4614   22179998.6054
        45.5004         44.5004
  -4663385.76646  -3622814.47945  24653856.7814   24653854.5084
        38.0004         31.5004
 -24870104.68147 -19338439.27446  20716988.7814   20716982.7074
        46.5004         38.2504
 -27669269.58148 -21528406.96248  20368275.6414   20368270.1564
        50.5004         53.7504
   -437646.53545   -325717.38543  25221396.0004   25221395.8014
        32.7504         22.5004
  -2549555.13346  -1956085.06145  24572793.0864   24572790.2344
        38.2504         33.5004
 -16307578.69047 -12640229.99247  22293303.9304   22293296.9734
        45.7504         45.5004
 -12271093.66747  -9547376.77046  22712693.8914   22712690.5664
        42.5004         41.5004
 20  5  2  2 18  0.0000000  0 10G23G16G27G30G 4G 9G 3G26G 7G 8
 -22239657.31848 -17317011.65846  20440391.8204   20440382.5474
        50.0004         40.0004
 -17968570.05847 -13840209.77345  21784122.4224   21784114.5824
        46.0004         33.5004
 -16203917.72947 -12606227.10547  22172086.0944   22172081.6844
        46.0004         44.5004
  -4747844.93946  -3688626.80745  24637784.4614   24637782.4064
        38.0004         31.2504
 -24820872.80147 -19300076.79446  20726357.0314   20726351.5394
        47.0004         38.2504
 -27688817.94948 -21543639.46148  20364555.7274   20364550.2504
        50.5004         53.7504
                                  25241658.0864   25241653.8634
        37.0004         23.5004
  -2443773.02546  -1873657.49645  24592922.7584   24592919.7504
        38.7504         32.5004
 -16367835.29347 -12687183.19147  22281837.6094   22281830.6804
        45.2504         45.2504
 -12358338.64647  -9615359.84146  22696091.7814   22696088.2424
        42.5004         41.2504
 20  5  2  2 18 30.0000000  0 10G23G16G27G30G 4G 9G 3G26G 7G 8
 -22257296.65948 -17330756.60546  20437035.2664   20437026.2384
        49.5004         39.7504
 -17883554.48747 -13773963.89645  21800300.2734   21800292.6564
        46.5004         34.0004
 -16244948.05747 -12638198.76547  22164278.6804   22164273.8404
        45.7504         44.5004
  -4832259.82246  -3754404.60345  24621721.2424   24621718.8714
        37.5004         32.0004
 -24771171.97347 -19261348.88846  20735815.0314   20735809.1604
        46.5004         38.5004
 -27707851.67048 -21558470.94848  20360933.7734   20360928.5124
        50.0004         53.7504
  24981888.22945  19481711.99143  25261895.2274   25261892.2774
        35.2504         22.0004
  -2337939.35046  -1791189.72145  24613062.1884   24613059.4774
        38.7504         32.2504
 -16427962.25847 -12734035.37247  22270396.1414   22270388.5314
        46.5004         45.5004
 -12445273.36647  -9683101.16246  22679549.0004   22679545.1174
        43.0004         41.0004
 20  5  2  2 19  0.0000000  0 10G23G16G27G30G 4G 9G 3G26G 7G 8
 -22274454.80148 -17344126.60346  20433770.2194   20433760.8674
        49.5004         39.7504
 -17798196.32847 -13707451.06345  21816543.3364   21816535.4804
        46.2504         32.7504
 -16285413.43547 -12669730.20747  22156578.4694   22156573.4884
        45.2504         44.5004
  -4916641.56046  -3820156.59245  24605663.6884   24605661.5744
        37.2504         31.7504
 -24721014.23847 -19222264.96746  20745359.8594   20745353.8554
        46.7504         37.7504
 -27726380.90348 -21572909.31848  20357407.7034   20357402.3714
        50.7504         53.7504
                                  25282115.0474   25282111.3244
        38.0004         29.5004
  -2232067.41746  -1708692.22445  24633208.7274   24633206.4104
        37.7504         32.2504
 -16487970.88747 -12780795.33447  22258976.6804   22258969.2894
        45.7504         45.5004
 -12531906.07447  -9750607.14046  22663062.5634   22663059.2154
        42.7504         41.0004
 20  5  2  2 19 30.0000000  0 10G23G16G27G30G 4G 9G 3G26G 7G 8
 -22291120.46248 -17357112.83546  20430598.7814   20430589.3754
        49.5004         40.7504
 -17712488.14347 -13640665.48245  21832853.0554   21832845.6024
        46.7504         33.0004
 -16325301.20747 -12700811.56947  22148987.5554   22148982.7504
        45.2504         44.7504
  -5000979.32146  -3885874.26845  24589616.7584   24589612.4224
        39.5004         32.0004
 -24670389.70647 -19182817.29846  20754993.1804   20754987.4804
        46.5004         38.0004
 -27744393.76348 -21586945.31948  20353980.0084   20353974.7234
        50.0004         53.7504
  25194270.71246  19647204.74345  25302312.5634   25302309.4774
        39.2504         32.0004
  -2126148.71445  -1626158.23745  24653364.7894   24653360.9884
        35.2504         30.2504
 -16547850.23547 -12827454.55747  22247581.8054   22247574.4694
        45.7504         45.5004
 -12618223.23847  -9817867.25046  22646636.9064   22646633.3094
        42.2504         41.2504
 20  5  2  2 20  0.0000000  0 10G23G16G27G30G 4G 9G 3G26G 7G 8
 -22307299.12748 -17369719.59846  20427520.1804   20427510.9064
        49.7504         40.2504
 -17626439.76247 -13573614.81745  21849227.4384   21849219.9064
        45.7504         33.5004
 -16364616.52347 -12731446.85447  22141506.6174   22141501.6254
        45.2504         44.7504
  -5085280.02646  -3951563.14845  24573573.6024   24573570.7504
        38.2504         32.0004
 -24619306.10547 -19143011.91146  20764713.9534   20764708.0984
        46.5004         37.2504
 -27761896.11048 -21600583.52449  20350649.1094   20350644.1294
        50.7504         54.0004
  25300294.13946  19729820.52545  25322486.3134   25322482.2034
        36.7504         30.0004
  -2020192.25646  -1543594.83145  24673528.6174   24673522.8554
        37.0004         30.2504
 -16607606.88147 -12874018.16847  22236210.6724   22236203.4184
        46.0004         45.5004
 -12704228.42747  -9884884.25146  22630271.2664   22630267.2624
        43.0004         41.2504
 20  5  2  2 20 30.0000000  0 10G23G16G27G30G 4G 9G 3G26G 7G 8
 -22322987.21648 -17381944.09046  20424534.4614   20424525.5234
        50.0004         40.0004
 -17540051.85847 -13506299.57645  21865666.5004   21865658.9694
        45.5004         33.5004
 -16403355.25847 -12761632.86747  22134134.7664   22134130.0314
        45.5004         44.7504
  -5169541.29546  -4017221.26545  24557539.4224   24557535.7074
        38.0004         32.0004
 -24567761.98547 -19102847.68746  20774523.0394   20774517.0514
        46.7504         38.2504
 -27778884.57448 -21613821.29849  20347416.7194   20347411.4734
        50.5004         54.0004
  25406202.27045  19812346.01845  25342638.1024   25342640.2934
        34.7504         31.5004
  -1914197.91646  -1461001.92345  24693698.2974   24693694.2704
        38.0004         30.2504
 -16667238.67747 -12920484.50047  22224862.9534   22224855.8714
        45.7504         45.5004
 -12789916.60647  -9951654.23146  22613965.3134   22613961.1884
        43.0004         41.2504
 20  5  2  2 21  0.0000000  0 10G23G16G27G30G 4G 9G 3G26G 7G 8
 -22338182.64948 -17393784.70046  20421643.0784   20421633.8404
        50.0004         40.0004
 -17453326.83047 -13438721.66845  21882169.8834   21882162.3364
        45.5004         33.0004
 -16441514.92747 -12791367.64747  22126873.4384   22126868.2854
        45.7504         45.0004
  -5253762.26846  -4082847.95745  24541513.1564   24541508.7664
        38.7504         31.0004
 -24515757.59347 -19062324.80746  20784418.9534   20784412.9844
        47.0004         37.5004
 -27795357.53948 -21626657.37749  20344281.7894   20344276.8554
        50.2504         54.0004
  25511992.85745  19894779.99444  25362769.4924   25362772.0204
        33.5004         24.5004
  -1808167.11346  -1378380.57444  24713875.2664   24713871.1024
        37.7504         29.7504
 -16726745.01047 -12966853.05647  22213539.2814   22213532.1954
        46.0004         45.7504
 -12875283.88047 -10018174.16546  22597719.7504   22597716.4734
        43.2504         41.5004
 20  5  2  2 21 30.0000000  0 10G23G16G27G30G 4G 9G 3G26G 7G 8
 -22352887.61148 -17405243.12146  20418844.6484   20418835.6334
        49.7504         40.2504
 -17366270.07347 -13370885.24845  21898736.2734   21898728.7154
        45.5004         32.2504
 -16479096.39847 -12820651.90647  22119721.3674   22119716.8054
        45.5004         45.0004
  -5337945.59546  -4148445.34945  24525493.6094   24525489.2274
        39.0004         32.2504
 -24463296.37847 -19021445.95446  20794402.2344   20794396.5354
        46.2504         37.7504
 -27811316.32648 -21639092.80449  20341245.0864   20341240.0904
        49.5004         54.0004
                                  25382883.891
        39.000
  -1702104.59445  -1295734.42644  24734056.3054   24734053.1804
        35.5004         26.0004
 -16786128.22047 -13013125.68347  22202239.1174   22202231.8324
        46.0004         45.5004
 -12960330.28847 -10084444.05646  22581536.2814   22581532.6524
        43.7504         41.7504
