     2.11           OBSERVATION DATA    G (GPS)             RINEX VERSION / TYPE
teqc  2019Feb25     Salamtina Y.M.      20200909 02:44:18UTCPGM / RUN BY / DATE
Linux 2.6.32-573.12.1.x86_64|x86_64|gcc|Linux 64|=+         COMMENT
BIT 2 OF LLI FLAGS DATA COLLECTED UNDER A/S CONDITION       COMMENT
Kazarman                                                    MARKER NAME
kaza                                                        MARKER NUMBER
Matix A.I.          RS_RAS                                  OBSERVER / AGENCY
4752143407          TRIMBLE NETRS       1.3-2               REC # / TYPE / VERS
30895097            TRM55971.00                             ANT # / TYPE
  1325807.7297  4606496.6894  4195524.6396                  APPROX POSITION XYZ
        0.0890        0.0000        0.0000                  ANTENNA: DELTA H/E/N
     1     1                                                WAVELENGTH FACT L1/2
     7    L1    L2    C1    P1    P2    S1    S2            # / TYPES OF OBSERV
    30.0000                                                 INTERVAL
    18                                                      LEAP SECONDS
TIME: 2020.05.21                                            COMMENT
TOUR: cont                                                  COMMENT
RSET: RAS03                                                 COMMENT
ASET: RAS03                                                 COMMENT
OPER: matx (Matix A.I.)                                     COMMENT
SOUR: KAZA202005210000A.dat                                 COMMENT
SUPP: KAZA202005210000A.eph                                 COMMENT
SUPP: KAZA202005210000A.ion                                 COMMENT
SUPP: KAZA202005210000A.mes                                 COMMENT
Forced Modulo Decimation to 30 seconds                      COMMENT
 SNR is mapped to RINEX snr flag value [0-9]                COMMENT
  L1 & L2: min(max(int(snr_dBHz/6), 0), 9)                  COMMENT
  2020     5    21     0     0    0.0000000     GPS         TIME OF FIRST OBS
                                                            END OF HEADER
 20  5 21  0  0  0.0000000  0 10G16G04G09G22G27G08G31G03G07G26
 -23865223.40947 -18480293.36546  20453450.3054                   20453441.6214
        47.5004         39.7504
 -27721279.05747 -21552193.55746  20241822.9454                   20241816.0514
        47.7504         41.7504
 -20877369.57547 -16254274.86848  21456374.3834                   21456368.8524
        47.0004         49.5004
  -3510294.68446  -2724725.49643  24809607.0164                   24809596.6334
        40.2504         19.2504
  -6718196.35747  -5214492.13146  23765076.2274                   23765070.8324
        42.0004         38.2504
  -1054015.81445   -802641.54843  24934947.7274                   24934942.9224
        33.7504         22.7504
   1550671.47247   1277262.23954  25550801.4694                   25550795.3874
        42.2504         29.0004
 -12934103.67447 -10035883.59946  22874766.8914                   22874761.8794
        45.0004         41.0004
  -8666232.93147  -6695536.44546  23823726.0314                   23823718.6604
        42.7504         36.7504
 -12448901.97647  -9820299.13147  22393407.6094                   22393403.7194
        43.2504         42.7504
 20  5 21  0  0 30.0000000  0 10G16G04G09G22G27G08G31G03G07G26
 -23843452.66947 -18463329.15946  20457592.9144                   20457584.4654
        47.0004         39.2504
 -27727512.42947 -21557050.74447  20240636.4064                   20240629.9494
        47.0004         42.0004
 -20945941.51747 -16307707.54848  21443325.7274                   21443319.9024
        47.2504         49.7504
  -3405833.51346  -2643327.16543  24829484.2114                   24829475.4414
        38.5004         20.0004
  -6807772.71346  -5284291.88546  23748029.9454                   23748026.4884
        41.7504         39.7504
  -1154477.13545   -880923.13844  24915830.3444                   24915827.6254
        34.7504         28.5004
                                  25568211.8444                   25568208.1684
        30.5004         18.5004
 -12833807.63147  -9957730.87146  22893852.1024                   22893847.5474
        44.5004         41.2504
  -8739700.53547  -6752783.92746  23809746.0394                   23809738.2234
        43.0004         37.2504
 -12364150.62347  -9754259.12947  22409535.1724                   22409530.8554
        43.2504         42.5004
 20  5 21  0  1  0.0000000  0 10G16G04G09G22G27G08G31G03G07G26
 -23821049.22747 -18445871.93746  20461855.5554                   20461847.6414
        47.0004         38.7504
 -27733326.13947 -21561580.92447  20239530.4614                   20239523.8754
        47.0004         42.0004
 -21014238.19947 -16360925.74548  21430329.1954                   21430323.6094
        47.0004         49.7504
  -3301399.19746  -2561949.86643  24849357.5944                   24849348.9494
        37.5004         19.2504
  -6897146.29346  -5353933.63046  23731022.8594                   23731018.3324
        39.7504         37.2504
  -1255018.33445   -959266.96444  24896698.5704                   24896695.2384
        33.7504         28.0004
  30091178.33546  23516618.08143  25585614.8054                   25585608.1374
        40.0004         18.2504
 -12733297.38447  -9879411.22246  22912979.1644                   22912974.3244
        45.0004         41.5004
  -8813071.81647  -6809956.34446  23795785.0394                   23795777.1374
        44.2504         37.7504
 -12279081.83847  -9687971.79147  22425723.5004                   22425718.7584
        43.5004         42.2504
 20  5 21  0  1 30.0000000  0 10G16G04G09G22G27G08G31G03G07G26
 -23797998.94847 -18427910.69146  20466242.4614                   20466233.8364
        47.5004         39.2504
 -27738703.94247 -21565771.43147  20238506.7734                   20238500.2234
        47.2504         42.0004
 -21082242.42047 -16413916.05548  21417388.6094                   21417382.5594
        47.2504         49.7504
  -3196979.16546  -2480583.62943  24869229.5394                   24869218.9774
        38.5004         19.5004
  -6986298.47146  -5423402.85746  23714057.4304                   23714053.2384
        40.5004         38.5004
  -1355621.36845  -1037658.98044  24877553.9844                   24877551.1024
        34.2504         25.7504
                                  25603004.2114                   25603001.0984
        27.2504         15.5004
 -12632560.66347  -9800915.09546  22932148.2344                   22932143.7304
        44.7504         41.5004
  -8886331.53147  -6867041.83046  23781843.7664                   23781835.4804
        44.5004         38.2504
 -12193683.04947  -9621427.29247  22441974.5084                   22441969.9264
        43.7504         42.2504
 20  5 21  0  2  0.0000000  0 10G16G04G09G22G27G08G31G03G07G26
 -23774319.23347 -18409458.96846  20470748.1884                   20470740.2704
        47.0004         39.5004
 -27743660.73547 -21569633.88047  20237563.4304                   20237557.3054
        47.0004         42.0004
 -21149968.07347 -16466689.28648  21404500.6804                   21404494.7664
        47.0004         49.7504
  -3092591.86646  -2399242.89743  24889092.9694                   24889082.9064
        38.5004         19.5004
  -7075241.76946  -5492709.32046  23697131.8054                   23697127.9574
        39.2504         37.2504
  -1456299.42546  -1116109.45144  24858396.8754                   24858392.4024
        36.7504         29.2504
  30273903.82556  23659001.30454  25620386.6484                   25620380.1214
        41.2504         24.0004
 -12531616.33547  -9722257.20846  22951357.8134                   22951352.9924
        44.7504         41.7504
  -8959495.28347  -6924052.55546  23767920.9064                   23767913.1024
        44.7504         38.5004
 -12107972.84347  -9554640.14647  22458284.6954                   22458279.9144
        43.5004         42.0004
 20  5 21  0  2 30.0000000  0 10G16G04G09G22G27G08G31G03G07G26
 -23749999.76147 -18390508.74246  20475376.1564                   20475368.3444
        47.0004         39.5004
 -27748183.62747 -21573158.22446  20236703.4534                   20236696.5664
        47.2504         41.7504
 -21217401.29347 -16519234.65548  21391668.3914                   21391662.9264
        47.5004         49.7504
  -2988227.94446  -2317920.46343  24908954.1094                   24908942.9694
        40.7504         20.5004
  -7163960.99347  -5561841.16646  23680250.1484                   23680244.5354
        43.2504         37.7504
  -1557037.54646  -1194606.76745  24839226.7894                   24839222.6804
        36.7504         30.5004
  30365181.92146  23730127.14443  25637756.5164                   25637749.7274
        40.7504         19.0004
 -12430455.61447  -9643430.69646  22970608.0944                   22970602.7114
        44.7504         41.0004
  -9032551.09947  -6980979.17246  23754018.5164                   23754011.1334
        43.7504         38.5004
 -12021941.96747  -9487603.12047  22474655.7114                   22474651.3364
        43.7504         42.2504
 20  5 21  0  3  0.0000000  0 10G16G04G09G22G27G08G31G03G07G26
 -23725040.55647 -18371060.01746  20480125.4384                   20480117.7114
        47.0004         38.7504
 -27752270.33747 -21576342.68247  20235925.3754                   20235918.8324
        47.0004         42.0004
 -21284538.73547 -16571549.55448  21378892.9224                   21378887.0474
        47.5004         50.0004
  -2883888.83046  -2236617.19943  24928808.1884                   24928798.1604
        39.5004         20.5004
  -7252451.38847  -5630794.73746  23663411.5004                   23663406.3244
        42.5004         38.2504
  -1657831.35346  -1273147.40545  24820047.3134                   24820043.1724
        37.7504         31.0004
                                  25655113.8674                   25655109.7544
        30.0004         15.5004
 -12329080.11047  -9564436.81146  22989898.8674                   22989893.9104
        43.7504         40.2504
  -9105497.75447  -7037820.72146  23740137.1334                   23740130.2504
        43.5004         38.2504
 -11935591.77747  -9420317.27347  22491087.5634                   22491083.1454
        44.0004         42.0004
 20  5 21  0  3 30.0000000  0 10G16G04G09G22G27G08G31G03G07G26
 -23699457.52247 -18351125.18846  20484994.1254                   20484985.9454
        47.0004         39.5004
 -27755934.09047 -21579197.56947  20235227.8914                   20235221.7384
        47.0004         42.0004
 -21351392.68447 -16623643.54448  21366170.9694                   21366165.2854
        47.2504         50.2504
  -2779590.73946  -2155346.03543  24948655.0554                   24948645.8094
        38.7504         19.7504
  -7340723.85747  -5699578.49046  23646613.7194                   23646607.6294
        43.0004         37.5004
  -1758692.63446  -1351740.65545  24800853.2344                   24800848.8364
        36.7504         30.0004
  30547568.96946  23872246.72544  25672463.6254                   25672457.6414
        41.2504         25.0004
 -12227507.03247  -9485288.98346  23009227.2664                   23009222.3674
        44.5004         40.0004
  -9178349.47247  -7094588.29546  23726274.2424                   23726267.0744
        43.5004         38.5004
 -11848939.14947  -9352795.76747  22507576.4694                   22507572.8754
        43.2504         42.0004
 20  5 21  0  4  0.0000000  0 10G16G04G09G22G27G08G31G03G07G26
 -23673237.65447 -18330694.12546  20489983.4534                   20489975.7424
        47.0004         39.0004
 -27759159.93047 -21581711.21847  20234614.3914                   20234607.6994
        47.0004         42.0004
 -21417947.01847 -16675504.07148  21353505.8834                   21353500.4144
        47.5004         50.5004
  -2675322.62746  -2074098.17843  24968496.1174                   24968486.9344
        39.5004         19.0004
  -7428760.96547  -5768178.85446  23629860.6254                   23629855.3404
        42.5004         39.0004
  -1859604.49146  -1430373.33344  24781650.4694                   24781645.7774
        37.5004         29.0004
  30638676.755 6                  25689799.984
        37.750
 -12125725.42447  -9405978.64846  23028596.0944                   23028591.2074
        44.5004         40.5004
  -9251092.28147  -7151271.00046  23712431.7344                   23712423.9694
        43.5004         38.5004
 -11761972.82047  -9285029.82246  22524126.8364                   22524121.4494
        43.2504         41.7504
 20  5 21  0  4 30.0000000  0 10G16G04G09G22G27G08G31G03G07G26
 -23646384.94447 -18309769.94246  20495093.6884                   20495085.3634
        47.0004         39.2504
 -27761948.74147 -21583884.34947  20234083.9064                   20234077.2544
        47.0004         42.0004
 -21484201.65147 -16727131.06048  21340898.2504                   21340892.7624
        47.7504         50.5004
  -2571088.78046  -1992876.98243  24988331.1334                   24988322.2384
        39.0004         19.7504
  -7516561.24446  -5836594.63246  23613152.2814                   23613147.1954
        41.7504         38.0004
  -1960566.09046  -1509044.74345  24762437.4304                   24762435.5234
        37.0004         31.0004
  30729729.568 5                  25707126.586
        32.000
 -12023740.09747  -9326509.58846  23048003.8914                   23047998.7154
        44.0004         40.5004
  -9323727.86747  -7207870.16346  23698608.7194                   23698601.7464
        43.5004         37.7504
 -11674697.17347  -9217022.84646  22540734.1024                   22540729.8874
        43.5004         41.7504
 20  5 21  0  5  0.0000000  0 10G16G04G09G22G27G08G31G03G07G26
 -23618905.79347 -18288357.62746  20500322.4614                   20500314.4774
        47.0004         39.5004
 -27764304.70647 -21585720.18347  20233635.3914                   20233628.8914
        47.0004         42.0004
 -21550159.66847 -16778526.92048  21328347.0944                   21328341.2384
        47.5004         50.5004
  -2466896.58746  -1911688.26043  25008156.9454                   25008148.6374
        36.2504         18.5004
  -7604126.35146  -5904827.19746  23596489.6334                   23596485.2194
        41.5004         38.5004
  -2061579.18245  -1587756.30645  24743215.2734                   24743213.4774
        35.5004         31.7504
  30820722.04846  23931438.35953  25724442.3914                   25724436.9614
        37.0004         20.7504
 -11921559.19247  -9246888.12746  23067447.7274                   23067443.0124
        43.7504         41.2504
  -9396261.14947  -7264389.60046  23684806.5084                   23684798.9104
        43.5004         37.5004
 -11587120.03147  -9148780.94446  22557399.5004                   22557395.4024
        43.2504         41.5004
 20  5 21  0  5 30.0000000  0 10G16G04G09G22G27G08G31G03G07G26
 -23590796.44147 -18266454.23846  20505671.5234                   20505663.5004
        47.5004         39.7504
 -27766221.38847 -21587213.72247  20233270.7504                   20233264.1214
        47.7504         42.0004
 -21615813.64547 -16829685.86448  21315853.2814                   21315847.8484
        47.2504         50.5004
  -2362743.33046  -1830529.94943  25027979.4924                   25027968.7194
        39.0004         19.2504
  -7691447.57146  -5972869.66546  23579872.3914                   23579868.1334
        41.2504         39.0004
  -2162635.86046  -1666501.78944  24723986.0704                   24723980.3364
        37.0004         28.5004
                                  25741746.6564                   25741742.2894
        26.2504         18.5004
 -11819180.26347  -9167112.36246  23086929.8984                   23086924.8054
        44.7504         41.0004
  -9468686.98947  -7320825.32046  23671023.7974                   23671016.7424
        43.5004         37.0004
 -11499238.65347  -9080301.97446  22574123.3674                   22574118.3324
        43.0004         41.5004
 20  5 21  0  6  0.0000000  0 10G16G04G09G22G27G08G31G03G07G26
 -23562067.89647 -18244068.36546  20511138.2344                   20511129.9774
        47.2504         39.7504
 -27767707.45147 -21588371.70647  20232988.1644                   20232981.5784
        46.7504         42.0004
 -21681171.06947 -16880613.72648  21303416.2504                   21303410.4804
        47.7504         50.5004
  -2258640.80346  -1749411.07742  25047787.3834                   25047778.0004
        36.5004         17.7504
  -7778531.00447  -6040726.88046  23563301.2114                   23563296.0984
        42.0004         39.0004
  -2263742.50546  -1745286.22645  24704746.0554                   24704741.2304
        38.2504         30.0004
    363253.59256  24000695.77253  25759040.0634                   25759033.5354
        37.7504         19.5004
 -11716615.82947  -9087192.03546  23106447.0004                   23106442.3404
        43.7504         41.0004
  -9541014.32847  -7377184.28746  23657260.3984                   23657253.6024
        43.0004         37.5004
 -11411065.18847  -9011595.40346  22590901.6564                   22590897.5434
        43.2504         41.5004
 20  5 21  0  6 30.0000000  0 10G16G04G09G22G27G08G31G03G07G26
 -23532711.66147 -18221193.38246  20516724.6414                   20516716.8014
        47.0004         39.2504
 -27768751.68347 -21589185.40947  20232788.9384                   20232782.5864
        47.5004         42.2504
 -21746219.65247 -16931300.94448  21291037.7114                   21291032.0434
        47.0004         50.5004
  -2154581.36846  -1668325.79243  25067590.1954                   25067580.3634
        38.7504         19.5004
  -7865363.04546  -6108388.25246  23546777.2034                   23546772.3634
        41.5004         38.5004
  -2364886.48946  -1824099.78045  24685499.5554                   24685494.5554
        39.0004         30.5004
    454069.86846  24071461.88943  25776322.0004                   25776315.1484
        40.5004         22.0004
 -11613858.62347  -9007121.50146  23126001.0634                   23125996.4414
        43.0004         40.5004
  -9613233.18447  -7433458.72746  23643518.0164                   23643510.8014
        44.0004         38.5004
 -11322592.02547  -8942655.30146  22607737.9534                   22607733.4884
        43.0004         41.5004
 20  5 21  0  7  0.0000000  0 10G16G04G09G22G27G08G31G03G07G26
 -23502733.25747 -18197833.58346  20522429.3524                   20522420.9654
        47.2504         38.7504
 -27769357.06848 -21589657.15547  20232674.1644                   20232667.7774
        48.2504         42.0004
 -21810961.30948 -16981748.98648  21278717.9224                   21278712.0354
        48.2504         50.5004
  -2050571.43546  -1587279.16343  25087381.8984                   25087373.0864
        38.7504         19.5004
  -7951944.21946  -6175854.10046  23530301.0004                   23530296.9924
        41.0004         38.2504
  -2466068.02846  -1902942.68744  24666244.7034                   24666240.3284
        38.5004         29.5004
    544826.67546  24142181.43944  25793592.3364                   25793585.5594
        41.0004         25.7504
 -11510915.55547  -8926906.14846  23145591.0634                   23145586.0594
        43.7504         40.0004
  -9685347.53747  -7489651.72746  23629795.7584                   23629788.1414
        44.5004         39.0004
 -11233825.70347  -8873486.76146  22624629.8134                   22624625.0394
        43.2504         41.7504
 20  5 21  0  7 30.0000000  0 10G16G04G09G22G27G08G31G03G07G26
 -23472133.49747 -18173989.61746  20528252.5704                   20528244.0354
        47.5004         39.2504
 -27769522.10147 -21589785.76647  20232642.7504                   20232636.1804
        47.0004         42.2504
 -21875393.36547 -17031955.78848  21266457.1024                   21266451.1214
        47.7504         50.5004
  -1946612.70446  -1506272.45943  25107166.9304                   25107155.4344
        40.7504         19.0004
  -8038270.50747  -6243121.36146  23513874.8754                   23513868.9804
        42.2504         38.5004
  -2567284.24045  -1981812.42944  24646982.3754                   24646980.3014
        35.2504         27.0004
    635524.11346  24212854.66243  25810850.6024                   25810844.7424
        39.0004         21.2504
 -11407789.03347  -8846547.85546  23165215.3754                   23165210.1724
        43.7504         39.7504
  -9757356.46547  -7545762.58046  23616092.0634                   23616085.5554
        44.0004         39.5004
 -11144768.27947  -8804091.38046  22641576.2344                   22641572.1334
        43.0004         41.5004
 20  5 21  0  8  0.0000000  0 10G16G04G09G22G27G08G31G03G07G26
 -23440914.07847 -18149662.80246  20534193.3834                   20534185.0514
        47.2504         38.7504
 -27769245.60448 -21589570.32147  20232695.2274                   20232688.3874
        48.0004         42.2504
 -21939513.51948 -17081919.55448  21254255.1334                   21254249.6524
        48.0004         50.7504
  -1842707.57746  -1425307.40643  25126937.7424                   25126928.2274
        39.7504         20.7504
  -8124338.30246  -6310187.22546  23497496.3364                   23497490.0784
        41.5004         37.2504
  -2668531.87546  -2060706.72745  24627716.6564                   24627714.0314
        36.0004         30.0004
    726161.946 5                  25828099.133
        35.750
 -11304481.72747  -8766048.67846  23184873.3054                   23184868.6134
        44.5004         40.0004
  -9829259.74947  -7601791.09946  23602409.6804                   23602402.7934
        44.2504         39.5004
 -11055422.07047  -8734470.98546  22658578.8984                   22658574.0354
        42.7504         41.0004
 20  5 21  0  8 30.0000000  0  9G16G04G09G22G27G08G03G07G26
 -23409074.41447 -18124852.67846  20540252.1484                   20540243.7934
        47.0004         39.0004
 -27768524.40647 -21589008.35947  20232832.4534                   20232825.7544
        47.5004         42.5004
 -22003317.50348 -17131636.95648  21242113.7344                   21242108.1134
        48.0004         50.7504
  -1738855.92546  -1344384.04543  25146698.7344                   25146690.5084
        38.0004         21.0004
  -8210141.85946  -6377047.15346  23481168.1174                   23481163.8874
        41.7504         39.0004
  -2769805.70046  -2139621.38645  24608445.6334                   24608441.7624
        38.5004         30.5004
 -11200994.35847  -8685409.18946  23204566.5784                   23204561.7584
        43.5004         40.0004
  -9901055.11947  -7657735.56046  23588748.1724                   23588739.9654
        44.2504         39.2504
 -10965787.49047  -8664625.87646  22675635.6094                   22675630.8324
        43.0004         41.5004
 20  5 21  0  9  0.0000000  0 10G16G04G09G22G27G08G31G03G07G26
 -23376624.45947 -18099566.99846  20546426.9144                   20546419.1684
        47.2504         39.5004
 -27767365.86547 -21588105.60847  20233053.2194                   20233046.2934
        47.0004         42.2504
 -22066811.50547 -17181112.81448  21230031.2734                   21230025.4574
        47.7504         51.0004
  -1635068.31547  -1263510.65243  25166453.1724                   25166440.9414
        42.5004         19.2504
  -8295686.21046  -6443705.04046  23464888.9924                   23464884.5234
        41.2504         37.2504
  -2871110.80946  -2218560.60244  24589167.1024                   24589162.9734
        37.0004         29.5004
    907247.20355  24239063.77053  25862559.4924                   25862553.6604
        34.0004         19.7504
 -11097338.17047  -8604638.14846  23224291.5554                   23224287.3444
        43.5004         39.2504
  -9972750.63047  -7713602.18546  23575104.1174                   23575097.0904
        43.0004         38.7504
 -10875875.44947  -8594564.57446  22692745.3204                   22692740.4694
        43.0004         40.5004
 20  5 21  0  9 30.0000000  0 10G16G04G09G22G27G08G31G03G07G26
 -23343557.71447 -18073800.70646  20552719.5474                   20552711.2114
        47.2504         39.0004
 -27765760.82847 -21586854.93347  20233358.5784                   20233352.0164
        46.7504         42.2504
 -22129985.16748 -17230339.05848  21218009.7814                   21218004.4104
        48.0004         51.0004
  -1531339.12346  -1182682.75443  25186187.7734                   25186180.7974
        36.7504         19.2504
  -8380959.53846  -6510151.85146  23448662.1644                   23448658.3284
        41.5004         39.0004
  -2972436.04346  -2297515.27145  24569886.2584                   24569881.6414
        38.7504         32.0004
    997703.75146  24309549.32743  25879773.4064                   25879767.5044
        38.7504         22.0004
 -10993507.85747  -8523731.44646  23244050.3364                   23244045.6764
        42.7504         39.7504
 -10044337.74047  -7769384.36746  23561481.7814                   23561474.5864
        44.5004         38.7504
 -10785680.21447  -8524282.58746  22709908.6334                   22709904.0354
        42.5004         40.5004
 20  5 21  0 10  0.0000000  0 10G16G04G09G22G27G08G31G03G07G26
 -23309879.01547 -18047557.56046  20559128.6174                   20559120.4264
        47.2504         39.0004
 -27763711.52947 -21585258.08447  20233748.4694                   20233742.0514
        47.0004         42.5004
 -22192839.55647 -17279316.51748  21206049.1414                   21206043.6954
        47.5004         51.0004
  -1427674.11146  -1101904.83143  25205915.6954                   25205907.0124
        38.7504         18.2504
  -8465961.56046  -6576387.16846  23432486.0084                   23432483.4304
        40.5004         40.7504
  -3073781.54046  -2376485.83245  24550600.8444                   24550595.9774
        38.5004         32.0004
   1088098.92846  24379987.15343  25896975.1724                   25896969.8834
        36.2504         21.2504
 -10889509.48647  -8442693.76846  23263840.1564                   23263835.7934
        43.2504         39.2504
 -10115819.89747  -7825084.74946  23547879.3754                   23547872.2584
        43.7504         39.2504
 -10695207.56047  -8453784.43746  22727124.8594                   22727120.6804
        42.5004         40.5004
 20  5 21  0 10 30.0000000  0 10G16G04G09G22G27G08G31G03G07G26
 -23275588.93048 -18020838.01446  20565653.7344                   20565645.6644
        48.0004         39.0004
 -27761215.78147 -21583313.34247  20234223.0164                   20234216.7854
        47.0004         42.0004
 -22255371.34747 -17328042.59248  21194149.8984                   21194143.8244
        47.2504         51.0004
  -1324074.24146  -1021177.69543  25225629.9924                   25225621.2464
        36.5004         18.5004
  -8550687.74847  -6642407.47946  23416364.6024                   23416359.8834
        43.2504         41.0004
  -3175143.32246  -2455469.04445  24531312.0474                   24531308.9344
        38.0004         33.5004
   1178433.97146  24450377.98743  25914165.4224                   25914159.7734
        37.2504         20.2504
 -10785344.72547  -8361526.47246  23283662.5864                   23283658.1024
        44.0004         40.0004
 -10187195.64447  -7880702.20546  23534297.4844                   23534290.1094
        42.0004         39.0004
 -10604458.76747  -8383071.10646  22744394.0004                   22744389.9144
        42.2504         40.2504
 20  5 21  0 11  0.0000000  0  9G16G04G09G22G27G08G03G07G26
 -23240688.91447 -17993643.20046  20572295.1954                   20572286.9844
        47.7504         39.2504
 -27758272.81047 -21581020.12247  20234783.5394                   20234777.0044
        46.7504         42.0004
 -22317578.52047 -17376515.71348  21182312.1094                   21182306.2304
        47.5004         51.0004
  -1220541.77446   -940502.95742  25245331.3524                   25245323.7544
        36.5004         17.2504
  -8635134.54447  -6708210.25446  23400295.0314                   23400290.6024
        43.5004         41.7504
  -3276518.14046  -2534462.43145  24512021.2504                   24512017.2154
        38.2504         32.7504
 -10681016.62047  -8280231.86646  23303515.6094                   23303510.6844
        43.0004         38.5004
 -10258464.63447  -7936236.47246  23520734.7974                   23520727.2664
        44.5004         39.2504
 -10513436.46147  -8312144.67646  22761715.2034                   22761710.8524
        42.7504         41.0004
 20  5 21  0 11 30.0000000  0  9G16G04G09G22G27G08G03G07G26
 -23205183.42347 -17965976.58146  20579051.2814                   20579043.3204
        47.5004         39.2504
 -27754883.97348 -21578379.47947  20235428.3204                   20235421.8794
        48.0004         42.2504
 -22379461.21947 -17424736.00548  21170536.0164                   21170530.3164
        47.7504         51.0004
  -1117081.17246   -859884.46142  25265021.7194                   25265011.3134
        38.5004         16.7504
  -8719300.98747  -6773794.43546  23384277.8284                   23384274.5234
        42.7504         41.2504
  -3377904.83946  -2613465.01745  24492728.3594                   24492724.6294
        37.0004         30.7504
 -10576530.24447  -8198813.94046  23323398.6174                   23323393.7344
        43.5004         39.5004
 -10329628.90647  -7991689.14946  23507192.4694                   23507185.6724
        44.0004         39.5004
 -10422145.49747  -8241008.88746  22779087.2974                   22779082.9734
        42.0004         41.0004
 20  5 21  0 12  0.0000000  0  9G16G04G09G22G27G08G03G07G26
 -23169073.36847 -17937838.87846  20585922.8054                   20585914.6414
        47.5004         39.0004
 -27751047.64347 -21575390.13347  20236158.2894                   20236151.7624
        47.0004         42.2504
 -22441016.58947 -17472701.23048  21158822.3284                   21158816.5744
        47.5004         51.0004
  -1013694.23045   -779323.12642  25284692.0314                   25284685.6914
        35.5004         16.2504
  -8803182.73846  -6839156.86546  23368315.3674                   23368310.5744
        40.5004         37.5004
  -3479300.32746  -2692474.57245  24473433.3524                   24473428.7504
        37.5004         31.0004
 -10471887.90647  -8117274.48246  23343310.5944                   23343306.5594
        42.2504         39.5004
 -10400687.72547  -8047059.65846  23493670.7974                   23493663.2274
        44.0004         39.5004
 -10330587.68847  -8169665.17146  22796510.4774                   22796505.8164
        42.7504         40.7504
 20  5 21  0 12 30.0000000  0  9G16G04G09G22G27G08G03G07G26
 -23132359.48647 -17909230.66746  20592909.0634                   20592901.1564
        47.2504         39.0004
 -27746761.80647 -21572050.52047  20236973.9534                   20236967.8874
        46.7504         42.0004
 -22502241.34747 -17520408.83748  21147171.7424                   21147166.1454
        47.5004         51.2504
   -910381.91145   -698819.99742  25304351.3834                   25304345.5394
        34.7504         17.7504
  -8886775.42446  -6904293.95946  23352409.3054                   23352404.3554
        41.7504         38.0004
  -3580700.48146  -2771487.65345  24454135.8984                   24454133.7234
        36.5004         30.0004
 -10367091.24947  -8035614.77746  23363253.1724                   23363248.1454
        43.0004         38.7504
 -10471640.19547  -8102347.29046  23480168.7344                   23480161.3594
        44.5004         40.0004
 -10238764.38547  -8098114.57946  22813983.3594                   22813979.2854
        42.0004         41.0004
 20  5 21  0 13  0.0000000  0  9G16G04G09G22G27G08G03G07G26
 -23095044.40647 -17880153.98246  20600009.6564                   20600001.9844
        47.7504         39.0004
 -27742026.50247 -21568360.69147  20237874.8984                   20237868.6954
        46.7504         42.0004
 -22563134.36147 -17567857.94348  21135584.6174                   21135578.7234
        47.7504         51.5004
   -807148.14646   -618378.13743  25323995.5314                   25323989.7384
        36.0004         18.5004
  -8970076.22947  -6969203.69246  23336557.3594                   23336552.7854
        42.0004         37.0004
  -3682102.39546  -2850502.16444  24434840.9454                   24434836.4144
        37.0004         29.2504
 -10262144.13447  -7953837.82646  23383224.6254                   23383219.2154
        42.7504         39.2504
 -10542486.83947  -8157552.47046  23466687.8054                   23466679.6254
        44.5004         39.7504
 -10146679.08147  -8026359.81946  22831507.0944                   22831502.4144
        42.5004         40.5004
 20  5 21  0 13 30.0000000  0  9G16G04G09G22G27G08G03G07G26
 -23057129.79047 -17850610.11946  20607224.8364                   20607216.9574
        47.5004         39.0004
 -27736840.75747 -21564319.86447  20238861.7734                   20238855.1334
        47.2504         42.2504
 -22623693.25747 -17615046.70448  21124060.3364                   21124054.7034
        47.7504         51.5004
   -703994.67346   -537998.81443  25343627.4924                   25343619.3244
        37.5004         19.5004
  -9053081.88146  -7033883.47846  23320760.7664                   23320756.0904
        40.7504         37.5004
  -3783503.41846  -2929515.99445  24415545.8204                   24415540.8164
        38.5004         31.0004
 -10157049.27247  -7871945.75546  23403222.8674                   23403218.5784
        42.5004         38.5004
 -10613227.17047  -8212674.81146  23453226.1174                   23453218.2624
        44.5004         39.7504
 -10054334.09647  -7954402.70546  22849079.1644                   22849074.7934
        42.2504         40.0004
 20  5 21  0 14  0.0000000  0  9G16G04G09G22G27G08G03G07G26
 -23018617.57447 -17820600.60646  20614553.5234                   20614545.2274
        47.2504         38.5004
 -27731203.61847 -21559927.30947  20239934.5474                   20239927.9534
        47.2504         42.5004
 -22683915.98348 -17661973.49448  21112600.5474                   21112594.8754
        48.0004         51.5004
   -600923.43046   -457683.68743  25363242.8054                   25363232.8324
        39.5004         19.7504
  -9135788.66447  -7098330.30147  23305024.3834                   23305020.3094
        43.5004         42.7504
  -3884900.41346  -3008526.67045  24396250.5084                   24396245.9184
        39.7504         30.5004
 -10051809.56947  -7789940.82846  23423249.9694                   23423244.8594
        42.0004         38.2504
 -10683861.30347  -8267714.40246  23439784.2974                   23439776.8134
        44.2504         39.7504
  -9961732.00747  -7882245.25446  22866701.3284                   22866696.8874
        42.5004         39.7504
 20  5 21  0 14 30.0000000  0  9G16G04G09G22G27G08G03G07G26
 -22979509.22948 -17790126.56846  20621995.5554                   20621987.8914
        48.0004         39.0004
 -27725113.81948 -21555182.02347  20241093.1954                   20241086.6024
        48.2504         42.0004
 -22743799.95548 -17708636.33848  21101205.1804                   21101198.9924
        48.2504         51.5004
   -497936.64546   -377434.25443  25382839.5944                   25382831.3094
        36.5004         19.2504
  -9218192.93147  -7162541.39046  23289341.8444                   23289336.7464
        42.0004         39.5004
  -3986289.80646  -3087531.45145  24376956.9774                   24376952.1134
        38.7504         32.5004
  -9946427.52347  -7707824.96346  23443303.5704                   23443298.1214
        43.2504         38.2504
 -10754388.37247  -8322670.55546  23426363.9534                   23426356.6884
        44.7504         39.7504
  -9868874.86846  -7809889.08346  22884371.1564                   22884366.5434
        41.5004         39.5004
 20  5 21  0 15  0.0000000  0  9G16G04G09G22G27G08G03G07G26
 -22939807.55348 -17759190.19546  20629550.5314                   20629542.5474
        48.5004         38.5004
 -27718571.35447 -21550084.00746  20242338.3834                   20242331.8324
        47.7504         41.5004
 -22803343.85148 -17755034.19148  21089874.1024                   21089868.2384
        48.5004         51.5004
   -395037.38546   -297252.98343  25402419.8674                   25402412.0434
        37.0004         18.2504
  -9300291.86947  -7226514.63247  23273720.7344                   23273716.0784
        44.0004         43.2504
  -4087669.11246  -3166528.34745  24357664.3754                   24357660.2624
        37.5004         32.0004
  -9840906.75246  -7625601.01846  23463382.8914                   23463378.4884
        41.5004         37.7504
 -10824809.16447  -8377543.89646  23412962.9454                   23412955.7624
        43.2504         41.0004
  -9775765.95847  -7737336.71546  22902089.8204                   22902084.5554
        42.5004         40.0004
 20  5 21  0 15 30.0000000  0  9G16G04G09G22G27G08G03G07G26
 -22899514.03947 -17727792.66346  20637218.1954                   20637210.1564
        47.7504         39.0004
 -27711575.02347 -21544632.34347  20243669.8754                   20243663.1524
        47.0004         42.0004
 -22862545.18748 -17801165.10048  21078608.6644                   21078602.6524
        49.0004         51.5004
  26489912.77456  20652058.68553  25421988.6804                   25421977.0904
        40.0004         18.2504
  -9382081.91046  -7290247.01246  23258154.4534                   23258151.5314
        41.2504         40.0004
  -4189034.87046  -3245514.65945  24338374.8834                   24338370.5904
        37.5004         32.7504
  -9735249.82347  -7543270.96846  23483489.0784                   23483484.1724
        42.2504         38.2504
 -10895123.43647  -8432334.23146  23399582.4614                   23399575.4534
        44.5004         41.2504
  -9682407.49946  -7664589.88746  22919854.1334                   22919849.8054
        41.7504         39.7504
 20  5 21  0 16  0.0000000  0  9G16G04G09G22G27G08G03G07G26
 -22858630.83047 -17695935.61446  20644998.1414                   20644989.8444
        47.7504         39.0004
 -27704124.30247 -21538826.60947  20245087.4144                   20245081.3554
        47.0004         42.2504
 -22921402.06948 -17847027.61048  21067408.0944                   21067402.6214
        48.2504         51.5004
  26592631.08846  20711043.96652  25441532.5704                   25441520.8204
        37.2504         16.7504
  -9463559.63047  -7353736.23946  23242651.5004                   23242645.5394
        43.5004         39.7504
  -4290383.91446  -3324487.97045  24319089.2894                   24319085.0354
        37.0004         32.5004
  -9629459.79746  -7460837.20746  23503619.6024                   23503615.3094
        41.5004         38.0004
 -10965330.58747  -8487041.09346  23386223.0554                   23386215.6684
        44.0004         40.7504
  -9588802.15347  -7591650.67946  22937667.5474                   22937663.1954
        42.2504         39.7504
 20  5 21  0 16 30.0000000  0  9G16G04G09G22G27G08G03G07G26
 -22817159.84347 -17663620.57046  20652890.0704                   20652881.6724
        47.7504         38.7504
 -27696218.46047 -21532666.23147  20246592.0394                   20246585.4964
        47.2504         42.0004
 -22979912.49148 -17892620.15248  21056274.2734                   21056268.1914
        48.0004         51.5004
  26695255.04645  20791010.74642  25461058.5554                   25461052.0984
        33.2504         16.2504
  -9544722.01546  -7416979.56846  23227204.2584                   23227201.8554
        40.5004         39.5004
  -4391713.93946  -3403446.45545  24299805.9924                   24299802.2234
        36.2504         32.0004
  -9523539.74047  -7378302.13446  23523776.2344                   23523770.9654
        42.0004         38.0004
 -11035430.72047  -8541664.56246  23372883.1564                   23372875.8404
        43.0004         40.7504
  -9494952.60147  -7518521.17246  22955525.6484                   22955521.7274
        42.0004         39.5004
 20  5 21  0 17  0.0000000  0  9G16G04G09G22G27G08G03G07G26
 -22775103.15247 -17630849.12446  20660892.9144                   20660884.7974
        47.5004         38.2504
 -27687856.70747 -21526150.59247  20248182.8444                   20248176.6644
        46.5004         42.0004
 -23038074.34647 -17937941.07848  21045206.2814                   21045200.6994
        47.7504         51.5004
  26797782.77046  20870902.49642  25480568.9454                   25480563.1724
        37.7504         16.2504
  -9625565.37347  -7479974.44246  23211820.8754                   23211815.8954
        42.0004         37.5004
  -4493021.43246  -3482387.34845  24280527.6484                   24280524.8794
        37.0004         34.2504
  -9417492.48546  -7295667.91546  23543955.7274                   23543951.5204
        41.2504         37.5004
 -11105423.99347  -8596204.76046  23359563.7894                   23359556.5664
        45.0004         41.2504
  -9400861.32247  -7445203.32746  22973431.5004                   22973427.0634
        42.5004         40.5004
 20  5 21  0 17 30.0000000  0  9G16G04G09G22G27G08G03G07G26
 -22732462.80748 -17597622.89346  20669007.1254                   20668999.2774
        48.5004         39.0004
 -27679038.39747 -21519279.19946  20249861.2974                   20249854.5474
        47.2504         41.7504
 -23095885.58948 -17982988.81348  21034204.9924                   21034199.5044
        48.2504         51.5004
  26900211.682 6                  25500062.836
        37.750
  -9706086.55247  -7542718.19146  23196498.5784                   23196494.5394
        42.7504         40.0004
  -4594303.21746  -3561308.22145  24261255.7344                   24261251.6954
        38.2504         33.0004
  -9311320.97346  -7212936.91546  23564160.0864                   23564154.9964
        41.2504         38.5004
 -11175310.42447  -8650661.70746  23346265.2504                   23346257.3984
        45.0004         40.5004
  -9306530.91347  -7371699.13046  22991381.7194                   22991377.5164
        42.2504         39.0004
 20  5 21  0 18  0.0000000  0  9G16G04G09G22G27G08G03G07G26
 -22689240.98647 -17563943.54946  20677231.8204                   20677223.9804
        47.7504         38.7504
 -27669762.91047 -21512051.56046  20251626.3524                   20251619.3954
        47.5004         41.7504
 -23153344.26548 -18027761.80648  21023271.1564                   21023265.1724
        48.0004         51.7504
  27002539.29846  20958747.06152  25519534.9384                   25519525.2934
        38.5004         17.7504
  -9786282.25847  -7605208.33946  23181238.3204                   23181233.8404
        43.0004         40.7504
  -4695556.44646  -3640206.86145  24241987.3364                   24241983.6884
        38.5004         34.0004
  -9205028.31646  -7130111.51746  23584387.0554                   23584382.0434
        41.5004         38.5004
 -11245089.85447  -8705035.28346  23332986.1094                   23332978.8164
        45.0004         40.5004
  -9211963.96347  -7298010.64046  23009377.7664                   23009372.7424
        42.2504         39.0004
 20  5 21  0 18 30.0000000  0  9G16G04G09G22G27G08G03G07G26
 -22645439.62948 -17529812.62646  20685567.2274                   20685559.0274
        48.2504         39.2504
 -27660029.13647 -21504466.80846  20253478.4304                   20253472.0354
        47.7504         41.7504
 -23210447.92747 -18072258.17348  21012404.7504                   21012398.9104
        47.7504         51.7504
  27104764.10345  21038402.70042  25538986.3594                   25538978.2624
        34.7504         16.2504
  -9866148.81747  -7667442.01046  23166040.5234                   23166035.5084
        44.2504         40.2504
  -4796777.82346  -3719080.69245  24222726.1094                   24222721.8954
        39.5004         34.0004
  -9098616.98646  -7047193.63946  23604636.3914                   23604631.3554
        41.2504         37.7504
 -11314761.46347  -8759324.85346  23319728.7034                   23319720.5594
        45.0004         40.7504
  -9117162.68347  -7224139.53746  23027417.5864                   23027412.9064
        42.7504         39.2504
 20  5 21  0 19  0.0000000  0  9G16G04G09G22G27G08G03G07G26
 -22601061.02248 -17495231.89846  20694012.1884                   20694003.6024
        48.0004         38.0004
 -27649836.90448 -21496524.82147  20255418.0164                   20255411.7384
        48.0004         42.0004
 -23267194.95648 -18116476.64248  21001606.1094                   21001600.4384
        48.0004         52.0004
  27206883.13346  21117975.85142  25558419.8674                   25558410.8794
        36.7504         17.7504
  -9945683.27447  -7729416.95746  23150905.0864                   23150901.3834
        43.7504         41.5004
  -4897964.58346  -3797927.53945  24203470.4384                   24203465.9574
        38.5004         33.0004
  -8992090.35246  -6964185.90546  23624907.1334                   23624903.0554
        41.0004         37.5004
 -11384325.90047  -8813530.89446  23306490.5084                   23306483.5084
        44.0004         41.2504
  -9022129.99446  -7150088.12246  23045501.3594                   23045497.0474
        41.5004         39.2504
 20  5 21  0 19 30.0000000  0  9G16G04G09G22G27G08G03G07G26
 -22556106.84748 -17460202.68446  20702566.5704                   20702558.2774
        48.5004         38.5004
 -27639184.82848 -21488224.50747  20257445.1644                   20257438.7384
        48.2504         42.0004
 -23323582.61448 -18160415.08548  20990875.6334                   20990870.2504
        48.7504         52.0004
  27308894.79246  21197465.40143  25577831.6484                   25577822.8874
        37.2504         19.2504
 -10024881.74747  -7791129.99746  23135834.6804                   23135830.2854
        44.0004         41.5004
  -4999112.66746  -3876744.27545  24184222.0004                   24184218.3984
        37.5004         32.2504
  -8885450.63946  -6881090.06446  23645199.9614                   23645195.5234
        40.7504         36.5004
 -11453782.64247  -8867653.02846  23293273.0784                   23293265.5864
        44.0004         40.2504
  -8926867.85546  -7075857.90446  23063629.1564                   23063625.0474
        41.5004         38.5004
 20  5 21  0 20  0.0000000  0  9G16G04G09G22G27G08G03G07G26
 -22510575.15948 -17424723.45646  20711230.6254                   20711222.9104
        48.7504         38.7504
 -27628068.23948 -21479562.24747  20259560.3594                   20259553.7584
        48.2504         42.0004
 -23379604.79048 -18204068.73148  20980215.2274                   20980209.4654
        48.7504         52.0004
                                  25597226.086
        28.750
 -10103736.71147  -7852575.44246  23120828.2034                   23120824.7584
        42.5004         41.5004
  -5100214.98146  -3955525.30745  24164983.2344                   24164979.6134
        37.0004         33.0004
  -8778696.80146  -6797905.28546  23665515.1094                   23665510.0944
        41.7504         36.7504
 -11523127.23947  -8921687.76346  23280077.3054                   23280069.7234
        44.7504         40.5004
  -8831374.62547  -7001447.61846  23081800.4384                   23081796.6844
        42.0004         38.7504
 20  5 21  0 20 30.0000000  0  8G16G04G09G27G08G03G07G26
 -22464477.14848 -17388802.93146  20720003.0004                   20719995.2584
        48.2504         38.5004
 -27616495.73348 -21470544.74546  20261763.0394                   20261756.4534
        48.5004         41.7504
 -23435268.73348 -18247443.24348  20969622.7504                   20969616.9144
        48.5004         52.0004
 -10182254.20047  -7913757.84346  23105886.7664                   23105883.3524
        42.2504         41.5004
  -5201277.69146  -4034275.45345  24145753.4144                   24145747.9964
        38.0004         32.7504
  -8671840.92946  -6714640.99146  23685849.0164                   23685844.0234
        40.7504         36.2504
 -11592368.83747  -8975642.24446  23266901.4694                   23266893.5944
        44.2504         40.5004
  -8735662.18646  -6926866.52546  23100014.2664                   23100010.2274
        41.7504         38.5004
 20  5 21  0 21  0.0000000  0  8G16G04G09G27G08G03G07G26
 -22417810.43348 -17352439.26746  20728883.3204                   20728875.4384
        48.2504         38.5004
 -27604461.84448 -21461167.71846  20264053.2814                   20264046.3364
        48.0004         41.7504
 -23490567.46548 -18290533.17348  20959099.6414                   20959093.9694
        49.5004         52.2504
 -10260426.08947  -7974670.98946  23091011.1724                   23091006.7234
        43.7504         41.0004
  -5302293.00146  -4112988.67245  24126529.4144                   24126524.9104
        37.5004         32.2504
  -8564881.11546  -6631295.69646  23706202.3984                   23706197.9494
        40.5004         36.7504
 -11661502.08747  -9029512.31046  23253745.7344                   23253738.3714
        43.2504         40.7504
  -8639728.14247  -6852112.75946  23118270.0864                   23118265.8834
        42.0004         38.5004
 20  5 21  0 21 30.0000000  0  8G16G04G09G27G08G03G07G26
 -22370577.25448 -17315634.20246  20737871.4694                   20737863.8914
        48.0004         39.0004
 -27591966.16448 -21451430.84446  20266430.4534                   20266423.8714
        48.2504         41.5004
 -23545499.25348 -18333337.16348  20948646.3524                   20948641.0164
        49.0004         52.2504
 -10338249.20847  -8035312.36846  23076202.3134                   23076197.6914
        45.0004         40.5004
  -5403257.93446  -4191662.63245  24107316.4534                   24107311.9414
        37.5004         34.0004
  -8457820.53746  -6547871.90446  23726574.8134                   23726571.4344
        40.2504         36.7504
 -11730527.56247  -9083298.38846  23240609.9694                   23240602.9884
        43.5004         41.2504
  -8543575.33347  -6777188.51046  23136567.7424                   23136563.2034
        42.5004         38.2504
 20  5 21  0 22  0.0000000  0  8G16G04G09G27G08G03G07G26
 -22322779.76747 -17278389.41846  20746967.0944                   20746959.0084
        47.5004         38.0004
 -27579008.02248 -21441333.61646  20268896.5084                   20268890.0354
        48.0004         41.5004
 -23600061.90248 -18375853.51848  20938263.5004                   20938258.0944
        49.2504         52.5004
 -10415720.26147  -8095679.44046  23061459.5554                   23061455.2424
        44.5004         40.5004
  -5504169.30146  -4270294.84345  24088113.3984                   24088110.2344
        38.2504         34.7504
  -8350661.96946  -6464371.77846  23746968.1884                   23746962.6914
        41.2504         37.2504
 -11799445.32747  -9137000.54246  23227495.7034                   23227488.9534
        43.5004         41.5004
  -8447206.06047  -6702095.59946  23154906.1334                   23154901.9454
        42.5004         38.7504
 20  5 21  0 22 30.0000000  0  8G16G04G09G27G08G03G07G26
 -22274420.67347 -17240707.01146  20756169.5634                   20756161.4144
        47.5004         38.7504
 -27565587.16947 -21430875.81946  20271450.2424                   20271443.6484
        47.5004         41.5004
 -23654253.76048 -18418080.94948  20927951.4064                   20927945.5984
        49.5004         52.2504
 -10492836.28547  -8155769.85046  23046786.2664                   23046780.5164
        45.2504         40.5004
  -5605024.09446  -4348883.01445  24068921.6804                   24068917.7274
        39.2504         34.7504
  -8243408.73246  -6380797.84646  23767376.0474                   23767372.7734
        40.0004         37.0004
 -11868255.10347  -9190618.53746  23214402.3284                   23214394.6334
        44.5004         41.7504
  -8350623.24347  -6626836.29246  23173285.4694                   23173280.9414
        43.0004         38.2504
 20  5 21  0 23  0.0000000  0  8G16G04G09G27G08G03G07G26
 -22225501.48547 -17202588.16946  20765478.5704                   20765470.4614
        47.5004         38.0004
 -27551702.57847 -21420056.67746  20274092.7114                   20274086.1644
        47.5004         41.7504
 -23708072.36548 -18460017.53048  20917710.2344                   20917704.1954
        50.0004         52.2504
 -10569593.62347  -8215580.75446  23032179.0704                   23032174.3754
        44.0004         40.7504
  -5705818.75546  -4427424.32045  24049740.6884                   24049736.8484
        39.7504         34.7504
  -8136063.23146  -6297152.04946  23787805.0704                   23787800.0044
        40.5004         36.5004
 -11936956.28347  -9244151.91846  23201328.5634                   23201321.4494
        43.7504         41.7504
  -8253828.97047  -6551412.22146  23191705.4064                   23191700.8404
        42.2504         38.5004
 20  5 21  0 23 30.0000000  0  8G16G04G09G27G08G03G07G26
 -22176024.24947 -17164034.48146  20774893.7034                   20774885.3914
        47.7504         38.7504
 -27537353.57147 -21408875.64746  20276823.3054                   20276816.7234
        47.7504         41.5004
 -23761515.43448 -18501661.48648  20907540.0474                   20907534.2544
        49.5004         52.2504
 -10645988.75647  -8275109.43046  23017641.2504                   23017636.8204
        44.0004         41.0004
  -5806550.35646  -4505916.48145  24030571.5234                   24030568.1214
        38.0004         33.5004
  -8028628.15846  -6213436.45846  23808248.6954                   23808244.0664
        40.5004         36.0004
 -12005549.14947  -9297600.89646  23188275.7894                   23188268.4734
        44.5004         41.7504
  -8156825.50547  -6475825.11846  23210163.2114                   23210159.7274
        42.2504         38.7504
 20  5 21  0 24  0.0000000  0  8G16G04G09G27G08G03G07G26
 -22125992.31647 -17125048.57346  20784414.9384                   20784406.3754
        47.7504         37.7504
 -27522539.99748 -21397332.63046  20279642.0474                   20279635.4844
        48.0004         41.5004
 -23814581.37648 -18543011.56848  20897442.1094                   20897436.3204
        50.0004         52.2504
 -10722018.88147  -8334353.65146  23003173.5394                   23003169.0234
        43.5004         41.0004
  -5907215.72346  -4584357.03045  24011416.4534                   24011412.8014
        38.2504         34.0004
  -7921106.90946  -6129653.68545  23828709.4144                   23828704.2704
        40.5004         35.7504
 -12074033.10847  -9350965.00846  23175243.8364                   23175236.4024
        43.7504         41.5004
  -8059615.77747  -6400077.32246  23228662.8754                   23228658.0514
        42.7504         38.5004
 20  5 21  0 24 30.0000000  0  8G16G04G09G27G08G03G07G26
 -22075407.53748 -17085631.87046  20794040.3834                   20794032.6724
        48.0004         38.0004
 -27507261.20148 -21385427.09247  20282549.5234                   20282543.1604
        48.0004         42.0004
 -23867268.08248 -18584066.15748  20887416.2664                   20887410.1454
        50.0004         52.5004
 -10797680.64747  -8393310.87546  22988774.9694                   22988771.1684
        43.5004         41.5004
  -6007811.56946  -4662743.42345  23992273.5704                   23992269.5204
        38.5004         33.7504
  -7813502.20146  -6045805.89345  23849186.4924                   23849181.0084
        40.7504         35.5004
 -12142408.56647  -9404244.58546  23162232.0784                   23162225.0234
        44.0004         41.5004
  -7962202.16446  -6324170.63846  23247199.7974                   23247195.2274
        41.7504         37.2504
 20  5 21  0 25  0.0000000  0  8G16G04G09G27G08G03G07G26
 -22024271.72848 -17045785.79346  20803771.2114                   20803763.1914
        48.0004         38.2504
 -27491516.23248 -21373158.30146  20285545.7424                   20285539.4024
        48.0004         41.5004
 -23919573.08748 -18624823.31748  20877462.4064                   20877456.7114
        49.5004         52.5004
 -10872970.35447  -8451978.14746  22974448.0474                   22974444.2274
        43.7504         41.7504
  -6108334.76046  -4741073.17345  23973144.5784                   23973140.1684
        37.5004         33.0004
  -7705816.58546  -5961895.05845  23869678.8834                   23869672.4734
        41.2504         35.5004
 -12210675.24447  -9457439.37846  23149241.1804                   23149234.1914
        44.5004         41.0004
  -7864586.79646  -6248106.75746  23265775.0004                   23265771.2894
        41.5004         37.5004
 20  5 21  0 25 30.0000000  0  8G16G04G09G27G08G03G07G26
 -21972587.79048 -17005512.60346  20813606.4614                   20813598.5984
        48.5004         38.0004
 -27475305.27447 -21360526.40246  20288630.6804                   20288624.2234
        47.5004         41.5004
 -23971495.03448 -18665281.97948  20867582.1724                   20867577.0354
        50.2504         52.5004
 -10947885.44047  -8510353.53047  22960191.8754                   22960188.0944
        43.0004         42.0004
  -6208782.43346  -4819344.06945  23954029.8674                   23954025.9064
        38.0004         34.0004
  -7598053.56046  -5877923.87045  23890183.8134                   23890179.6994
        40.5004         35.7504
 -12278832.97847  -9510549.29746  23136271.5864                   23136264.3594
        45.0004         41.2504
  -7766772.72947  -6171888.02846  23284388.1334                   23284383.3634
        42.2504         37.7504
 20  5 21  0 26  0.0000000  0  8G16G04G09G27G08G03G07G26
 -21920358.28748 -16964814.29646  20823545.6254                   20823537.5784
        48.5004         38.0004
 -27458627.87248 -21347531.03846  20291804.0784                   20291797.6914
        48.2504         41.5004
 -24023031.96648 -18705440.62548  20857774.5164                   20857769.2114
        49.0004         52.0004
 -11022422.71047  -8568434.48347  22946008.7274                   22946004.4184
        44.7504         42.2504
  -6309151.44046  -4897553.71146  23934930.3914                   23934927.4184
        39.0004         36.0004
  -7490216.11046  -5793894.72146  23910704.1334                   23910700.2194
        40.0004         36.5004
 -12346882.01847  -9563574.52546  23123322.1954                   23123314.7234
        45.0004         41.5004
  -7668762.48746  -6095516.43746  23303039.2114                   23303034.8164
        41.2504         37.2504
 20  5 21  0 26 30.0000000  0  8G16G04G09G27G08G03G07G26
 -21867585.18848 -16923692.40046  20833587.9454                   20833579.7234
        48.5004         38.0004
 -27441483.27748 -21334171.63246  20295066.9694                   20295060.4304
        48.0004         41.5004
 -24074181.61548 -18745297.49848  20848041.6804                   20848036.1294
        49.2504         52.5004
 -11096578.73247  -8626218.38547  22931897.4384                   22931892.6214
        44.0004         42.0004
  -6409438.37546  -4975699.35846  23915846.7194                   23915843.8794
        39.5004         37.0004
  -7382306.73746  -5709809.54246  23931238.8134                   23931235.2664
        40.0004         36.0004
 -12414821.85047  -9616514.65347  23110394.0554                   23110386.0824
        45.0004         42.0004
  -7570558.31846  -6018993.73446  23321726.5784                   23321722.4774
        41.2504         37.0004
 20  5 21  0 27  0.0000000  0  8G16G04G09G27G08G03G07G26
 -21814270.90448 -16882148.81246  20843733.3134                   20843725.3404
        48.0004         38.2504
 -27423870.97347 -21320447.77746  20298418.3054                   20298411.7384
        47.5004         41.2504
 -24124941.85648 -18784850.93448  20838382.3524                   20838376.7384
        49.2504         52.5004
 -11170350.23747  -8683702.65646  22917859.0634                   22917853.9694
        44.2504         41.0004
  -6509640.22746  -5053778.71846  23896780.0314                   23896775.2194
        40.0004         36.2504
  -7274328.33346  -5625670.54445  23951787.0234                   23951782.9774
        39.7504         35.7504
 -12482652.24747  -9669369.50846  23097486.0944                   23097478.3524
        44.5004         41.7504
  -7472162.58246  -5942321.77746  23340451.1024                   23340446.5824
        41.5004         37.2504
 20  5 21  0 27 30.0000000  0  8G16G04G09G27G08G03G07G26
 -21760417.76547 -16840185.34146  20853981.0164                   20853973.1094
        47.5004         37.5004
 -27405790.57347 -21306359.17146  20301858.9774                   20301852.7544
        47.5004         41.5004
 -24175310.77948 -18824099.44748  20828797.3754                   20828791.7424
        50.2504         52.5004
 -11243734.01047  -8740884.81646  22903893.7584                   22903889.2544
        43.5004         41.7504
  -6609753.40146  -5131788.97046  23877727.8834                   23877724.6644
        39.7504         36.2504
  -7166283.87146  -5541480.11946  23972347.3834                   23972343.1414
        40.5004         36.0004
 -12550373.61547  -9722139.40947  23084599.2734                   23084591.8484
        45.0004         42.0004
  -7373577.76646  -5865502.46446  23359210.6564                   23359206.7624
        41.2504         37.0004
 20  5 21  0 28  0.0000000  0  9G16G04G09G27G30G08G03G07G26
 -21706028.05547 -16797803.75346  20864331.2034                   20864322.8714
        47.5004         38.0004
 -27387241.39147 -21291905.26846  20305388.7424                   20305382.0314
        47.5004         41.7504
 -24225286.17348 -18863041.32048  20819287.6414                   20819282.0124
        49.7504         52.5004
 -11316726.70847  -8797762.22746  22890003.9924                   22890000.0594
        43.7504         41.5004
    241298.74155    200224.13654  25671408.4924                   25671403.4844
        35.0004         29.2504
  -6709774.91746  -5209727.80945  23858694.2274                   23858690.2274
        38.0004         34.7504
  -7058175.93346  -5457240.19545  23992919.6724                   23992915.5634
        39.7504         35.0004
 -12617985.08447  -9774823.66347  23071733.7504                   23071726.0434
        44.2504         42.2504
  -7274806.13647  -5788537.60446  23378006.9304                   23378002.8284
        42.0004         37.0004
 20  5 21  0 28 30.0000000  0  9G16G04G09G27G30G08G03G07G26
 -21651110.60947 -16755010.94646  20874781.5164                   20874773.6644
        47.2504         37.7504
 -27368229.60547 -21277090.90546  20309006.8834                   20309000.0514
        47.2504         41.0004
 -24274872.55848 -18901680.06148  20809851.5004                   20809845.4344
        50.0004         52.7504
 -11389331.68147  -8854337.51747  22876187.8834                   22876183.6804
        43.5004         42.2504
    154981.64645    132964.00743  25654982.8524                   25654977.5314
        35.2504         22.2504
  -6809707.93546  -5287597.70245  23839677.4614                   23839674.3914
        37.5004         35.2504
  -6950013.93446  -5372958.16245  24013502.1644                   24013497.7704
        40.5004         34.7504
 -12685493.32947  -9827427.48047  23058887.3834                   23058879.6484
        44.2504         42.5004
  -7175856.67346  -5711434.14846  23396835.9064                   23396832.2074
        41.2504         37.5004
 20  5 21  0 29  0.0000000  0  9G16G04G09G27G30G08G03G07G26
 -21595655.38547 -16711799.09546  20885334.5164                   20885326.5594
        47.5004         38.0004
 -27348742.10047 -21261905.84946  20312715.1174                   20312708.4734
        47.2504         41.0004
 -24324055.32148 -18940004.30148  20800492.3984                   20800486.2704
        50.0004         52.7504
 -11461533.08747  -8910598.34547  22862447.8674                   22862443.6684
        43.5004         42.0004
     68695.01545     65727.60544  25638562.3594                   25638558.0124
        35.7504         27.5004
  -6909536.15146  -5365385.89445  23820680.5944                   23820676.5824
        37.7504         33.0004
  -6841788.14446  -5288626.40345  24034097.2504                   24034092.5984
        40.7504         34.5004
 -12752885.75447  -9879941.05047  23046062.1334                   23046055.3874
        44.0004         42.5004
  -7076719.23047  -5634184.23946  23415701.7194                   23415697.3634
        42.0004         37.5004
 20  5 21  0 29 30.0000000  0  9G16G04G09G27G30G08G03G07G26
 -21539671.17247 -16668175.03946  20895988.0554                   20895979.0984
        47.2504         38.0004
 -27328784.80647 -21246354.71846  20316512.7344                   20316506.3094
        46.5004         41.2504
 -24372838.74948 -18978017.36448  20791209.3754                   20791203.3954
        50.2504         53.0004
 -11533334.06847  -8966547.13647  22848784.7114                   22848780.8594
        43.2504         42.2504
    -17567.31245     -1489.85144  25622147.9534                   25622142.5204
        35.0004         25.7504
  -7009263.46546  -5443095.52145  23801703.3594                   23801698.8634
        39.7504         34.0004
  -6733507.60746  -5204251.98145  24054702.0164                   24054698.0664
        40.5004         35.0004
 -12820167.94547  -9932368.72947  23033259.3984                   23033251.9574
        44.2504         42.2504
  -6977402.40846  -5556794.53046  23434600.5634                   23434596.9184
        40.5004         38.0004
 20  5 21  0 30  0.0000000  0  9G16G04G09G27G30G08G03G07G26
 -21483160.14347 -16624140.48146  20906742.0704                   20906733.4964
        47.2504         37.5004
 -27308357.27447 -21230437.17346  20320399.7584                   20320393.5864
        46.5004         41.5004
 -24421220.78248 -19015717.65448  20782002.3054                   20781996.3754
        50.2504         52.7504
 -11604731.39347  -9022181.40247  22835198.9694                   22835194.0124
        43.2504         42.0004
   -103804.83545    -68687.91844  25605737.7114                   25605732.7704
        34.2504         26.7504
  -7108886.54646  -5520723.87845  23782745.7344                   23782742.2664
        38.7504         35.0004
  -6625175.21646  -5119837.15645  24075316.5084                   24075312.6604
        40.0004         35.0004
 -12887339.88347  -9984710.49947  23020476.4924                   23020469.3954
        44.2504         42.2504
  -6877908.62946  -5479266.94546  23453534.0864                   23453529.7504
        40.2504         37.0004
 20  5 21  0 30 30.0000000  0  9G16G04G09G27G30G08G03G07G26
 -21426125.18647 -16579697.66246  20917594.9224                   20917586.8554
        47.7504         37.5004
 -27287459.48247 -21214153.19746  20324376.8054                   20324370.5004
        46.2504         41.2504
 -24469199.74348 -19053103.86148  20772872.1724                   20772866.6024
        50.2504         53.0004
 -11675722.28647  -9077498.95847  22821689.5164                   22821685.0944
        44.0004         42.2504
   -190017.77446   -135866.83444  25589331.9844                   25589327.1024
        37.5004         29.5004
  -7208401.59346  -5598268.10046  23763808.8914                   23763805.1604
        39.2504         36.5004
  -6516794.10846  -5035384.37245  24095941.4304                   24095937.1804
        39.0004         35.2504
 -12954402.04647 -10036966.72847  23007715.1334                   23007707.6914
        44.2504         42.2504
  -6778240.57246  -5401603.55746  23472499.3914                   23472496.2734
        40.2504         36.5004
 20  5 21  0 31  0.0000000  0  9G16G04G09G27G30G08G03G07G26
 -21368568.06747 -16534847.96146  20928547.7734                   20928539.5124
        47.5004         37.7504
 -27266090.48147 -21197502.04546  20328443.1484                   20328436.7114
        46.5004         40.7504
 -24516773.17548 -19090174.07148  20763819.3834                   20763813.2704
        50.0004         52.7504
 -11746303.06447  -9132496.96447  22808258.5864                   22808253.9804
        43.7504         42.7504
   -276205.41646   -203026.20144  25572930.4774                   25572925.4224
        37.0004         26.2504
  -7307805.55046  -5675725.71646  23744892.6884                   23744890.2074
        39.5004         37.2504
  -6408366.53546  -4950895.38145  24116573.8054                   24116570.3634
        38.5004         34.2504
 -13021353.50147 -10089136.68947  22994974.9454                   22994967.2194
        44.0004         42.2504
  -6678400.23646  -5323805.94346  23491499.4774                   23491494.8204
        40.7504         36.5004
 20  5 21  0 31 30.0000000  0  9G16G04G09G27G30G08G03G07G26
 -21310492.01747 -16489593.91446  20939599.5084                   20939591.4694
        47.5004         37.5004
 -27244250.47547 -21180483.86846  20332598.9224                   20332592.6414
        46.2504         41.2504
 -24563939.56748 -19126927.11648  20754843.7114                   20754838.0904
        49.7504         52.7504
 -11816471.06047  -9187173.31247  22794906.2664                   22794901.1414
        44.7504         42.0004
   -362368.04945   -270165.95744  25556534.0784                   25556529.5204
        35.5004         26.0004
  -7407095.83846  -5753094.77746  23725998.6954                   23725994.3594
        40.0004         36.0004
  -6299895.77446  -4866372.78045  24137215.8834                   24137211.3914
        39.0004         34.5004
 -13088194.69747 -10141220.73047  22982255.3914                   22982248.1254
        44.5004         42.5004
  -6578390.36846  -5245876.21845  23510530.2664                   23510526.3134
        39.7504         35.2504
 20  5 21  0 32  0.0000000  0  9G16G04G09G27G30G08G03G07G26
 -21251899.36047 -16443937.30146  20950749.0394                   20950740.7194
        47.2504         37.2504
 -27221939.08947 -21163098.38246  20336844.2894                   20336838.0164
        46.5004         41.0004
 -24610696.92648 -19163361.42648  20745946.0944                   20745940.3164
        50.5004         53.0004
 -11886223.10147  -9241525.53047  22781633.0634                   22781628.3164
        44.0004         42.0004
   -448505.36546   -337285.90044  25540142.9384                   25540138.1294
        37.5004         29.2504
  -7506269.09046  -5830372.62345  23707125.9224                   23707122.6994
        38.0004         34.7504
  -6191384.85546  -4781818.85945  24157866.7034                   24157860.1884
        41.0004         34.7504
 -13154925.33747 -10193218.62647  22969556.7194                   22969549.5164
        45.5004         42.5004
  -6478213.37746  -5167816.26745  23529593.6484                   23529589.1294
        41.0004         35.5004
 20  5 21  0 32 30.0000000  0  9G16G04G09G27G30G08G03G07G26
 -21192792.69947 -16397880.17146  20961996.5394                   20961988.6054
        47.2504         38.0004
 -27199155.85147 -21145345.21746  20341180.0084                   20341173.5044
        46.2504         41.2504
 -24657043.16148 -19199475.38148  20737126.6334                   20737121.0204
        49.7504         53.0004
 -11955556.07647  -9295551.22647  22768438.8444                   22768434.5864
        43.5004         42.2504
   -534617.02946   -404385.95444  25523756.8134                   25523751.6884
        37.7504         28.2504
  -7605321.37446  -5907556.19345  23688277.1174                   23688272.3094
        38.5004         34.0004
  -6082836.32447  -4697235.61445  24178522.0634                   24178516.7344
        42.0004         34.5004
 -13221545.26747 -10245130.25447  22956879.4614                   22956871.8834
        44.5004         42.5004
  -6377871.54846  -5089627.85945  23548687.9454                   23548683.4224
        41.2504         35.7504
 20  5 21  0 33  0.0000000  0  9G16G04G09G27G30G08G03G07G26
 -21133174.46547 -16351424.40846  20973341.6334                   20973333.6094
        47.5004         37.2504
 -27175900.56347 -21127224.22646  20345605.4844                   20345599.2274
        46.2504         40.7504
 -24702976.37348 -19235267.49848  20728386.1484                   20728380.1884
        50.2504         52.7504
 -12024466.83447  -9349247.91247  22755325.5164                   22755321.1054
        43.7504         42.2504
   -620702.91045   -471465.90944  25507375.5084                   25507370.4844
        35.7504         28.0004
  -7704250.15546  -5984643.49545  23669451.4534                   23669449.5984
        38.5004         35.7504
  -5974253.04846  -4612625.28645  24199184.2034                   24199179.1604
        41.0004         34.0004
 -13288054.40647 -10296955.55247  22944223.6484                   22944215.6844
        44.5004         42.5004
  -6277367.34546  -5011312.93845  23567813.1644                   23567808.8714
        41.0004         35.0004
 20  5 21  0 33 30.0000000  0  9G16G04G09G27G30G08G03G07G26
 -21073047.38947 -16304572.15246  20984783.3984                   20984775.4064
        47.5004         37.2504
 -27152173.10947 -21108735.31246  20350120.9384                   20350114.6844
        46.5004         41.0004
 -24748494.74648 -19270736.36148  20719724.1254                   20719718.6764
        50.0004         53.0004
 -12092952.49147  -9402613.34847  22742293.4304                   22742289.0984
        44.5004         43.0004
   -706762.83645   -538525.66144  25490998.5314                   25490993.3674
        35.2504         26.5004
  -7803051.82946  -6061631.85246  23650651.3834                   23650648.2974
        39.2504         36.5004
  -5865637.99046  -4527990.22845  24219852.3444                   24219847.7894
        39.7504         33.7504
 -13354452.58647 -10348694.39447  22931588.0784                   22931580.5744
        44.7504         43.0004
  -6176703.23046  -4932873.41246  23586968.4694                   23586965.1414
        40.5004         36.5004
 20  5 21  0 34  0.0000000  0  9G16G04G09G27G30G08G03G07G26
 -21012413.91847 -16257325.30046  20996321.7034                   20996313.6644
        47.5004         37.7504
 -27127973.06647 -21089878.14646  20354725.9534                   20354719.3134
        46.2504         40.7504
 -24793596.25048 -19305880.40248  20711141.2504                   20711135.9534
        50.2504         53.0004
 -12161009.89147  -9455645.07147  22729342.4844                   22729338.3594
        43.5004         43.0004
   -792796.60746   -605565.04144  25474627.0474                   25474621.8204
        36.7504         27.7504
  -7901723.10246  -6138518.56046  23631874.0944                   23631869.1724
        39.0004         36.0004
  -5756993.84346  -4443332.48145  24240527.0004                   24240521.7304
        39.7504         33.5004
 -13420739.52547 -10400346.54647  22918974.0864                   22918966.6054
        44.7504         43.0004
  -6075881.39746  -4854310.97445  23606154.3444                   23606150.0554
        41.2504         35.2504
 20  5 21  0 34 30.0000000  0  9G16G04G09G27G30G08G03G07G26
 -20951276.70347 -16209685.91446  21007955.6254                   21007947.5944
        47.2504         37.2504
 -27103300.20347 -21070652.54546  20359421.2194                   20359414.8094
        46.0004         40.7504
 -24838278.95448 -19340698.09848  20702639.1484                   20702633.1454
        50.0004         53.0004
 -12228635.92947  -9508340.68247  22716473.7344                   22716469.3524
        43.7504         42.7504
   -878803.92345   -672583.69244  25458259.8444                   25458255.7894
        35.2504         29.0004
  -8000261.08846  -6215301.43346  23613122.4224                   23613118.4534
        39.7504         36.0004
  -5648323.52646  -4358654.34645  24261206.7974                   24261200.9844
        40.7504         33.7504
 -13486915.27147 -10451912.04847  22906381.4304                   22906373.8404
        45.0004         42.7504
  -5974904.37547  -4775627.63945  23625371.4064                   23625365.5434
        43.0004         35.5004
 20  5 21  0 35  0.0000000  0  9G16G04G09G27G30G08G03G07G26
 -20889638.02947 -16161655.79146  21019685.0314                   21019677.3364
        47.7504         37.5004
 -27078154.08647 -21051058.18646  20364206.1094                   20364199.8014
        46.2504         40.5004
 -24882540.70748 -19375187.78148  20694215.7814                   20694210.4064
        49.5004         53.0004
 -12295827.41647  -9560697.67347  22703687.4064                   22703682.4964
        44.0004         43.0004
   -964784.35645   -739581.45344  25441898.3054                   25441894.3794
        35.0004         28.5004
  -8098662.16346  -6291977.58145  23594397.7734                   23594392.1724
        39.7504         35.5004
  -5539629.56846  -4273957.78945  24281891.1334                   24281885.2814
        40.5004         32.7504
 -13552979.15647 -10503390.39547  22893809.3134                   22893801.9614
        44.5004         43.0004
  -5873774.20347  -4696824.96246  23644615.4774                   23644610.7154
        42.2504         36.0004
 20  5 21  0 35 30.0000000  0  9G16G04G09G27G30G08G03G07G26
 -20827500.55848 -16113236.98446  21031509.7424                   21031501.4494
        48.2504         37.0004
 -27052534.78447 -21031095.11346  20369081.5944                   20369074.8484
        46.0004         40.5004
 -24926379.85848 -19409348.15748  20685874.0634                   20685868.0514
        50.5004         53.2504
 -12362581.52247  -9612713.83647  22690984.4224                   22690980.0904
        43.5004         43.2504
  -1050737.90246   -806558.38444  25425542.9844                   25425537.2544
        36.5004         29.7504
  -8196923.18246  -6368544.58546  23575699.6884                   23575697.1684
        40.0004         38.0004
  -5430915.03246  -4189245.18345  24302577.0164                   24302573.1134
        38.7504         32.7504
 -13618931.38147 -10554781.73147  22881259.4844                   22881251.8754
        44.5004         43.0004
  -5772493.49246  -4617904.95746  23663888.0634                   23663883.5354
        41.5004         36.0004
 20  5 21  0 36  0.0000000  0  9G16G04G09G27G30G08G03G07G26
 -20764866.99948 -16064431.62246  21043428.3984                   21043420.3324
        48.0004         37.2504
 -27026442.04347 -21010763.12446  20374046.7894                   20374040.2384
        46.0004         40.7504
 -24969794.48848 -19443177.74648  20677612.1564                   20677606.5354
        50.5004         53.2504
 -12428895.30747  -9664386.90047  22678365.4694                   22678360.9774
        43.7504         43.2504
  -1136664.29545   -873514.06044  25409189.3524                   25409185.8094
        34.7504         25.0004
  -8295041.12746  -6445000.16646  23557027.9694                   23557025.0704
        39.7504         37.5004
  -5322182.70546  -4104518.73245  24323268.8364                   24323264.3834
        39.2504         32.5004
 -13684771.76147 -10606085.91747  22868730.4534                   22868722.9494
        44.2504         42.7504
  -5671064.62846  -4538869.51846  23683189.5234                   23683184.6484
        41.5004         36.0004
 20  5 21  0 36 30.0000000  0  9G16G04G09G27G30G08G03G07G26
 -20701739.28448 -16015241.20146  21055441.1954                   21055432.9184
        48.0004         37.0004
 -26999875.15747 -20990061.67146  20379102.3834                   20379095.7464
        46.0004         40.5004
 -25012782.18148 -19476674.65648  20669431.9694                   20669426.1174
        50.5004         53.2504
 -12494765.19747  -9715714.07447  22665830.7114                   22665826.5744
        43.2504         43.5004
  -1222562.93445   -940447.98344  25392845.5234                   25392840.3524
        35.5004         26.7504
  -8393012.28746  -6521341.33046  23538384.8754                   23538381.0634
        40.0004         37.2504
  -5213434.87246  -4019780.20045  24343963.4694                   24343958.6134
        39.0004         33.7504
 -13750499.75647 -10657302.52747  22856222.7424                   22856215.2814
        44.7504         43.2504
  -5569489.36646  -4459720.02945  23702517.4384                   23702514.1374
        40.7504         34.7504
 20  5 21  0 37  0.0000000  0  9G16G04G09G27G30G08G03G07G26
 -20638121.17248 -15965668.65846  21067547.2504                   21067539.2734
        49.0004         37.5004
 -26972834.87547 -20968991.32646  20384247.8754                   20384241.4534
        46.2504         40.2504
 -25055341.98148 -19509838.13948  20661333.2114                   20661327.5274
        50.7504         53.2504
 -12560189.19947  -9766693.80147  22653380.8524                   22653376.2854
        43.5004         43.2504
  -1308434.28446  -1007360.77244  25376504.3204                   25376499.8874
        36.7504         27.5004
  -8490834.04746  -6597566.04446  23519769.6334                   23519765.3404
        39.7504         36.2504
  -5104675.23746  -3935032.47645  24364659.5004                   24364654.3714
        40.0004         33.5004
 -13816116.44447 -10708432.40947  22843736.3444                   22843728.6884
        45.0004         43.5004
  -5467771.05546  -4380459.04345  23721873.4774                   23721870.2384
        39.7504         34.2504
 20  5 21  0 37 30.0000000  0  9G16G04G09G27G30G08G03G07G26
 -20574014.60148 -15915715.48946  21079746.3524                   21079738.0434
        48.2504         37.0004
 -26945320.58347 -20947551.63346  20389483.8134                   20389477.1374
        46.0004         40.5004
 -25097471.47048 -19542666.31748  20653316.0164                   20653310.4104
        50.5004         53.2504
 -12625163.80347  -9817323.35647  22641016.0474                   22641012.3914
        43.2504         43.2504
  -1394277.82246  -1074251.91344  25360168.4064                   25360164.9344
        36.2504         29.7504
  -8588502.44546  -6673671.26546  23501183.9694                   23501181.4064
        40.7504         37.7504
  -4995906.10446  -3850277.35445  24385357.6414                   24385352.7234
        40.2504         33.7504
 -13881620.43047 -10759474.47047  22831271.4064                   22831264.1024
        45.2504         43.5004
  -5365911.46146  -4301087.97945  23741257.7344                   23741253.7074
        41.0004         34.2504
 20  5 21  0 38  0.0000000  0  9G16G04G09G27G30G08G03G07G26
 -20509422.90948 -15865384.30446  21092037.8054                   21092029.4574
        48.2504         36.7504
 -26917332.41647 -20925742.68246  20394809.4694                   20394803.1844
        46.0004         40.5004
 -25139169.05448 -19575157.94448  20645381.1644                   20645375.9414
        50.0004         53.2504
 -12689686.33447  -9867600.62947  22628738.2734                   22628733.9804
        43.5004         43.5004
  -1480093.48746  -1141121.31244  25343838.9774                   25343833.7774
        37.0004         28.0004
  -8686015.09446  -6749655.15146  23482628.5164                   23482624.4844
        40.7504         37.5004
  -4887130.53146  -3765517.20345  24406056.5234                   24406052.1094
        40.5004         33.0004
 -13947012.02047 -10810428.95047  22818827.5394                   22818820.1954
        45.5004         43.5004
  -5263913.11946  -4221608.81345  23760667.7194                   23760662.9494
        41.2504         34.7504
 20  5 21  0 38 30.0000000  0  9G16G04G09G27G30G08G03G07G26
 -20444348.42348 -15814676.92446  21104421.1884                   21104413.0904
        48.7504         37.2504
 -26888869.99047 -20903564.17946  20400225.8134                   20400219.5274
        46.2504         40.5004
 -25180432.64448 -19607311.39848  20637529.2194                   20637523.4414
        50.0004         53.5004
 -12753753.55447  -9917523.13747  22616546.7974                   22616542.4454
        43.7504         43.5004
  -1565880.96046  -1207968.72344  25327513.6024                   25327508.9694
        36.0004         27.2504
  -8783367.91446  -6825514.51346  23464103.4304                   23464099.3634
        41.0004         37.5004
  -4778350.98046  -3680753.93845  24426756.8834                   24426751.9224
        39.7504         33.0004
 -14012291.43347 -10861296.01647  22806405.7034                   22806398.1174
        45.0004         43.5004
  -5161778.19746  -4142023.19445  23780102.1884                   23780099.3324
        39.7504         35.0004
 20  5 21  0 39  0.0000000  0  9G16G04G09G27G30G08G03G07G26
 -20378793.36348 -15763595.05546  21116895.7734                   21116887.6414
        48.5004         37.0004
 -26859933.07647 -20881015.93846  20405732.3524                   20405725.8794
        46.0004         40.2504
 -25221260.22648 -19639125.10648  20629760.0944                   20629754.5234
        50.2504         53.5004
 -12817362.49047  -9967088.53047  22604442.5554                   22604437.9924
        44.2504         43.2504
  -1651639.78546  -1274793.78244  25311195.0944                   25311190.1134
        37.5004         26.2504
  -8880558.33346  -6901247.29346  23445607.5474                   23445602.6804
        39.7504         36.5004
  -4669570.34946  -3595989.86345  24447456.9454                   24447452.5824
        40.0004         32.5004
 -14077457.50347 -10912074.75347  22794004.8444                   22793997.1454
        44.5004         43.5004
  -5059508.80746  -4062332.80545  23799564.7894                   23799560.3404
        41.2504         34.7504
 20  5 21  0 39 30.0000000  0  9G16G04G09G27G30G08G03G07G26
 -20312760.75448 -15712141.07946  21129461.3364                   21129453.0354
        48.7504         36.7504
 -26830521.77747 -20858098.05946  20411329.3054                   20411322.6764
        46.0004         40.2504
 -25261650.16648 -19670597.79748  20622074.1174                   20622068.7034
        50.5004         53.5004
 -12880510.40847 -10016294.69647  22592425.9144                   22592421.3984
        44.0004         43.2504
  -1737369.82046  -1341596.52944  25294880.7114                   25294876.4184
        36.2504         29.2504
  -8977582.72346  -6976850.72446  23427144.9694                   23427140.5434
        40.5004         37.2504
  -4560791.23946  -3511226.95245  24468156.2504                   24468152.6644
        38.2504         31.7504
 -14142510.65747 -10962765.51347  22781625.0164                   22781617.9964
        44.5004         43.0004
  -4957107.52246  -3982539.64345  23819050.2194                   23819046.9494
        40.5004         35.5004
 20  5 21  0 40  0.0000000  0  9G16G04G09G27G30G08G03G07G26
 -20246252.95648 -15660316.82746  21142117.4534                   21142109.3444
        49.0004         36.5004
 -26800635.75347 -20834810.26346  20417016.4064                   20417010.0474
        46.0004         40.2504
 -25301600.31148 -19701727.78248  20614471.7894                   20614466.1484
        50.5004         53.5004
 -12943194.14147 -10065139.16347  22580497.3284                   22580492.9964
        44.0004         43.5004
  -1823070.75246  -1408376.49144  25278573.1334                   25278567.1914
        36.7504         28.5004
  -9074437.04846  -7052321.61046  23408714.0394                   23408711.4804
        39.5004         37.0004
  -4452016.32846  -3426467.31645  24488856.4304                   24488851.0514
        38.0004         31.5004
 -14207450.34947 -11013367.85347  22769268.1024                   22769260.4654
        44.7504         43.2504
  -4854576.25446  -3902645.21245  23838561.6884                   23838557.5984
        40.7504         35.0004
 20  5 21  0 40 30.0000000  0  9G16G04G09G27G30G08G03G07G26
 -20179273.12548 -15608124.74846  21154863.4064                   21154855.2194
        48.5004         36.5004
 -26770275.18947 -20811152.69446  20422793.3524                   20422787.3984
        46.0004         40.5004
 -25341109.11448 -19732513.87048  20606953.6094                   20606947.8164
        50.0004         53.5004
 -13005411.05247 -10113619.87847  22568658.0634                   22568653.4494
        43.7504         43.0004
  -1908742.58246  -1475133.78744  25262269.2814                   25262264.2274
        37.0004         26.0004
  -9171118.99846  -7127658.15846  23390316.4774                   23390312.6254
        41.0004         38.2504
  -4343248.61946  -3341713.27545  24509553.1564                   24509549.0514
        37.5004         31.7504
 -14272276.65047 -11063881.83847  22756931.8524                   22756924.0204
        44.5004         43.5004
  -4751917.61546  -3822651.52145  23858096.7664                   23858093.4024
        40.2504         34.2504
 20  5 21  0 41  0.0000000  0  9G16G04G09G27G30G08G03G07G26
 -20111823.67048 -15555566.74046  21167698.7194                   21167690.2234
        49.0004         36.5004
 -26739440.23647 -20787125.47046  20428661.4144                   20428655.1884
        46.0004         40.5004
 -25380174.91148 -19762954.75948  20599519.8914                   20599514.0784
        49.5004         53.2504
 -13067158.51147 -10161734.77647  22556907.6174                   22556903.4654
        43.7504         43.5004
  -1994385.25846  -1541868.38144  25245972.8444                   25245967.5704
        36.2504         27.7504
  -9267625.55146  -7202858.08446  23371951.1334                   23371948.0204
        39.2504         38.0004
  -4234491.06646  -3256967.18045  24530249.3594                   24530245.5824
        37.7504         31.7504
 -14336989.62947 -11114307.52447  22744617.1254                   22744609.7774
        44.5004         43.5004
  -4649134.03346  -3742560.48345  23877656.1334                   23877652.7304
        40.5004         35.2504
 20  5 21  0 41 30.0000000  0  9G16G04G09G27G30G08G03G07G26
 -20043907.46248 -15502645.02146  21180622.6024                   21180614.3244
        48.5004         37.5004
 -26708130.59647 -20762728.35546  20434619.0944                   20434613.2934
        45.5004         40.2504
 -25418795.61248 -19793048.82048  20592170.3284                   20592164.4884
        50.0004         53.5004
 -13128433.29947 -10209481.35547  22545247.1804                   22545243.4144
        43.5004         43.7504
  -2079998.13445  -1608579.77644  25229680.5634                   25229675.5354
        34.2504         26.2504
  -9363952.97746  -7277918.39146  23353621.1254                   23353617.2974
        40.7504         38.5004
  -4125746.05246  -3172230.84145  24550943.0704                   24550938.6134
        38.2504         32.0004
 -14401588.91647 -11164644.62047  22732324.1094                   22732317.0514
        45.2504         44.0004
  -4546227.50946  -3662373.63845  23897238.7424                   23897234.5904
        39.5004         34.5004
 20  5 21  0 42  0.0000000  0  9G16G04G09G27G30G08G03G07G26
 -19975527.29148 -15449361.77246  21193634.7274                   21193626.6024
        49.0004         36.7504
 -26676346.33147 -20737961.40646  20440667.4454                   20440661.6254
        46.2504         40.0004
 -25456969.55548 -19822794.75848  20584905.8674                   20584900.4924
        48.5004         53.5004
 -13189232.76047 -10256857.55247  22533678.1254                   22533673.6994
        43.7504         43.5004
  -2165581.29345  -1675267.95944  25213395.6334                   25213390.7774
        35.7504         28.0004
  -9460098.02846  -7352836.59446  23335324.7814                   23335320.8674
        40.2504         37.5004
  -4017016.56746  -3087506.60145  24571633.6954                   24571629.6374
        39.5004         32.5004
 -14466074.54647 -11214893.15647  22720053.4844                   22720045.6054
        45.0004         44.0004
  -4443200.45746  -3582092.83345  23916843.7894                   23916839.8914
        39.7504         33.5004
 20  5 21  0 42 30.0000000  0  9G16G04G09G27G30G08G03G07G26
 -19906685.84248 -15395719.09246  21206735.1884                   21206727.0354
        48.2504         36.2504
 -26644087.51247 -20712824.68546  20446806.5314                   20446800.0434
        46.0004         40.0004
 -25494694.88348 -19852191.12548  20577726.8444                   20577721.6524
        49.0004         53.5004
 -13249554.06047 -10303861.15147  22522199.3444                   22522194.4304
        44.5004         43.5004
  -2251134.40846  -1741932.77444  25197113.9774                   25197110.5084
        36.0004         28.0004
  -9556057.50846  -7427610.21146  23317065.0234                   23317061.6054
        40.5004         37.7504
  -3908305.25246  -3002796.53045  24592321.8204                   24592316.5824
        40.0004         33.0004
 -14530445.79247 -11265052.55947  22707804.0084                   22707796.3054
        45.0004         44.2504
  -4340055.05046  -3501719.86745  23936472.7664                   23936468.1024
        41.0004         34.5004
 20  5 21  0 43  0.0000000  0  9G16G04G09G27G30G08G03G07G26
 -19837386.02348 -15341719.24646  21219922.3594                   21219914.0204
        48.2504         36.5004
 -26611354.41347 -20687318.38546  20453035.1254                   20453028.8524
        46.0004         40.2504
 -25531970.11648 -19881236.76648  20570634.0704                   20570628.2424
        49.0004         53.5004
 -13309394.68247 -10350490.22047  22510811.7034                   22510806.8954
        43.7504         43.5004
  -2336657.60645  -1808574.28344  25180840.1254                   25180835.9024
        35.0004         29.0004
  -9651828.40446  -7502236.86846  23298840.6884                   23298835.9774
        41.0004         38.2504
  -3799615.16846  -2918103.00945  24613005.2194                   24612999.8984
        40.2504         32.0004
 -14594702.91247 -11315123.03247  22695576.0234                   22695568.7624
        45.2504         44.2504
  -4236793.89146  -3421256.67645  23956122.5864                   23956118.8794
        40.5004         34.7504
 20  5 21  0 43 30.0000000  0  9G16G04G09G27G30G08G03G07G26
 -19767629.92648 -15287363.84646  21233196.5314                   21233188.3014
        48.7504         36.0004
 -26578146.33047 -20661441.97246  20459354.2504                   20459348.4694
        46.5004         39.5004
 -25568792.77548 -19909929.75548  20563626.8284                   20563620.9614
        49.0004         53.5004
 -13368751.09747 -10396741.95447  22499516.6564                   22499512.1564
        43.7504         43.5004
  -2422149.90646  -1875191.64445  25164572.7664                   25164567.6764
        37.7504         31.7504
  -9747407.24946  -7576713.89146  23280651.8834                   23280648.7114
        40.7504         38.2504
  -3690948.29546  -2833427.54545  24633683.1414                   24633678.6684
        39.5004         33.2504
 -14658845.18147 -11365104.00747  22683370.4694                   22683362.6954
        45.2504         44.2504
  -4133418.47346  -3340704.43545  23975793.9384                   23975790.0354
        39.7504         33.7504
 20  5 21  0 44  0.0000000  0  9G16G04G09G27G30G08G03G07G26
 -19697420.66748 -15232655.34946  21246556.5554                   21246548.5434
        49.0004         36.0004
 -26544463.80647 -20635195.85746  20465764.0314                   20465757.8284
        46.5004         40.0004
 -25605161.50648 -19938269.03448  20556706.1254                   20556700.5394
        49.0004         53.5004
 -13427621.04947 -10442614.64147  22488313.8284                   22488309.4614
        43.7504         43.5004
  -2507611.41146  -1941785.09344  25148309.0084                   25148304.1294
        36.5004         29.5004
  -9842790.10846  -7651038.18346  23262500.9384                   23262497.2114
        40.5004         38.0004
  -3582307.80046  -2748772.65645  24654355.5784                   24654352.6884
        38.0004         32.2504
 -14722873.10047 -11414995.87747  22671185.7664                   22671178.6724
        44.7504         44.0004
  -4029931.44946  -3260065.22245  23995485.9304                   23995482.6254
        38.7504         33.0004
 20  5 21  0 44 30.0000000  0  9G16G04G09G27G30G08G03G07G26
 -19626760.33348 -15177595.36245  21260002.7734                   21259994.7344
        49.0004         35.7504
 -26510306.50247 -20608579.78746  20472263.9144                   20472258.0204
        46.0004         39.5004
 -25641074.18948 -19966252.95248  20549872.0234                   20549866.5044
        48.7504         53.5004
 -13486001.32847 -10488105.75347  22477204.6884                   22477199.9344
        44.0004         43.7504
  -2593041.65946  -2008354.18545  25132052.2974                   25132047.7274
        36.2504         30.0004
  -9937974.00346  -7725207.44746  23244388.5164                   23244385.0514
        40.7504         39.0004
  -3473696.02446  -2664140.17045  24675024.4534                   24675020.4454
        38.5004         31.2504
 -14786785.73947 -11464797.91447  22659023.9454                   22659016.5204
        44.7504         43.7504
  -3926334.76546  -3179340.59145  24015200.2974                   24015197.2304
        40.2504         33.5004
 20  5 21  0 45  0.0000000  0  9G16G04G09G27G30G08G03G07G26
 -19555652.55148 -15122186.71146  21273534.2194                   21273526.2344
        48.5004         36.0004
 -26475674.90547 -20581594.13946  20478854.2734                   20478847.9184
        46.2504         40.0004
 -25676529.43648 -19993880.42948  20543125.4064                   20543119.5904
        48.5004         53.7504
 -13543889.65647 -10533213.52547  22466188.5944                   22466184.6484
        44.2504         44.0004
  -2678440.76446  -2074898.93045  25115802.1484                   25115796.5784
        37.7504         31.0004
 -10032956.23146  -7799219.55946  23226313.5554                   23226309.8834
        41.0004         39.0004
  -3365116.08946  -2579532.46245  24695686.8754                   24695682.5164
        39.5004         31.5004
 -14850583.47247 -11514510.42847  22646883.6174                   22646875.9884
        44.5004         44.0004
  -3822630.81246  -3098532.39345  24034934.6644                   24034931.6564
        38.0004         33.2504
 20  5 21  0 45 30.0000000  0  9G16G04G09G27G30G08G03G07G26
 -19484099.96548 -15066431.45746  21287150.3914                   21287141.9414
        48.2504         36.2504
 -26440568.94247 -20554238.85746  20485534.5784                   20485528.2504
        46.5004         39.2504
 -25711525.37148 -20021149.99448  20536465.5634                   20536460.1094
        48.5004         53.5004
 -13601283.11347 -10577935.68347  22455267.1804                   22455262.3794
        44.2504         44.0004
  -2763808.35946  -2141419.19945  25099557.0394                   25099551.6294
        37.7504         31.5004
 -10127732.87846  -7873071.47546  23208278.3134                   23208275.0044
        41.2504         38.7504
  -3256570.46946  -2494951.52545  24716341.9844                   24716337.8204
        38.0004         31.5004
 -14914265.50047 -11564132.78247  22634764.8284                   22634757.5474
        44.7504         43.7504
  -3718821.92046  -3017642.39845  24054688.6804                   24054685.9384
        38.7504         34.0004
 20  5 21  0 46  0.0000000  0  9G16G04G09G27G30G08G03G07G26
 -19412105.61948 -15010331.98146  21300850.7114                   21300842.2384
        48.5004         36.5004
 -26404989.36347 -20526514.52146  20492305.4454                   20492299.0594
        46.0004         40.0004
 -25746060.86348 -20048060.77448  20529893.7504                   20529888.0234
        49.5004         53.7504
 -13658179.66647 -10622270.64947  22444440.2664                   22444435.6254
        44.5004         44.5004
  -2849144.76846  -2207915.10045  25083317.9924                   25083313.7344
        37.5004         31.0004
 -10222301.67246  -7946761.41146  23190282.0864                   23190278.8754
        41.0004         38.7504
  -3148062.58546  -2410399.95245  24736990.5474                   24736986.1844
        40.0004         30.0004
 -14977832.55047 -11613665.54547  22622669.0164                   22622661.1684
        45.2504         44.0004
  -3614910.66246  -2936672.65745  24074462.8134                   24074458.1334
        39.0004         33.5004
 20  5 21  0 46 30.0000000  0  9G16G04G09G27G30G08G03G07G26
 -19339671.71248 -14953889.99045  21314634.0784                   21314626.1174
        49.0004         35.7504
 -26368935.53247 -20498420.64246  20499166.1334                   20499159.9384
        46.2504         39.5004
 -25780133.45448 -20074610.84848  20523410.2664                   20523404.4534
        50.0004         53.7504
 -13714575.86447 -10666215.73347  22433708.0234                   22433703.4734
        44.0004         44.5004
  -2934449.03645  -2274385.99544  25067083.4304                   25067079.6844
        35.5004         29.0004
 -10316658.50746  -8020286.21946  23172326.4144                   23172323.7074
        41.2504         38.7504
  -3039594.31746  -2325879.27145  24757631.3754                   24757627.1844
        40.7504         30.0004
 -15041283.55947 -11663107.87347  22610594.6564                   22610586.9884
        45.2504         44.2504
  -3510898.66546  -2855624.38645  24094255.5704                   24094251.9184
        39.5004         34.7504
 20  5 21  0 47  0.0000000  0  9G16G04G09G27G30G08G03G07G26
 -19266800.89548 -14897107.54645  21328501.0394                   21328492.8094
        48.7504         35.7504
 -26332407.71247 -20469957.42346  20506117.1094                   20506110.8794
        46.5004         39.7504
 -25813741.53348 -20100798.97348  20517014.8524                   20517009.1684
        49.0004         53.7504
 -13770469.07847 -10709768.87947  22423072.3914                   22423067.8404
        45.2504         44.0004
  -3019721.14346  -2340831.85544  25050856.1804                   25050853.3714
        36.0004         28.0004
 -10410800.42846  -8093643.55946  23154412.5474                   23154408.5314
        40.5004         38.5004
  -2931168.46046  -2241391.62645  24778266.1414                   24778260.0124
        41.5004         30.0004
 -15104618.45547 -11712459.72847  22598541.8754                   22598534.5904
        45.5004         44.5004
  -3406788.07046  -2774499.32245  24114066.9534                   24114063.6564
        39.7504         34.2504
 20  5 21  0 47 30.0000000  0  9G16G04G09G27G30G08G03G07G26
 -19193496.55448 -14839987.29445  21342450.2194                   21342442.4774
        48.5004         35.5004
 -26295406.22847 -20441125.11646  20513158.3364                   20513151.5944
        46.0004         39.7504
 -25846883.53348 -20126623.91248  20510707.7814                   20510701.8594
        49.0004         53.7504
 -13825856.87047 -10752928.18847  22412532.4694                   22412527.3754
        44.5004         44.0004
  -3104960.80545  -2407252.38944  25034636.7034                   25034632.5784
        35.0004         28.7504
 -10504723.74346  -8166830.54146  23136538.8674                   23136535.3674
        40.2504         37.5004
  -2822787.80246  -2156939.15844  24798888.2344                   24798883.2734
        38.0004         29.0004
 -15167837.38247 -11761721.21047  22586512.0234                   22586504.6994
        46.0004         44.5004
  -3302581.29946  -2693299.25745  24133896.2504                   24133894.3284
        39.2504         33.0004
 20  5 21  0 48  0.0000000  0  9G16G04G09G27G30G08G03G07G26
 -19119760.98348 -14782531.02245  21356481.6724                   21356473.6454
        48.5004         35.0004
 -26257930.99447 -20411923.64446  20520289.8754                   20520283.1844
        46.7504         39.2504
 -25879557.55048 -20152084.19448  20504490.4924                   20504484.6414
        48.7504         53.7504
 -13880736.40047 -10795691.44847  22402089.0164                   22402084.5474
        45.5004         44.0004
  -3190167.60246  -2473647.30644  25018423.2344                   25018418.6524
        36.2504         29.5004
 -10598425.30146  -8239844.73746  23118708.9144                   23118703.9574
        41.0004         38.0004
  -2714454.82146  -2072523.90245  24819503.5234                   24819498.7154
        39.7504         30.0004
 -15230939.50947 -11810891.68847  22574504.2424                   22574496.7194
        45.5004         44.7504
  -3198280.21746  -2612025.79345  24153745.6724                   24153741.9614
        39.0004         33.0004
 20  5 21  0 48 30.0000000  0  9G16G04G09G27G30G08G03G07G26
 -19045597.07647 -14724740.98445  21370594.4924                   21370586.8714
        47.5004         35.2504
 -26219982.16347 -20382353.14746  20527511.4774                   20527504.7624
        46.5004         39.2504
 -25911761.86848 -20177178.46649  20498362.0234                   20498356.3484
        48.7504         54.0004
 -13935104.92747 -10838056.52347  22391743.1884                   22391738.3484
        44.5004         44.0004
  -3275341.36846  -2540016.52645  25002215.6024                   25002210.3364
        37.5004         30.2504
 -10691901.74346  -8312683.51146  23100920.5164                   23100916.2034
        41.7504         38.7504
  -2606172.10345  -1988147.75345  24840108.0234                   24840104.2074
        35.7504         30.2504
 -15293924.75947 -11859971.09547  22562518.3524                   22562511.0474
        45.2504         44.7504
  -3093886.98046  -2530680.42545  24173610.3444                   24173606.9344
        39.0004         33.0004
 20  5 21  0 49  0.0000000  0  9G16G04G09G27G30G08G03G07G26
 -18971007.71548 -14666619.42046  21384788.8674                   21384780.8284
        48.0004         36.2504
 -26181560.37747 -20352414.10646  20534822.2814                   20534816.2814
        46.0004         39.0004
 -25943495.20248 -20201905.74549  20492323.6484                   20492317.7304
        48.7504         54.0004
 -13988960.33447 -10880021.77347  22381494.6644                   22381489.8754
        44.5004         43.7504
  -3360482.24246  -2606360.07744  24986013.0704                   24986008.4804
        37.0004         29.2504
 -10785149.96547  -8385344.47846  23083176.5864                   23083171.8984
        42.0004         38.7504
  -2497942.78646  -1903813.28445  24860703.6174                   24860700.4454
        37.5004         31.0004
 -15356793.40147 -11908959.63747  22550555.0314                   22550547.6484
        45.5004         44.5004
  -2989404.10846  -2449265.27945  24193493.1414                   24193489.0744
        39.0004         31.2504
 20  5 21  0 49 30.0000000  0  9G16G04G09G27G30G08G03G07G26
 -18895995.81548 -14608168.60745  21399062.8834                   21399055.0084
        48.7504         35.5004
 -26142665.72947 -20322106.60946  20542224.3674                   20542217.7974
        46.2504         40.0004
 -25974755.76648 -20226264.63849  20486374.6884                   20486368.6954
        49.2504         54.0004
 -14042299.92347 -10921585.08647  22371344.5084                   22371339.5084
        45.5004         44.0004
  -3445589.71746  -2672677.61544  24969817.8674                   24969813.2344
        37.5004         28.7504
 -10878166.89646  -8457825.19346  23065475.2424                   23065472.4384
        40.7504         40.0004
  -2389769.29646  -1819522.39545  24881291.9534                   24881285.5704
        40.2504         31.7504
 -15419545.12847 -11957857.07547  22538613.3284                   22538606.3984
        45.2504         44.5004
  -2884833.66846  -2367781.81045  24213392.5084                   24213387.9144
        40.5004         32.2504
 20  5 21  0 50  0.0000000  0  9G16G04G09G27G30G08G03G07G26
 -18820564.03448 -14549390.61345  21413417.1954                   21413409.0704
        48.5004         35.2504
 -26103298.14847 -20291430.58146  20549715.2344                   20549709.1094
        46.0004         40.0004
 -26005541.62648 -20250253.62349  20480516.4144                   20480510.7894
        48.7504         54.0004
 -14095120.79347 -10962744.20947  22361293.2584                   22361288.2504
        45.2504         44.2504
  -3530663.45346  -2738968.86945  24953629.0634                   24953624.3524
        36.7504         30.0004
 -10970949.10846  -8530123.01146  23047819.5084                   23047816.0084
        40.5004         39.5004
  -2281654.10046  -1735276.78045  24901862.1254                   24901858.7114
        36.2504         30.7504
 -15482179.28547 -12006662.90247  22526694.4774                   22526687.2704
        45.2504         44.5004
  -2780177.39846  -2286231.56245  24233308.2664                   24233303.3714
        39.2504         31.0004
 20  5 21  0 50 30.0000000  0  9G16G04G09G27G30G08G03G07G26
 -18744715.62248 -14490287.96845  21427850.5554                   21427842.5314
        48.2504         35.5004
 -26063458.57347 -20260386.78346  20557296.7664                   20557290.4924
        46.5004         39.5004
 -26035851.81848 -20273871.96449  20474748.3054                   20474742.5664
        49.0004         54.0004
 -14147421.10347 -11003497.68147  22351340.7664                   22351335.9414
        45.0004         44.2504
  -3615703.70246  -2805234.02845  24937446.7034                   24937441.7424
        38.0004         31.7504
 -11063493.85146  -8602235.77746  23030208.5784                   23030205.8954
        40.0004         39.2504
  -2173600.34846  -1651079.15345  24922425.9224                   24922420.8524
        39.0004         31.0004
 -15544696.26647 -12055377.42247  22514798.4064                   22514790.4804
        45.2504         44.5004
  -2675438.18947  -2204616.63645  24253241.3914                   24253235.1094
        42.0004         34.5004
 20  5 21  0 51  0.0000000  0  9G16G04G09G27G30G08G03G07G26
 -18668452.46847 -14430862.13945  21442362.6724                   21442354.9694
        47.7504         35.2504
 -26023146.34647 -20228974.66846  20564967.8444                   20564961.5004
        46.0004         39.2504
 -26065683.80648 -20297117.67448  20469071.6334                   20469066.1604
        48.7504         53.7504
 -14199197.41347 -11043842.83847  22341487.5394                   22341483.4494
        44.5004         44.5004
  -3700709.41946  -2871472.25845  24921271.0554                   24921265.9184
        37.7504         31.0004
 -11155796.82946  -8674160.15346  23012643.8444                   23012640.9414
        40.5004         39.2504
  -2065609.83246  -1566930.75745  24942975.9224                   24942970.3484
        39.0004         30.5004
 -15607094.75847 -12103999.61147  22502924.5164                   22502916.6524
        45.2504         44.5004
  -2570617.21446  -2122938.04045  24273187.1644                   24273182.2074
        40.5004         33.7504
 20  5 21  0 51 30.0000000  0  9G16G04G09G27G30G08G03G07G26
 -18591778.68448 -14371116.34346  21456953.5784                   21456945.7194
        48.0004         36.0004
 -25982362.80447 -20197195.30846  20572728.4384                   20572723.0394
        46.0004         39.7504
 -26095036.99848 -20319990.29049  20463486.1644                   20463480.4414
        48.5004         54.0004
 -14250448.25647 -11083778.54647  22331735.0394                   22331730.4104
        45.0004         44.5004
  -3785681.32246  -2937684.12645  24905100.1884                   24905096.5044
        37.5004         31.5004
 -11247855.78147  -8745894.38146  22995125.8754                   22995121.9574
        42.0004         39.5004
  -1957686.22146  -1482834.44544  24963512.4384                   24963507.5944
        38.5004         29.7504
 -15669375.60547 -12152530.14647  22491072.2734                   22491064.9844
        45.5004         44.7504
  -2465717.52046  -2041198.05045  24293147.1174                   24293143.9264
        36.5004         33.0004
 20  5 21  0 52  0.0000000  0  9G16G04G09G27G30G08G03G07G26
 -18514695.96647 -14311051.90745  21471621.4924                   21471613.8284
        47.7504         35.0004
 -25941107.36147 -20165048.23346  20580579.2734                   20580572.7034
        46.0004         39.2504
 -26123908.93448 -20342487.91549  20457991.5944                   20457986.1374
        48.7504         54.0004
 -14301170.26447 -11123302.17647  22322083.3834                   22322078.7154
        45.5004         44.7504
  -3870618.33646  -3003868.87145  24888937.8834                   24888933.0904
        38.0004         31.5004
 -11339666.80947  -8817435.43146  22977654.7734                   22977650.4774
        42.0004         39.0004
  -1849831.26046  -1398791.65844  24984036.3834                   24984031.5204
        39.2504         29.0004
 -15731538.09447 -12200968.44247  22479243.1644                   22479235.6644
        45.7504         44.7504
  -2360740.62246  -1959397.87845  24313124.5314                   24313120.9224
        39.5004         33.5004
 20  5 21  0 52 30.0000000  0  9G16G04G09G27G30G08G03G07G26
 -18437207.35948 -14250671.18245  21486367.3284                   21486359.4344
        48.2504         35.0004
 -25899380.53647 -20132533.83946  20588519.4064                   20588513.6604
        45.5004         39.0004
 -26152298.18348 -20364609.41949  20452589.7274                   20452583.9654
        49.0004         54.0004
 -14351361.17947 -11162411.97547  22312531.8834                   22312527.4654
        45.2504         44.7504
  -3955520.41146  -3070026.31145  24872781.4694                   24872776.4614
        39.0004         31.0004
 -11431226.38947  -8888780.54046  22960231.9614                   22960226.7894
        43.0004         39.0004
  -1742047.75746  -1314804.54044  25004547.6254                   25004542.4264
        40.0004         26.5004
 -15793581.44747 -12249313.90847  22467436.9384                   22467429.5984
        45.5004         45.0004
  -2255688.29946  -1877539.03945  24333115.0314                   24333112.1484
        37.5004         31.0004
 20  5 21  0 53  0.0000000  0  9G16G04G09G27G30G08G03G07G26
 -18359315.60648 -14189976.33545  21501189.7734                   21501181.9694
        48.0004         35.0004
 -25857182.60447 -20099652.34946  20596549.5234                   20596543.3874
        45.5004         38.7504
 -26180203.16248 -20386353.55849  20447279.4144                   20447273.4924
        49.0004         54.0004
 -14401018.49047 -11201105.97447  22303082.8054                   22303077.6954
        45.5004         45.0004
  -4040387.22646  -3136156.32545  24856631.8674                   24856627.3674
        37.7504         31.2504
 -11522531.70147  -8959927.53746  22942857.7034                   22942852.5234
        42.5004         39.0004
  -1634338.16546  -1230875.01344  25025042.9534                   25025039.0204
        36.2504         27.5004
 -15855505.72247 -12297566.57247  22455653.6024                   22455645.3914
        45.7504         45.0004
  -2150562.88846  -1795623.17845  24353119.6174                   24353116.4804
        37.7504         31.7504
 20  5 21  0 53 30.0000000  0  9G16G04G09G27G30G08G03G07G26
 -18281024.57247 -14128970.35345  21516088.3054                   21516080.2704
        47.5004         34.7504
 -25814514.70847 -20066404.65546  20604669.1174                   20604662.6024
        45.5004         38.5004
 -26207623.02748 -20407719.69948  20442061.4534                   20442056.1644
        48.5004         53.7504
 -14450140.56847 -11239382.92247  22293735.0634                   22293730.4654
        46.2504         44.7504
  -4125219.27846  -3202259.22445  24840487.8914                   24840483.9534
        37.5004         30.0004
 -11613579.90647  -9030874.18346  22925531.5084                   22925526.6484
        42.5004         39.0004
  -1526706.05446  -1147005.82344  25045526.9454                   25045521.1724
        38.5004         29.0004
 -15917311.47047 -12345726.88347  22443891.8914                   22443884.2734
        45.7504         45.5004
  -2045367.40146  -1713652.67645  24373138.0944                   24373135.1414
        39.5004         32.2504
 20  5 21  0 54  0.0000000  0  9G16G04G09G27G30G08G03G07G26
 -18202335.58047 -14067654.27345  21531061.9454                   21531053.9774
        47.5004         35.0004
 -25771376.26247 -20032790.30346  20612877.8134                   20612871.8484
        45.2504         38.7504
 -26234555.35648 -20428705.94149  20436936.5474                   20436930.7274
        48.7504         54.0004
 -14498724.03547 -11277240.16947  22284489.8594                   22284485.0634
        45.7504         44.5004
  -4210015.31746  -3268334.09145  24824352.1804                   24824348.6414
        36.0004         30.5004
 -11704367.04346  -9101617.37446  22908254.7974                   22908250.9494
        41.5004         39.5004
  -1419152.86446  -1063198.22144  25065993.1884                   25065988.8794
        37.0004         29.2504
 -15978997.35747 -12393793.77547  22432153.3284                   22432146.0354
        45.5004         45.5004
  -1940102.58346  -1631628.23345  24393169.8444                   24393165.6994
        38.5004         31.5004
 20  5 21  0 54 30.0000000  0  9G16G04G09G27G30G08G03G07G26
 -18123252.37047 -14006031.01445  21546110.9454                   21546103.0084
        47.2504         35.0004
 -25727767.95547 -19998809.82846  20621176.6954                   20621170.0664
        46.0004         38.2504
 -26260998.86948 -20449311.27849  20431904.5084                   20431898.8014
        49.7504         54.0004
 -14546766.90047 -11314676.16347  22275347.2034                   22275343.0164
        45.0004         44.7504
  -4294775.60346  -3334381.05545  24808223.8444                   24808218.8554
        38.0004         30.7504
 -11794890.12646  -9172154.80946  22891029.0704                   22891025.4264
        41.5004         40.0004
  -1311681.51245   -979454.28245  25086441.7584                   25086439.3054
        34.2504         30.7504
 -16040563.54347 -12441767.40047  22420437.6024                   22420430.0204
        45.7504         45.2504
  -1834771.10746  -1549551.77145  24413213.2664                   24413210.1684
        39.0004         33.0004
 20  5 21  0 55  0.0000000  0  9G16G04G09G27G30G08G03G07G26
 -18043777.59847 -13944102.64345  21561234.7664                   21561226.6414
        47.5004         34.7504
 -25683690.30547 -19964463.62246  20629564.1174                   20629557.9964
        45.7504         39.0004
 -26286952.16048 -20469534.62749  20426965.8364                   20426960.2304
        50.2504         54.0004
 -14594266.83347 -11351689.08047  22266308.7664                   22266303.9414
        45.2504         44.7504
  -4379499.90346  -3400399.92945  24792102.2424                   24792096.0784
        38.7504         30.0004
 -11885145.85547  -9242483.94446  22873853.6254                   22873850.2584
        42.0004         40.7504
  -1204294.80646   -895776.50145  25106878.6254                   25106874.5474
        38.0004         30.5004
 -16102009.91147 -12489647.68147  22408744.7194                   22408737.7464
        45.5004         45.5004
  -1729374.91046  -1467424.87345  24433269.9224                   24433265.0864
        38.5004         32.7504
 20  5 21  0 55 30.0000000  0  9G16G04G09G27G30G08G03G07G26
 -17963913.98247 -13881871.27545  21576432.6564                   21576424.2734
        47.2504         34.5004
 -25639143.59547 -19929751.92546  20638041.2274                   20638034.8874
        45.7504         38.5004
 -26312413.54048 -20489374.67549  20422120.3984                   20422115.0824
        49.5004         54.0004
 -14641221.36647 -11388277.01647  22257373.2034                   22257368.7934
        44.5004         44.5004
  -4464187.65146  -3466390.41345  24775986.2734                   24775981.1174
        39.7504         30.7504
 -11975131.15447  -9312602.31746  22856729.9304                   22856726.4614
        42.2504         40.7504
  -1096995.15846   -812166.35645  25127296.8134                   25127293.3444
        38.5004         33.2504
 -16163335.96447 -12537434.19847  22397074.8834                   22397067.0354
        45.2504         45.5004
  -1623916.01746  -1385249.18645  24453337.3444                   24453334.1054
        37.2504         30.7504
 20  5 21  0 56  0.0000000  0  9G16G04G09G27G30G08G03G07G26
 -17883664.34647 -13819339.10545  21591703.4534                   21591695.5984
        47.5004         34.5004
 -25594128.11447 -19894674.94046  20646607.4614                   20646600.9224
        46.0004         38.5004
 -26337381.47048 -20508830.22449  20417369.7034                   20417363.4614
        50.2504         54.0004
 -14687628.14147 -11424438.13747  22248542.5704                   22248537.7274
        45.0004         44.5004
  -4548838.63846  -3532352.27445  24759876.6724                   24759871.7274
        39.0004         30.5004
 -12064842.46747  -9382507.22746  22839659.1024                   22839654.6054
        43.5004         40.5004
   -989784.87046   -728625.96045  25147697.1174                   25147693.6334
        37.2504         30.5004
 -16224541.24547 -12585126.61147  22385427.9304                   22385420.3874
        45.7504         45.5004
  -1518396.21446  -1303026.06845  24473416.8054                   24473413.8714
        37.5004         31.0004
 20  5 21  0 56 30.0000000  0  9G16G04G09G27G30G08G03G07G26
 -17803031.70647 -13756508.49345  21607047.2504                   21607039.4694
        47.5004         34.0004
 -25548644.81847 -19859233.42746  20655262.5004                   20655256.3874
        45.5004         39.0004
 -26361854.90048 -20527900.43049  20412712.2814                   20412706.0784
        49.7504         54.0004
 -14733485.26047 -11460170.95347  22239816.1484                   22239811.8524
        45.5004         44.7504
  -4633453.09846  -3598285.62045  24743774.6644                   24743770.3754
        37.7504         30.0004
 -12154277.41547  -9452196.77846  22822639.4144                   22822635.0274
        42.5004         40.0004
   -882667.09946   -645157.63545  25168082.4384                   25168078.3984
        38.5004         30.7504
 -16285625.89047 -12632725.02447  22373804.2424                   22373796.1414
        45.7504         45.5004
  -1412818.15546  -1220757.47845  24493509.0164                   24493505.3284
        39.0004         32.5004
 20  5 21  0 57  0.0000000  0  9G16G04G09G27G30G08G03G07G26
 -17722019.17847 -13693381.86845  21622463.8674                   21622455.6724
        47.2504         34.5004
 -25502693.73547 -19823427.40846  20664006.6484                   20664000.4884
        45.7504         38.2504
 -26385831.92248 -20546583.84149  20408149.7114                   20408143.5824
        50.0004         54.0004
 -14778790.03747 -11495473.37347  22231195.2034                   22231190.1804
        45.5004         44.7504
  -4718030.18646  -3664189.89445  24727680.8134                   24727676.5124
        39.5004         32.5004
 -12243431.77447  -9521667.71446  22805674.3674                   22805669.8204
        42.2504         39.5004
   -775643.96446   -561762.96144  25188447.3364                   25188443.1174
        37.5004         27.7504
 -16346589.71247 -12680229.29947  22362202.7504                   22362195.0784
        45.7504         45.2504
  -1307183.37146  -1138444.66345  24513609.3754                   24513605.5204
        38.0004         30.5004
 20  5 21  0 57 30.0000000  0  9G16G04G09G27G30G08G03G07G26
 -17640629.02847 -13629960.99445  21637951.7034                   21637943.2934
        47.5004         35.0004
 -25456275.15947 -19787257.11446  20672840.0004                   20672833.4774
        46.2504         38.2504
 -26409310.92848 -20564879.17549  20403681.8444                   20403675.6524
        50.2504         54.0004
 -14823540.07447 -11530343.53647  22222678.9144                   22222674.4804
        46.0004         45.0004
  -4802569.70046  -3730064.84245  24711593.8754                   24711588.8244
        39.0004         32.7504
 -12332301.93046  -9590917.16746  22788762.3444                   22788758.2504
        41.0004         39.5004
   -668717.77046   -478443.92244  25208796.3524                   25208790.6254
        37.2504         27.0004
 -16407431.96147 -12727638.83847  22350625.2974                   22350617.1094
        45.5004         45.2504
  -1201493.59146  -1056089.07344  24533721.7814                   24533719.0204
        36.7504         29.5004
 20  5 21  0 58  0.0000000  0  9G16G04G09G27G30G08G03G07G26
 -17558864.52047 -13566248.40045  21653510.4144                   21653502.6844
        47.0004         34.5004
 -25409390.14247 -19750723.35346  20681761.7814                   20681755.6054
        46.2504         38.7504
 -26432290.98948 -20582785.73049  20399308.5394                   20399302.9304
        50.0004         54.0004
 -14867733.64747 -11564780.07647  22214269.6024                   22214264.9414
        44.5004         45.0004
  -4887071.70746  -3795910.55145  24695514.6484                   24695509.0204
        39.5004         31.7504
 -12420885.77846  -9659943.51446  22771905.5004                   22771901.9844
        41.5004         40.5004
  24644828.52055  19246397.41953  25229123.1954                   25229119.8794
        34.5004         22.5004
 -16468152.18747 -12774953.28547  22339070.4454                   22339062.1994
        46.0004         45.5004
  -1095751.39446   -973692.59944  24553843.6174                   24553839.9494
        37.2504         29.2504
 20  5 21  0 58 30.0000000  0  9G16G04G09G27G30G08G03G07G26
 -17476728.22947 -13502246.11845  21669140.7814                   21669132.8984
        47.0004         34.2504
 -25362038.77647 -19713826.20546  20690772.6644                   20690766.2584
        45.5004         38.0004
 -26454770.27548 -20600302.06549  20395031.3054                   20395025.1484
        50.2504         54.0004
 -14911368.17647 -11598780.99947  22205966.5314                   22205961.3134
        46.2504         45.0004
  -4971535.67146  -3861726.65845  24679439.6644                   24679435.6954
        37.0004         31.5004
 -12509179.53246  -9728743.82446  22755104.0784                   22755100.2774
        41.7504         41.0004
  24751552.50545  19329558.87343  25249431.3914                   25249428.6884
        34.7504         23.0004
 -16528750.11647 -12822172.44347  22327538.9694                   22327531.0164
        46.2504         45.7504
   -989958.40546   -891256.59445  24573977.3054                   24573973.7974
        39.7504         33.2504
 20  5 21  0 59  0.0000000  0  9G16G04G09G27G30G08G03G07G26
 -17394223.39947 -13437956.65545  21684840.7664                   21684832.9774
        47.0004         34.2504
 -25314221.77747 -19676566.22846  20699871.9694                   20699865.6804
        45.7504         38.0004
 -26476747.56548 -20617427.23249  20390848.6804                   20390843.0474
        50.2504         54.0004
 -14954441.61847 -11632344.71347  22197770.0394                   22197764.9924
        46.2504         45.0004
  -5055961.43146  -3927512.95245  24663374.5634                   24663370.3014
        37.2504         31.0004
 -12597180.61446  -9797316.08046  22738357.6094                   22738354.1174
        41.7504         41.5004
  24858171.76846  19412638.65944  25269723.3524                   25269716.9494
        38.2504         26.0004
 -16589226.15047 -12869296.61747  22316030.1024                   22316023.2384
        45.7504         45.5004
   -884116.77846   -808782.59645  24594118.3834                   24594113.2814
        40.0004         33.0004
 20  5 21  0 59 30.0000000  0  9G16G04G09G27G30G08G03G07G26
 -17311352.88247 -13373382.25445  21700610.6644                   21700602.9024
        46.0004         33.2504
 -25265940.11847 -19638944.17946  20709059.5554                   20709053.2304
        46.5004         38.2504
 -26498221.86348 -20634160.46049  20386762.3674                   20386756.4694
        49.7504         54.0004
 -14996952.27247 -11665469.88747  22189680.0944                   22189675.2774
        45.7504         45.5004
  -5140349.23345  -3993269.70245  24647314.4534                   24647311.5664
        35.2504         33.0004
 -12684885.41547  -9865657.45547  22721668.3204                   22721664.5784
        42.0004         42.0004
  24964683.15846  19495634.64645  25289989.2424                   25289986.2934
        36.7504         30.5004
 -16649579.97547 -12916325.55947  22304545.7344                   22304538.1684
        45.7504         45.7504
   -778228.85646   -726272.56645  24614266.9454                   24614264.4344
        38.2504         32.5004
 20  5 21  1  0  0.0000000  0  9G16G04G09G27G30G08G03G07G26
 -17228118.67547 -13308524.44945  21716450.0474                   21716442.0664
        45.7504         33.7504
 -25217193.30047 -19600959.66346  20718335.7194                   20718329.7194
        46.0004         38.5004
 -26519190.74348 -20650499.86549  20382772.3524                   20382766.7704
        50.0004         54.0004
 -15038896.92647 -11698154.02347  22181698.5474                   22181693.0594
        45.5004         45.2504
  -5224697.55146  -4058995.62345  24631265.3204                   24631260.6024
        36.7504         32.0004
 -12772290.03747  -9933764.94646  22705035.3284                   22705031.6174
        42.5004         41.5004
  25071085.35546  19578545.41445  25310236.7034                   25310234.4344
        36.7504         30.5004
 -16709809.86647 -12963257.93347  22293084.1334                   22293076.7384
        45.7504         46.0004
   -672295.49746   -643727.15245  24634423.7424                   24634421.8554
        36.5004         30.5004
 20  5 21  1  0 30.0000000  0  9G16G04G09G27G30G08G03G07G26
 -17144524.63347 -13243386.25345  21732356.9064                   21732348.8954
        46.5004         34.0004
 -25167982.83047 -19562613.87146  20727700.2734                   20727694.2704
        45.7504         39.0004
 -26539653.74948 -20666445.07249  20378878.2274                   20378872.8834
        50.2504         54.0004
 -15080274.38947 -11730396.19547  22173824.2814                   22173819.3594
        45.5004         45.2504
  -5309007.26546  -4124691.48245  24615220.6644                   24615217.3134
        37.0004         32.2504
 -12859392.22747 -10001636.77346  22688460.7344                   22688456.6884
        42.7504         41.5004
  25177374.95645  19661368.54545  25330460.5864                   25330461.3914
        32.2504         30.2504
 -16769916.88947 -13010094.55847  22281646.3674                   22281638.8404
        46.0004         46.0004
   -566319.68646   -561148.64944  24654591.4774                   24654587.9654
        38.2504         25.5004
 20  5 21  1  1  0.0000000  0  9G16G04G09G27G30G08G03G07G26
 -17060573.10847 -13177969.50145  21748332.4454                   21748324.4454
        46.2504         33.7504
 -25118308.83547 -19523906.88846  20737152.7974                   20737146.5354
        45.5004         38.5004
 -26559609.11648 -20681994.71449  20375080.8674                   20375075.0354
        50.2504         54.0004
 -15121082.15947 -11762194.44747  22166058.8594                   22166053.9304
        44.5004         45.2504
  -5393277.59846  -4190356.66045  24599185.1484                   24599181.3094
        38.7504         32.0004
 -12946188.32047 -10069270.08646  22671943.7194                   22671939.9104
        42.5004         41.0004
  25283549.85246  19744101.85745  25350670.5314                   25350667.5944
        40.2504         30.7504
 -16829900.46847 -13056835.00547  22270231.5784                   22270224.2934
        46.0004         46.0004
   -460302.77046   -478538.16043  24674766.5864                   24674761.6334
        38.2504         22.7504
 20  5 21  1  1 30.0000000  0  9G16G04G09G27G30G08G03G07G26
 -16976267.27347 -13112276.66445  21764375.1254                   21764367.2704
        46.0004         34.5004
 -25068172.32247 -19484839.50846  20746693.8754                   20746687.4064
        45.5004         37.7504
 -26579055.80248 -20697147.98549  20371380.2424                   20371374.5784
        50.2504         54.0004
 -15161318.50447 -11793547.42547  22158402.3594                   22158397.3634
        44.7504         45.0004
  -5477508.50146  -4255991.14745  24583156.1724                   24583152.4264
        38.5004         32.7504
 -13032675.62047 -10136662.78346  22655485.4614                   22655481.6174
        43.2504         41.2504
  25389607.25246  19826744.20644  25370851.0944                   25370845.2584
        37.5004         27.5004
 -16889760.36647 -13103479.07447  22258840.7664                   22258832.9964
        45.7504         46.0004
   -354247.20846   -395897.52343  24694947.1254                   24694944.4734
        37.7504         21.0004
 20  5 21  1  2  0.0000000  0  9G16G04G09G27G30G08G03G07G26
 -16891609.35847 -13046309.48545  21780485.4454                   21780477.3134
        46.5004         33.5004
 -25017573.32347 -19445411.74446  20756322.0864                   20756315.8794
        45.5004         37.7504
 -26597991.92748 -20711903.41549  20367777.0314                   20367771.7464
        51.0004         54.0004
 -15200980.75847 -11824453.08247  22150854.4694                   22150850.1804
        44.5004         45.0004
  -5561699.30146  -4321594.34145  24567136.7504                   24567130.9694
        38.7504         31.5004
 -13118850.02747 -10203811.66746  22639087.2974                   22639083.6134
        43.2504         41.2504
  25495545.24046  19888506.15855  25391012.8754                   25391008.9884
        39.7504         35.7504
 -16949495.39547 -13150025.84247  22247473.5474                   22247465.9614
        45.7504         46.0004
   -248154.21046   -313227.68743  24715136.5314                   24715132.9884
        38.2504         19.7504
 20  5 21  1  2 30.0000000  0  9G16G04G09G27G30G08G03G07G26
 -16806605.30347 -12980072.57045  21796660.7424                   21796652.9804
        46.0004         34.2504
 -24966515.35147 -19405626.33746  20766038.5394                   20766032.6884
        45.2504         38.5004
 -26616419.11548 -20726262.27249  20364270.3134                   20364264.6604
        50.5004         54.2504
 -15240069.90647 -11854912.13447  22143416.1254                   22143411.3014
        45.5004         45.0004
  -5645852.51246  -4387168.32245  24551121.2034                   24551117.4104
        38.2504         31.5004
 -13204711.62647 -10270716.81346  22622748.3284                   22622744.0784
        43.7504         41.7504
  25601356.36656  19970955.87453  25411147.3594                   25411145.4454
        37.7504         22.7504
 -17009108.62547 -13196477.69847  22236129.5394                   22236122.1054
        46.5004         46.2504
   -142028.71046   -230532.57543  24735332.0784                   24735328.2074
        39.0004         18.5004
 20  5 21  1  3  0.0000000  0  9G16G04G09G27G30G08G03G07G26
 -16721252.49547 -12913563.90745  21812903.2034                   21812895.5634
        45.7504         33.5004
 -24914993.70547 -19365479.62746  20775842.2424                   20775836.2424
        45.5004         38.0004
 -26634330.64748 -20740219.32649  20360862.0164                   20360856.2234
        50.2504         54.0004
 -15278578.46147 -11884918.79847  22136088.5164                   22136083.9924
        44.5004         45.2504
  -5729962.48646  -4452708.57545  24535116.8674                   24535111.7464
        38.7504         32.0004
 -13290251.73747 -10337371.43946  22606470.6954                   22606466.8324
        43.7504         41.7504
  25707043.76955  20014018.91855  25431257.9844                   25431257.3674
        33.5004         32.0004
 -17068594.20447 -13242830.08347  22224810.0704                   22224802.5984
        46.0004         46.2504
    -35867.11746   -147809.32543  24755533.5864                   24755530.5084
        38.5004         20.2504
 20  5 21  1  3 30.0000000  0  9G16G04G09G27G30G08G03G07G26
 -16635555.28447 -12846786.87945  21829210.7584                   21829202.8554
        45.5004         34.2504
 -24863010.54547 -19324973.29046  20785734.7344                   20785728.8754
        45.5004         37.7504
 -26651726.71348 -20753774.71949  20357551.3444                   20357546.0514
        50.0004         54.0004
 -15316505.95747 -11914472.67447  22128870.8054                   22128866.0354
        45.5004         45.2504
  -5814030.42146  -4518216.11245  24519117.9304                   24519113.6884
        38.5004         32.5004
 -13375468.24047 -10403773.88846  22590254.5004                   22590250.3594
        43.7504         41.7504
  25812609.46656  20076282.82154  25451347.7894                   25451343.6254
        36.2504         27.2504
 -17127953.03347 -13289083.70847  22213514.3204                   22213506.7234
        46.7504         46.2504
     70327.17746    -65060.55543  24775741.1804                   24775738.9454
        36.7504         20.7504
 20  5 21  1  4  0.0000000  0  9G16G04G09G27G30G08G03G07G26
 -16549518.81347 -12779745.49345  21845583.3834                   21845575.4614
        46.0004         34.0004
 -24810569.11847 -19284109.86746  20795714.0394                   20795708.0004
        45.5004         37.0004
 -26668608.63048 -20766929.46849  20354339.2274                   20354333.6134
        50.0004         54.0004
 -15353853.05147 -11943574.29947  22121764.2114                   22121759.3204
        45.2504         45.5004
  -5898058.60646  -4583692.61545  24503128.6484                   24503124.2074
        39.0004         32.5004
 -13460360.96947 -10469924.07147  22574099.9774                   22574096.1564
        44.2504         42.0004
  25918044.42146  20158439.98343  25471409.7814                   25471405.3714
        36.7504         22.5004
 -17187187.39947 -13335240.34147  22202242.4694                   22202234.2544
        46.0004         46.0004
    176549.61046     17710.14043  24795954.7424                   24795952.3674
        36.5004         20.0004
 20  5 21  1  4 30.0000000  0  9G16G04G09G27G30G08G03G07G26
 -16463144.91947 -12712441.17845  21862019.5084                   21862011.4844
        45.7504         33.5004
 -24757668.87347 -19242888.92546  20805780.5004                   20805774.5124
        45.7504         37.5004
 -26684973.95648 -20779681.68649  20351224.5704                   20351219.0634
        50.5004         54.0004
 -15390616.58147 -11972221.20247  22114767.8674                   22114763.3404
        44.5004         45.5004
  -5982045.55146  -4649137.00545  24487146.5704                   24487141.9924
        39.5004         31.7504
 -13544925.54947 -10535818.52747  22558008.0944                   22558004.0704
        44.7504         42.0004
  26023347.42345  20240494.30044  25491449.0164                   25491445.5664
        35.0004         29.2504
 -17246295.65047 -13381298.71347  22190994.0864                   22190986.4804
        46.7504         46.0004
    282799.77946    100502.27743  24816173.8594                   24816171.7274
        36.5004         18.5004
 20  5 21  1  5  0.0000000  0  9G16G04G09G27G30G08G03G07G26
 -16376436.93847 -12644876.53545  21878519.5164                   21878511.5634
        45.5004         33.5004
 -24704310.88147 -19201311.29346  20815934.1414                   20815928.3164
        45.5004         38.0004
 -26700821.74948 -20792030.62449  20348209.0704                   20348203.6644
        50.2504         54.2504
 -15426794.95047 -12000412.12247  22107883.5314                   22107878.7734
        45.2504         45.2504
  -6065991.30546  -4714549.27645  24471171.3984                   24471168.0204
        38.0004         32.5004
 -13629159.10047 -10601455.05647  22541978.8754                   22541974.5594
        44.5004         42.0004
  26128515.75746  20322443.44744  25511461.6254                   25511457.2464
        37.5004         27.0004
 -17305277.87447 -13427258.88447  22179770.4614                   22179762.5664
        46.2504         46.0004
    389075.32245    183314.37643  24836396.6254                   24836394.6724
        35.2504         19.0004
 20  5 21  1  5 30.0000000  0  9G16G04G09G27G30G08G03G07G26
 -16289397.19547 -12577053.37445  21895082.6644                   21895074.4804
        45.5004         32.7504
 -24650495.50147 -19159377.26346  20826174.6564                   20826168.7424
        45.5004         37.5004
 -26716150.38548 -20803975.03549  20345292.1334                   20345286.8164
        50.2504         54.2504
 -15462385.87747 -12028145.30947  22101110.6564                   22101105.8364
        45.0004         45.5004
  -6149895.02446  -4779928.79445  24455206.0634                   24455201.8794
        39.0004         32.2504
 -13713057.72947 -10666830.59347  22526013.6174                   22526009.4384
        43.5004         42.2504
  26233547.30646  20404286.31644  25531448.5234                   25531442.9774
        37.0004         26.0004
 -17364133.49247 -13473120.40447  22168570.2894                   22168562.9184
        46.0004         46.0004
    495374.75746    266145.02443  24856626.1334                   24856623.2504
        37.5004         18.2504
 20  5 21  1  6  0.0000000  0  9G16G04G09G27G30G08G03G07G26
 -16202028.60447 -12508973.97845  21911708.1334                   21911700.2814
        45.2504         33.2504
 -24596223.48947 -19117087.41946  20836502.6724                   20836496.6644
        45.7504         37.7504
 -26730958.71448 -20815514.01149  20342474.2504                   20342468.8634
        49.7504         54.2504
 -15497387.58947 -12055419.35247  22094450.2424                   22094445.2154
        45.2504         45.5004
  -6233756.66946  -4845275.50345  24439247.9384                   24439243.1644
        39.0004         32.2504
 -13796618.72647 -10731943.02747  22510112.1484                   22510108.0394
        44.0004         42.7504
  26338439.69846  20486020.61844  25551409.1024                   25551403.9654
        37.5004         26.5004
 -17422862.04547 -13518882.90347  22157394.6884                   22157387.1884
        46.0004         46.2504
    601696.24546    348992.90443  24876857.3594                   24876855.2774
        36.5004         18.5004
 20  5 21  1  6 30.0000000  0  8G16G04G09G27G30G08G07G26
 -16114330.53447 -12440637.84245  21928396.5084                   21928389.0204
        45.5004         33.0004
 -24541492.38847 -19074439.83746  20846917.8984                   20846911.8484
        45.5004         37.5004
 -26745242.31548 -20826644.09649  20339756.2194                   20339750.6054
        50.2504         54.0004
 -15531794.96547 -12082230.30247  22087902.4534                   22087897.9694
        45.2504         45.7504
  -6317572.55846  -4910586.57645  24423298.0864                   24423293.3594
        38.7504         33.0004
 -13879835.76247 -10796787.44247  22494276.8284                   22494272.0124
        43.7504         42.5004
 -17481459.97747 -13564543.61747  22146244.4774                   22146236.4494
        46.2504         46.5004
    708041.23246    431859.12043  24897095.5004                   24897092.6484
        38.5004         22.0004
 20  5 21  1  7  0.0000000  0  8G16G04G09G27G30G08G07G26
 -16026312.61447 -12372052.46845  21945145.9844                   21945137.7384
        45.2504         32.2504
 -24486309.38647 -19031440.12046  20857418.6094                   20857412.1724
        45.5004         37.2504
 -26759006.44248 -20837369.39549  20337136.6564                   20337131.5354
        50.5004         54.2504
 -15565612.68747 -12108581.75947  22081467.7504                   22081462.7304
        45.0004         45.7504
  -6401348.91446  -4975866.85445  24407354.9924                   24407351.1724
        38.7504         33.7504
 -13962711.83247 -10861366.17647  22478505.9694                   22478502.2734
        44.2504         42.5004
 -17539933.44747 -13610107.34947  22135116.7274                   22135109.2424
        46.5004         46.5004
    814401.45546    514737.14943  24917336.0234                   24917332.1024
        39.5004         19.0004
 20  5 21  1  7 30.0000000  0  8G16G04G09G27G30G08G07G26
 -15937974.37547 -12303217.49145  21961956.3594                   21961947.8484
        45.0004         32.5004
 -24430672.15447 -18988086.46546  20868005.8754                   20868000.2034
        45.7504         37.5004
 -26772246.83248 -20847686.59949  20334617.3834                   20334611.6374
        49.7504         54.0004
 -15598835.86647 -12134469.94847  22075145.2504                   22075140.8914
        45.0004         45.7504
  -6485082.20946  -5041113.56645  24391422.0554                   24391417.3984
        40.7504         34.0004
 -14045240.77747 -10925674.44847  22462801.4064                   22462796.8284
        45.0004         42.7504
 -17598278.71947 -13655571.17947  22124014.3054                   22124006.7934
        46.0004         47.0004
    920778.19246    597628.02342  24937578.3444                   24937574.9144
        38.0004         17.7504
 20  5 21  1  8  0.0000000  0  8G16G04G09G27G30G08G07G26
 -15849318.61847 -12234135.09345  21978827.1484                   21978818.8914
        45.5004         32.7504
 -24374581.51847 -18944379.50646  20878680.2034                   20878673.7234
        45.5004         37.5004
 -26784962.27748 -20857594.76149  20332197.6804                   20332192.3164
        49.5004         54.2504
 -15631462.64047 -12159893.39947  22068936.4694                   22068931.9804
        45.2504         45.7504
  -6568772.15846  -5106326.51345  24375496.1094                   24375491.6134
        40.0004         34.0004
 -14127419.38147 -10989709.72147  22447162.4224                   22447159.3324
        43.7504         42.7504
 -17656495.20547 -13700934.67847  22112935.8674                   22112928.4064
        46.0004         46.5004
   1027169.71246    680530.45742  24957822.5164                   24957820.2974
        36.0004         17.7504
 20  5 21  1  8 30.0000000  0  9G16G04G09G05G27G30G08G07G26
 -15760348.03947 -12164807.38945  21995757.2034                   21995749.1134
        45.2504         32.2504
 -24318038.09147 -18900319.71746  20889439.2664                   20889433.6604
        46.0004         37.5004
 -26797151.54148 -20867092.89749  20329878.3204                   20329872.7344
        50.2504         54.2504
    395886.00715                  25108001.508
        33.500
 -15663491.24547 -12184850.74447  22062841.6644                   22062837.1564
        44.7504         45.7504
  -6652418.33346  -5171505.36245  24359578.0634                   24359574.4064
        39.2504         34.0004
 -14209244.65947 -11053469.67247  22431591.4454                   22431587.9344
        43.0004         42.5004
 -17714582.59547 -13746197.57047  22101882.4694                   22101874.8284
        46.2504         46.5004
   1133574.28046    763443.06043  24978071.8054                   24978068.9574
        37.5004         19.7504
 20  5 21  1  9  0.0000000  0  9G16G04G09G05G27G30G08G07G26
 -15671066.83647 -12095237.64045  22012746.7194                   22012738.9384
        45.2504         33.0004
 -24261044.00847 -18855908.76346  20900285.4224                   20900279.5704
        45.5004         37.0004
 -26808814.74048 -20876181.11449  20327658.6804                   20327653.2304
        50.2504         54.2504
    334024.55146    272524.49255  25096230.1724                   25096223.1334
        38.0004         31.5004
 -15694921.08447 -12209341.52447  22056860.9774                   22056856.1334
        45.0004         45.5004
  -6736021.60346  -5236650.76845  24343669.6644                   24343664.9614
        39.7504         32.5004
 -14290714.80947 -11116952.87247  22416088.6334                   22416085.2424
        44.5004         43.0004
 -17772542.01747 -13791360.75047  22090853.0314                   22090845.2814
        46.0004         46.5004
   1239988.94046    846363.52143  24998322.4224                   24998319.9574
        38.5004         21.0004
 20  5 21  1  9 30.0000000  0  9G16G04G09G05G27G30G08G07G26
 -15581474.75247 -12025425.65045  22029796.0704                   22029788.3674
        45.0004         32.5004
 -24203597.34847 -18811145.16046  20911217.0864                   20911211.0824
        45.5004         37.5004
 -26819948.04148 -20884856.42949  20325540.1174                   20325534.6094
        50.5004         54.2504
    272610.30546    224669.24444  25084543.3134                   25084536.3404
        37.0004         29.5004
 -15725747.84347 -12233362.37547  22050994.5234                   22050990.0234
        44.7504         45.5004
  -6819578.98146  -5301760.41745  24327769.5164                   24327764.1684
        39.5004         33.0004
 -14371823.60547 -11180154.52947  22400654.2114                   22400650.3594
        44.0004         43.0004
 -17830369.90347 -13836421.44347  22079848.4454                   22079841.1094
        45.7504         46.5004
   1346414.73846    929292.73043  25018575.2974                   25018571.3204
        39.7504         19.2504
 20  5 21  1 10  0.0000000  0  9G16G04G09G05G27G30G08G07G26
 -15491576.65047 -11955375.19645  22046902.5234                   22046894.9224
        44.5004         32.5004
 -24145700.65547 -18766030.87946  20922234.5474                   20922228.7154
        45.7504         36.7504
 -26830552.08948 -20893119.33449  20323522.1024                   20323516.7344
        50.0004         54.2504
    211643.59346    177162.76645  25072941.9304                   25072934.5164
        38.0004         30.0004
 -15755971.49747 -12256913.27347  22045243.4844                   22045239.0394
        44.7504         45.5004
  -6903091.77546  -5366835.32145  24311877.1334                   24311872.6024
        39.7504         33.5004
 -14452569.80147 -11243073.62947  22385288.8594                   22385284.9574
        44.7504         43.0004
 -17888067.86147 -13881380.88247  22068869.0554                   22068861.5944
        46.0004         46.5004
   1452848.13746   1012227.66843  25038828.6484                   25038825.1724
        39.7504         18.5004
 20  5 21  1 10 30.0000000  0  9G16G04G09G05G27G30G08G07G26
 -15401375.31847 -11885088.47245  22064067.4694                   22064060.0234
        44.7504         31.7504
 -24087354.91947 -18720566.68746  20933337.1174                   20933331.1884
        45.5004         37.2504
 -26840625.83748 -20900969.02049  20321605.5314                   20321599.8054
        49.2504         54.2504
    151126.31746    130006.46745  25061425.9614                   25061418.7894
        38.5004         30.7504
 -15785590.54547 -12279993.04547  22039607.0704                   22039602.1094
        45.0004         45.7504
  -6986559.74146  -5431875.30445  24295993.7344                   24295988.9224
        39.0004         31.7504
 -14532950.27547 -11305707.75547  22369992.5004                   22369988.6484
        45.0004         43.2504
 -17945635.20147 -13926238.54947  22057914.2664                   22057906.8754
        46.0004         46.5004
  23615167.28056  18281567.24753  25059082.4774                   25059079.4654
        38.2504         19.0004
 20  5 21  1 11  0.0000000  0  9G16G04G09G05G27G30G08G07G26
 -15310873.20647 -11814567.38445  22081289.6334                   22081281.9384
        45.2504         32.2504
 -24028560.51747 -18674752.89146  20944525.3134                   20944519.1174
        45.7504         37.2504
 -26850167.79348 -20908404.31448  20319789.7814                   20319784.3794
        48.5004         53.7504
     91061.02946     83202.35845  25049995.5234                   25049988.8134
        38.5004         30.7504
 -15814602.85747 -12302600.04247  22034086.4774                   22034081.3134
        44.7504         46.0004
  -7069982.06946  -5496879.71945  24280118.3444                   24280113.8594
        39.0004         32.2504
 -14612962.06347 -11368054.59947  22354767.3444                   22354763.2194
        45.0004         43.5004
 -18003071.16647 -13970993.84247  22046985.0784                   22046977.1484
        46.5004         46.7504
  23721610.83946  18364510.35942  25079338.7114                   25079335.3094
        39.5004         17.2504
 20  5 21  1 11 30.0000000  0  9G16G04G09G05G27G30G08G07G26
 -15220073.32947 -11743814.24245  22098568.0234                   22098560.7544
        45.0004         32.0004
 -23969319.07947 -18628590.75846  20955799.1644                   20955792.7424
        45.7504         37.2504
 -26859177.66748 -20915425.00748  20318074.8674                   20318069.5984
        49.5004         53.7504
     31448.66346     36751.16345  25038651.1094                   25038645.0514
        38.2504         30.7504
 -15843007.54747 -12324733.56947  22028680.9144                   22028676.4064
        45.0004         46.0004
  -7153359.19146  -5561848.89345  24264252.7664                   24264248.2034
        40.0004         33.7504
 -14692601.70747 -11430111.45247  22339612.0394                   22339608.4574
        44.5004         43.0004
 -18060375.94747 -14015646.91247  22036079.9844                   22036072.4614
        46.2504         47.0004
  23828056.53546  18447454.92943  25099593.8204                   25099591.4144
        37.0004         19.0004
 20  5 21  1 12  0.0000000  0  9G16G04G09G05G27G30G08G07G26
 -15128978.18147 -11672831.02745  22115903.0314                   22115895.0204
        45.2504         31.7504
 -23909630.82347 -18582080.45346  20967157.0864                   20967151.0784
        45.7504         37.0004
 -26867653.67648 -20922029.70148  20316462.1414                   20316456.7384
        49.2504         53.7504
    -27707.64346     -9344.63045  25027394.3284                   25027387.7814
        37.5004         31.0004
 -15870802.37647 -12346391.88047  22023392.1414                   22023387.3404
        45.0004         46.0004
  -7236689.94046  -5626781.94845  24248395.6174                   24248391.2344
        40.5004         34.5004
 -14771866.50147 -11491876.22847  22324528.3594                   22324524.6134
        45.0004         43.5004
 -18117548.58247 -14060197.01347  22025200.0944                   22025192.7504
        46.2504         47.2504
  23934503.45846  18530400.61142  25119849.9384                   25119847.4774
        38.2504         17.7504
 20  5 21  1 12 30.0000000  0  9G16G04G09G05G27G30G08G07G26
 -15037591.22047 -11601620.42545  22133294.0474                   22133285.3754
        45.0004         31.5004
 -23849497.20447 -18535223.10946  20978600.2504                   20978593.8834
        45.5004         36.7504
 -26875595.34848 -20928218.02849  20314950.7894                   20314945.3954
        49.5004         54.0004
    -86406.80046    -55084.23345  25016224.7664                   25016217.4304
        38.5004         31.2504
 -15897986.32947 -12367574.17547  22018218.6484                   22018214.1294
        45.2504         46.0004
  -7319974.56146  -5691679.05445  24232547.1564                   24232542.6094
        39.2504         33.7504
 -14850753.79047 -11553346.82847  22309516.7974                   22309513.1564
        45.2504         43.5004
 -18174589.06247 -14104644.13447  22014346.6564                   22014339.0704
        46.5004         47.0004
  24040949.14645  18613345.25442  25140104.1954                   25140103.8714
        33.0004         16.7504
 20  5 21  1 13  0.0000000  0  9G16G04G09G05G27G30G08G07G26
 -14945915.55147 -11530184.85845  22150739.0394                   22150731.5274
        45.0004         31.5004
 -23788919.52447 -18488019.75246  20990127.6564                   20990121.8674
        45.5004         37.0004
 -26883002.14848 -20933989.56949  20313541.3284                   20313536.2234
        49.5004         54.0004
   -144647.69046   -100466.74945  25005141.6254                   25005134.4414
        38.7504         31.7504
 -15924558.30847 -12388279.61847  22013162.3364                   22013157.5594
        45.2504         46.0004
  -7403213.11846  -5756540.26545  24216707.4304                   24216703.1684
        40.0004         34.7504
 -14929260.10247 -11614520.56847  22294577.5084                   22294574.0354
        45.0004         43.5004
 -18231497.30547 -14148988.20947  22003516.8134                   22003508.8874
        46.5004         47.2504
  24147391.67946  18696287.30343  25160361.5474                   25160359.7664
        38.5004         19.2504
 20  5 21  1 13 30.0000000  0  9G16G04G09G05G27G30G08G07G26
 -14853952.73847 -11458525.55045  22168238.8834                   22168230.7894
        44.5004         31.5004
 -23727897.80247 -18440470.38546  21001739.8134                   21001733.9574
        45.5004         37.2504
 -26889872.06948 -20939342.76249  20312234.1644                   20312228.8014
        49.2504         54.2504
   -202427.70246   -145490.13545  24994145.9924                   24994139.6454
        37.5004         30.5004
 -15950515.79547 -12408506.23047  22008222.5314                   22008218.1454
        45.5004         46.2504
  -7486404.19946  -5821364.48945  24200876.8524                   24200872.5664
        39.2504         35.0004
 -15007381.88447 -11675394.66847  22279711.2814                   22279707.7584
        44.5004         44.0004
 -18288271.78847 -14193228.07747  21992713.2584                   21992705.2424
        46.5004         47.2504
  24253830.34746  18779226.45243  25180617.7114                   25180613.7384
        40.2504         19.0004
 20  5 21  1 14  0.0000000  0  9G16G04G09G05G27G30G08G07G26
 -14761706.99647 -11386645.78245  22185792.7274                   22185784.7974
        44.5004         31.2504
 -23666434.45147 -18392576.89046  21013435.7274                   21013430.3444
        45.5004         36.5004
 -26896205.67748 -20944278.05549  20311029.0474                   20311023.2194
        49.7504         54.2504
   -259746.01446   -190153.75545  24983238.7734                   24983232.5434
        37.5004         30.5004
 -15975858.86447 -12428254.08147  22003400.3984                   22003395.8364
        45.5004         46.0004
  -7569548.99746  -5886152.62945  24185054.4534                   24185050.3714
        39.5004         34.7504
 -15085117.67347 -11735968.01247  22264918.9454                   22264915.1214
        45.7504         44.2504
 -18344913.60047 -14237364.55647  21981934.2274                   21981926.4924
        47.0004         47.2504
  24360264.95616                  25200869.344
        37.500
 20  5 21  1 14 30.0000000  0  9G16G04G09G05G27G30G08G07G26
 -14669179.23947 -11314546.24845  22203400.2584                   22203392.5044
        44.5004         31.2504
 -23604528.49947 -18344338.52346  21025216.2584                   21025210.3984
        45.5004         37.0004
 -26902000.04448 -20948793.15949  20309926.6024                   20309920.6564
        48.5004         54.0004
   -316598.94846   -234454.74245  24972420.5084                   24972413.7344
        37.5004         30.2504
 -16000584.12047 -12447520.51347  21998695.2894                   21998690.5204
        45.2504         46.2504
  -7652645.17446  -5950902.89445  24169242.4454                   24169237.5274
        39.5004         34.2504
 -15162462.07647 -11796236.36347  22250200.7344                   22250196.8554
        45.2504         44.0004
 -18401420.27647 -14281395.73447  21971181.2974                   21971174.1024
        46.0004         47.2504
  24466689.673 5                  25221119.852
        34.000
 20  5 21  1 15  0.0000000  0  9G16G04G09G05G27G30G08G07G26
 -14576372.70947 -11242229.49345  22221060.4844                   22221052.5314
        44.5004         30.5004
 -23542181.40747 -18295756.39946  21037080.4454                   21037074.6604
        45.5004         36.5004
 -26907254.77048 -20952887.76849  20308926.3054                   20308920.7234
        49.0004         54.2504
   -372985.05046   -278391.98445  24961690.7034                   24961683.5664
        37.0004         30.7504
 -16024690.57247 -12466304.76647  21994107.8054                   21994103.4734
        45.5004         46.2504
  -7735692.72746  -6015615.26945  24153437.8054                   24153434.3204
        39.2504         34.2504
 -15239413.00347 -11856198.12147  22235557.9534                   22235553.7504
        45.5004         44.2504
 -18457792.01147 -14325321.75747  21960454.3444                   21960446.5314
        46.2504         47.5004
  24573105.69446  18891658.07053  25241370.3674                   25241368.8524
        36.5004         18.5004
 20  5 21  1 15 30.0000000  0  9G16G04G09G05G27G30G08G07G26
 -14483291.37647 -11169698.60945  22238773.4454                   22238765.6804
        44.5004         31.5004
 -23479395.33547 -18246832.21046  21049028.3914                   21049022.5904
        45.7504         36.7504
 -26911969.99748 -20956561.98649  20308029.1414                   20308023.2854
        49.0004         54.2504
   -428903.67746   -321964.92145  24951049.1644                   24951042.7584
        37.0004         30.2504
 -16048177.99747 -12484606.65647  21989638.1724                   21989633.3484
        45.7504         46.0004
  -7818692.47046  -6080290.37245  24137644.7734                   24137639.7344
        39.5004         33.0004
 -15315968.57247 -11915851.80247  22220989.4064                   22220985.7894
        45.2504         44.0004
 -18514029.57747 -14369143.23447  21949752.5554                   21949745.0664
        46.5004         47.0004
  24679510.04945  18974570.46242  25261619.5234                   25261617.6024
        31.5004         15.5004
 20  5 21  1 16  0.0000000  0  9G16G04G09G05G27G30G08G07G26
 -14389937.64747 -11096955.46845  22256538.1334                   22256530.4884
        44.2504         31.2504
 -23416171.10347 -18197566.60646  21061059.5784                   21061053.6094
        45.5004         36.5004
 -26916144.63848 -20959814.96749  20307234.4454                   20307228.7584
        48.5004         54.0004
   -484353.27246   -365172.41845  24940496.6564                   24940491.0824
        36.7504         30.2504
 -16071044.80147 -12502424.94947  21985286.4454                   21985282.0984
        45.0004         46.0004
  -7901643.81846  -6144927.79245  24121859.6804                   24121854.3364
        40.0004         33.7504
 -15392125.46147 -11975194.82647  22206497.2584                   22206493.4104
        45.2504         44.5004
 -18570131.70847 -14412859.17347  21939076.4694                   21939069.3714
        46.2504         47.0004
  24785901.498 4                  25281865.680
        27.500
 20  5 21  1 16 30.0000000  0  8G16G04G09G05G27G30G08G07
 -14296311.87847 -11024000.35045  22274354.4534                   22274346.6724
        44.2504         30.5004
 -23352506.99347 -18147958.23246  21073174.5704                   21073168.1484
        46.0004         36.0004
 -26919775.19048 -20962643.98149  20306543.5554                   20306538.0394
        49.0004         54.2504
   -539329.03246   -408010.68245  24930036.3364                   24930029.5664
        37.2504         30.0004
 -16093286.95647 -12519756.49447  21981054.2114                   21981049.6454
        46.0004         46.0004
  -7984543.68046  -6209525.09145  24106083.5234                   24106079.3244
        39.0004         34.2504
 -15467877.66747 -12034222.52247  22192082.7424                   22192077.9264
        45.7504         44.5004
 -18626095.52147 -14456467.33847  21928427.0004                   21928419.3914
        46.7504         47.0004
 20  5 21  1 17  0.0000000  0  8G16G04G09G05G27G30G08G07
 -14202420.89447 -10950838.57345  22292221.5084                   22292213.5044
        44.5004         31.2504
 -23288408.49247 -18098011.37546  21085371.9924                   21085366.1214
        46.0004         36.5004
 -26922865.19448 -20965051.78249  20305955.8594                   20305950.5124
        48.5004         54.2504
   -593833.97646   -450482.08945  24919663.3754                   24919657.8014
        37.5004         30.5004
 -16114907.63247 -12536603.77447  21976940.3984                   21976935.1454
        46.0004         46.0004
  -8067396.12046  -6274085.43845  24090317.2734                   24090312.8714
        39.2504         35.0004
 -15543227.22147 -12092936.46147  22177743.5944                   22177739.5904
        46.5004         44.7504
 -18681924.91647 -14499970.75447  21917803.3204                   21917795.0314
        46.7504         47.0004
 20  5 21  1 17 30.0000000  0  8G16G04G09G05G27G30G08G07
 -14108265.91747 -10877471.08045  22310138.4614                   22310130.9534
        44.5004         31.2504
 -23223875.07747 -18047725.61946  21097652.5474                   21097646.3134
        45.5004         36.5004
 -26925412.21848 -20967036.48849  20305471.3054                   20305465.5354
        48.5004         54.0004
   -647864.33746   -492583.65845  24909382.3444                   24909376.1054
        37.0004         30.0004
 -16135903.95447 -12552964.54247  21972944.8524                   21972939.8484
        46.5004         46.0004
  -8150199.16246  -6338607.28845  24074560.0784                   24074555.9064
        39.2504         35.0004
 -15618168.88847 -12151332.56347  22163482.3674                   22163478.7344
        46.0004         44.5004
 -18737617.99147 -14543367.95947  21907205.1174                   21907197.2584
        46.5004         47.0004
 20  5 21  1 18  0.0000000  0  8G16G04G09G05G27G30G08G07
 -14013849.36747 -10803899.78645  22328105.0864                   22328097.7624
        44.5004         30.0004
 -23158907.48647 -17997101.54546  21110015.3524                   21110009.1294
        46.2504         36.7504
 -26927415.14748 -20968597.22449  20305090.1254                   20305084.5514
        48.7504         54.0004
   -701418.25646   -534313.98944  24899191.3914                   24899185.1294
        36.7504         29.7504
 -16156274.28847 -12568837.52747  21969068.3054                   21969063.4024
        46.7504         46.0004
  -8232951.98646  -6403090.00645  24058813.8284                   24058808.8014
        40.0004         35.5004
 -15692699.40247 -12209408.28647  22149299.9844                   22149295.9774
        45.5004         44.5004
 -18793173.45047 -14586657.94947  21896633.2814                   21896625.3714
        46.5004         47.2504
 20  5 21  1 18 30.0000000  0  8G16G04G09G05G27G30G08G07
 -13919173.94047 -10730126.76145  22346121.7894                   22346113.5314
        44.7504         31.2504
 -23093506.84347 -17946140.03346  21122460.5634                   21122454.5634
        45.5004         36.5004
 -26928873.14148 -20969733.33049  20304812.4144                   20304807.3674
        48.5004         54.0004
   -754494.09245   -575671.79544  24889090.8674                   24889085.2704
        35.7504         28.5004
 -16176017.48047 -12584221.83247  21965311.0474                   21965306.3594
        47.0004         46.0004
  -8315654.31646  -6467533.36445  24043074.8834                   24043071.2734
        39.2504         35.7504
 -15766816.22447 -12267161.64447  22135196.0944                   22135192.0744
        46.0004         44.5004
 -18848591.36747 -14629840.73947  21886087.2504                   21886079.5314
        46.2504         47.0004
 20  5 21  1 19  0.0000000  0  8G16G04G09G05G27G30G08G07
 -13824242.31247 -10656154.08845  22364186.3754                   22364178.9104
        44.5004         30.5004
 -23027674.15547 -17894841.87346  21134988.0944                   21134982.2344
        45.5004         36.5004
 -26929785.37248 -20970444.17549  20304639.0554                   20304633.9384
        48.2504         54.0004
   -807089.93846   -616655.52444  24879083.0394                   24879076.1954
        37.5004         29.0004
 -16195132.20947 -12599116.42247  21961673.5704                   21961668.9964
        46.2504         46.2504
  -8398305.53346  -6531936.90246  24027347.2664                   24027343.3914
        39.5004         36.2504
 -15840516.46247 -12324590.40647  22121171.1644                   22121167.1024
        45.5004         44.2504
 -18903870.60947 -14672915.47547  21875568.0864                   21875560.2544
        46.5004         47.2504
 20  5 21  1 19 30.0000000  0  8G16G04G09G05G27G30G08G07
 -13729057.54547 -10581984.16245  22382299.4384                   22382291.8284
        44.0004         30.5004
 -22961410.89747 -17843208.18246  21147597.9384                   21147591.3594
        46.0004         36.5004
 -26930151.48648 -20970729.47449  20304569.6884                   20304564.0124
        48.2504         54.2504
   -859204.82046   -657264.54544  24869165.8284                   24869159.2814
        37.5004         29.0004
 -16213617.72347 -12613520.70747  21958155.9694                   21958151.0864
        46.2504         46.2504
  -8480905.70346  -6596300.66446  24011629.2034                   24011624.8674
        39.5004         36.0004
 -15913797.11847 -12381692.21047  22107226.2504                   22107222.5394
        46.2504         44.7504
 -18959011.26147 -14715882.21147  21865075.5164                   21865067.7704
        46.7504         47.5004
 20  5 21  1 20  0.0000000  0  8G16G04G09G05G27G30G08G07
 -13633621.72747 -10507618.61545  22400460.3984                   22400452.3674
        44.2504         30.5004
 -22894717.66647 -17791239.46446  21160289.3364                   21160283.2274
        45.5004         36.5004
 -26929970.07948 -20970588.13149  20304603.6334                   20304598.2894
        48.2504         54.2504
   -910836.30645   -697496.86744  24859339.0554                   24859333.7274
        35.7504         28.5004
 -16231472.26747 -12627433.34047  21954758.5474                   21954754.4384
        47.2504         46.0004
  -8563453.80346  -6660623.84446  23995921.0864                   23995916.2814
        39.0004         36.0004
 -15986654.97347 -12438464.56547  22093362.1334                   22093358.4304
        45.5004         44.7504
 -19014011.97947 -14758739.91347  21854609.0704                   21854601.2664
        46.7504         47.5004
 20  5 21  1 20 30.0000000  0  8G16G04G09G05G27G30G08G07
 -13537938.29247 -10433060.12945  22418668.3284                   22418660.9264
        44.0004         30.2504
 -22827596.29547 -17738937.12346  21173061.8054                   21173056.1914
        45.7504         36.5004
 -26929241.20848 -20970020.18949  20304742.5474                   20304737.0234
        48.5004         54.0004
   -961983.60146   -737351.91844  24849607.2194                   24849600.8954
        37.5004         29.0004
 -16248695.47947 -12640854.01447  21951480.8834                   21951476.8674
        47.0004         46.5004
  -8645950.15046  -6724906.71445  23980221.8984                   23980217.6334
        38.7504         35.0004
 -16059087.71147 -12494905.65347  22079578.4304                   22079574.9024
        46.2504         44.7504
 -19068873.17147 -14801488.86347  21844169.5004                   21844161.4454
        46.5004         47.2504
 20  5 21  1 21  0.0000000  0  8G16G04G09G05G27G30G08G07
 -13442010.11447 -10358310.94445  22436923.2664                   22436915.6334
        44.0004         30.7504
 -22760048.12247 -17686302.21246  21185916.3204                   21185909.9414
        45.5004         36.5004
 -26927964.34048 -20969025.23549  20304985.7424                   20304979.9024
        49.0004         54.2504
  -1012645.42246   -776828.64644  24839967.4774                   24839960.1024
        38.0004         29.5004
 -16265286.43747 -12653782.02747  21948324.0474                   21948319.1994
        47.5004         46.5004
  -8728394.49746  -6789149.05446  23964534.0474                   23964529.1334
        40.0004         36.0004
 -16131092.29247 -12551013.10847  22065876.9454                   22065872.7664
        46.0004         45.2504
 -19123594.36347 -14844128.74847  21833756.1094                   21833748.4844
        46.5004         47.5004
 20  5 21  1 21 30.0000000  0  8G16G04G09G05G27G30G08G07
 -13345839.13947 -10283372.54945  22455223.9064                   22455216.2234
        44.2504         30.5004
 -22692073.74447 -17633335.20045  21198850.9454                   21198845.0944
        45.7504         35.5004
 -26926138.24348 -20967602.31749  20305333.1024                   20305327.6414
        48.2504         54.2504
  -1062819.25346   -815925.15444  24830419.6954                   24830412.7384
        39.2504         29.7504
 -16281243.55247 -12666216.13547  21945287.2424                   21945282.7814
        47.0004         46.5004
  -8810785.83246  -6853350.09045  23948856.3054                   23948850.5124
        40.2504         35.5004
 -16202665.72347 -12606784.60747  22052255.9694                   22052252.6604
        46.2504         45.5004
 -19178174.29147 -14886658.56347  21823370.1254                   21823362.4064
        46.5004         47.7504
 20  5 21  1 22  0.0000000  0  8G16G04G09G05G27G30G08G07
 -13249428.91647 -10208247.73344  22473570.0864                   22473561.7544
        43.7504         29.5004
 -22623674.83947 -17580037.37645  21211866.4774                   21211860.8524
        45.7504         35.5004
 -26923762.68848 -20965751.24349  20305785.2194                   20305779.8094
        48.2504         54.0004
  -1112504.39646   -854640.88244  24820963.7344                   24820957.6174
        37.0004         29.5004
 -16296566.20947 -12678155.86847  21942372.0314                   21942366.6994
        47.0004         46.5004
  -8893124.18546  -6917509.85445  23933186.0394                   23933181.8364
        40.0004         35.7504
 -16273805.55147 -12662218.22747  22038718.7894                   22038715.1484
        46.0004         45.5004
 -19232613.18147 -14929078.47347  21813010.4694                   21813002.8634
        46.5004         47.7504
 20  5 21  1 22 30.0000000  0  8G16G04G09G05G27G30G08G07
 -13152781.86847 -10132938.36744  22491960.9144                   22491952.9494
        44.2504         29.5004
 -22554852.40847 -17526409.54046  21224963.4454                   21224957.3404
        45.5004         36.0004
 -26920836.87848 -20963471.40349  20306341.6724                   20306336.4184
        48.2504         54.0004
  -1161698.83846   -892974.20745  24811603.1254                   24811596.5354
        38.2504         30.0004
 -16311253.32947 -12689600.37047  21939576.1804                   21939572.1804
        46.5004         46.2504
  -8975408.94446  -6981627.83245  23917528.3134                   23917523.5824
        40.0004         35.2504
 -16344508.42447 -12717311.37147  22025264.6804                   22025260.5164
        46.0004         45.2504
 -19286910.18947 -14971387.81648  21802678.3984                   21802670.6484
        46.5004         48.0004
 20  5 21  1 23  0.0000000  0  8G16G04G09G05G27G30G08G07
 -13055900.23447 -10057446.21745  22510397.9384                   22510389.5394
        43.7504         30.2504
 -22485607.51147 -17472452.50246  21238140.2734                   21238134.4224
        45.7504         36.2504
 -26917360.00748 -20960762.16249  20307003.5864                   20306998.0904
        48.2504         54.0004
  -1210400.95546   -930923.92845  24802334.2344                   24802329.2274
        38.2504         30.5004
 -16325303.71047 -12700548.70947  21936903.1564                   21936898.1884
        46.0004         46.5004
  -9057639.53846  -7045703.61745  23901880.8364                   23901875.5044
        40.0004         35.0004
 -16414771.79747 -12772062.05547  22011893.8594                   22011890.1884
        45.2504         45.2504
 -19341064.54647 -15013586.02547  21792373.0554                   21792365.5044
        46.7504         47.7504
 20  5 21  1 23 30.0000000  0  8G16G04G09G05G27G30G08G07
 -12958786.93147  -9981773.52944  22528877.3984                   22528869.4104
        43.7504         29.7504
 -22415941.62947 -17418167.42646  21251397.4304                   21251391.4844
        46.0004         36.5004
 -26913331.73748 -20957623.26249  20307770.0554                   20307764.2734
        48.0004         54.0004
  -1258609.40646   -968488.95145  24793161.6954                   24793154.9614
        39.5004         30.2504
 -16338716.67447 -12711000.36147  21934350.5944                   21934345.9304
        47.0004         46.7504
  -9139815.79546  -7109737.06045  23886242.0314                   23886237.6954
        40.0004         35.5004
 -16484592.75847 -12826467.98647  21998607.5944                   21998603.6604
        45.2504         45.5004
 -19395075.68647 -15055672.62547  21782094.5084                   21782087.1644
        46.5004         47.7504
 20  5 21  1 24  0.0000000  0  8G16G04G09G05G27G30G08G07
 -12861444.72247  -9905922.48045  22547401.1174                   22547393.1764
        43.5004         30.0004
 -22345856.21347 -17363555.44746  21264734.1954                   21264728.4734
        45.7504         36.5004
 -26908751.70648 -20954054.42249  20308641.5864                   20308636.2504
        48.7504         54.0004
  -1306323.31146  -1005668.64044  24784081.6564                   24784074.8984
        38.7504         29.7504
 -16351491.54247 -12720954.78947  21931920.0394                   21931915.0664
        46.5004         46.7504
  -9221937.45346  -7173727.97545  23870614.6954                   23870610.6134
        39.2504         35.5004
 -16553968.51747 -12880527.02547  21985405.6724                   21985401.3324
        45.0004         45.5004
 -19448943.62147 -15097647.65147  21771844.1954                   21771836.5864
        47.0004         47.7504
 20  5 21  1 24 30.0000000  0  8G16G04G09G05G27G30G08G07
 -12763876.59847  -9829895.38644  22565967.5084                   22565959.8054
        43.5004         29.7504
 -22275352.47347 -17308617.48846  21278150.3134                   21278144.6724
        45.7504         36.0004
 -26903619.26648 -20950055.12749  20309618.0314                   20309612.9384
        48.2504         54.0004
  -1353540.51446  -1042461.28445  24775096.3204                   24775089.7154
        38.5004         30.5004
 -16363627.40747 -12730411.29647  21929610.3674                   21929605.4774
        46.7504         46.5004
  -9304004.04246  -7237675.96245  23854998.4694                   23854994.2774
        39.7504         35.5004
 -16622896.71447 -12934237.29547  21972289.0944                   21972285.2304
        45.5004         45.5004
 -19502667.80047 -15139510.64647  21761621.2274                   21761613.2304
        46.7504         47.7504
 20  5 21  1 25  0.0000000  0  8G16G04G09G05G27G30G08G07
 -12666084.45247  -9753693.74944  22584576.6884                   22584568.7854
        43.5004         29.5004
 -22204431.04647 -17253354.07646  21291646.4064                   21291640.8014
        45.2504         36.0004
 -26897933.25448 -20945624.48149  20310700.5944                   20310694.9104
        49.2504         54.0004
  -1400259.48546  -1078865.67645  24766206.4614                   24766198.7854
        39.0004         30.2504
 -16375122.70847 -12739368.67247  21927422.6804                   21927417.9534
        47.0004         46.5004
  -9386014.45046  -7301580.16446  23839393.3524                   23839388.0704
        39.5004         36.5004
 -16691373.51247 -12987595.83947  21959258.5084                   21959254.4574
        45.5004         45.7504
 -19556246.41847 -15181260.21647  21751425.1954                   21751417.6214
        46.5004         47.7504
 20  5 21  1 25 30.0000000  0  8G16G04G09G05G27G30G08G07
 -12568072.01947  -9677320.44844  22603227.9844                   22603220.4304
        43.2504         28.0004
 -22133094.34147 -17197767.07146  21305221.6414                   21305215.6054
        46.5004         36.0004
 -26891694.30148 -20940762.96349  20311887.6804                   20311881.7774
        48.2504         54.0004
  -1446479.65046  -1114881.42045  24757410.4924                   24757404.0704
        39.7504         31.0004
 -16385977.84447 -12747827.20847  21925357.0944                   21925352.2934
        46.0004         46.5004
  -9467969.35946  -7365441.12646  23823796.8134                   23823792.8794
        39.7504         36.0004
 -16759397.15447 -13040601.26847  21946313.9844                   21946309.7934
        45.2504         45.7504
 -19609680.41147 -15222897.09347  21741257.3984                   21741249.6054
        46.5004         47.7504
 20  5 21  1 26  0.0000000  0  8G16G04G09G05G27G30G08G07
 -12469840.94947  -9600776.78944  22621921.1094                   22621912.7934
        43.5004         29.0004
 -22061342.90847 -17141856.89946  21318875.2194                   21318869.3094
        45.7504         36.2504
 -26884901.14848 -20935469.61049  20313180.1484                   20313174.5594
        48.7504         54.0004
  -1492198.88846  -1150506.79845  24748711.7664                   24748704.2934
        40.0004         30.2504
 -16396191.18947 -12755785.64847  21923413.7194                   21923408.7704
        47.0004         46.7504
  -9549867.49846  -7429257.85246  23808211.9064                   23808207.8554
        39.5004         36.7504
 -16826964.73747 -13093251.31847  21933456.5164                   21933452.6094
        45.5004         46.0004
 -19662968.46347 -15264420.25647  21731116.4534                   21731108.7664
        47.0004         47.7504
 20  5 21  1 26 30.0000000  0  8G16G04G09G05G27G30G08G07
 -12371394.41847  -9524065.22444  22640654.0634                   22640646.8094
        43.5004         29.0004
 -21989178.30247 -17085624.78245  21332607.5784                   21332601.8284
        46.0004         35.0004
 -26877553.50548 -20929744.18649  20314578.4384                   20314573.1134
        48.2504         54.0004
  -1537416.21946  -1185741.10145  24740106.5554                   24740099.4694
        38.7504         31.0004
 -16405762.32247 -12763243.66147  21921592.2974                   21921587.3284
        46.0004         46.7504
  -9631708.74946  -7493030.25146  23792639.7664                   23792634.2734
        40.7504         36.5004
 -16894073.35047 -13145543.74047  21920686.3204                   21920682.2034
        45.2504         46.2504
 -19716110.10047 -15305829.33047  21721003.9534                   21720996.5124
        46.7504         47.7504
 20  5 21  1 27  0.0000000  0  8G16G04G09G05G27G30G08G07
 -12272735.16147  -9447187.90544  22659428.4924                   22659421.1844
        43.2504         28.5004
 -21916602.24847 -17029072.03645  21346418.6804                   21346412.5554
        46.0004         35.5004
 -26869651.35548 -20923586.68049  20316082.4534                   20316076.5274
        49.0004         54.0004
  -1582130.53346  -1220583.39645  24731597.7034                   24731591.1564
        40.5004         31.5004
 -16414690.83247 -12770200.93247  21919893.5634                   21919888.5004
        46.2504         46.5004
  -9713492.99246  -7556758.21646  23777075.8674                   23777070.6804
        41.0004         36.5004
 -16960720.66047 -13197476.70447  21908003.8754                   21907999.4344
        45.0004         46.2504
 -19769105.09847 -15347124.12648  21710919.3524                   21710912.2274
        47.5004         48.0004
 20  5 21  1 27 30.0000000  0  8G16G04G09G05G27G30G08G07
 -12173865.79547  -9370146.86344  22678243.1724                   22678235.2624
        43.5004         28.5004
 -21843615.85047 -16972199.54646  21360307.4304                   21360301.2854
        46.5004         36.0004
 -26861194.07248 -20916996.60349  20317691.3914                   20317686.4654
        48.5004         54.0004
  -1626340.07546  -1255032.42845  24723184.7664                   24723178.2814
        38.7504         31.7504
 -16422975.85547 -12776656.78747  21918316.5704                   21918311.7304
        46.2504         46.7504
  -9795219.56146  -7620441.26346  23761523.8834                   23761519.0864
        40.5004         36.7504
 -17026903.48547 -13249047.73047  21895409.3444                   21895405.5124
        44.7504         46.2504
 -19821952.49447 -15388303.90648  21700863.1024                   21700855.0434
        47.7504         48.0004
 20  5 21  1 28  0.0000000  0  8G16G04G09G05G27G30G08G07
 -12074788.53247  -9292943.83344  22697096.8834                   22697088.5004
        43.5004         29.0004
 -21770220.29747 -16915008.24146  21374274.2504                   21374268.2974
        46.5004         36.0004
 -26852181.00948 -20909973.45149  20319407.0394                   20319401.6764
        48.5004         54.0004
  -1670043.23246  -1289086.82045  24714868.0164                   24714862.2234
        38.2504         32.0004
 -16430616.50647 -12782610.53747  21916862.4534                   21916858.1094
        46.5004         46.5004
  -9876887.80946  -7684078.83446  23745982.2114                   23745977.9414
        41.2504         36.2504
 -17092619.25647 -13300254.82247  21882903.9614                   21882900.4144
        45.7504         46.5004
 -19874651.75247 -15429368.26548  21690834.6884                   21690827.0594
        47.0004         48.0004
 20  5 21  1 28 30.0000000  0  8G16G04G09G05G27G30G08G07
 -11975506.26147  -9215581.05544  22715989.5394                   22715981.8674
        42.7504         27.0004
 -21696417.11447 -16857499.30545  21388318.3204                   21388312.5634
        46.5004         35.7504
 -26842611.94448 -20902517.04849  20321227.6094                   20321222.2504
        49.0004         54.0004
  -1713239.28346  -1322746.08545  24706648.4694                   24706642.1454
        39.5004         32.7504
 -16437612.28347 -12788061.78547  21915531.3834                   21915526.7584
        46.5004         46.5004
  -9958497.40146  -7747670.71646  23730452.8674                   23730448.6334
        40.2504         36.0004
 -17157865.26247 -13351095.86247  21870487.8444                   21870484.0634
        44.7504         46.2504
 -19927202.07948 -15470316.56448  21680834.6174                   21680827.3794
        48.0004         48.2504
 20  5 21  1 29  0.0000000  0  8G16G04G09G05G27G30G08G07
 -11876022.09347  -9138060.96144  22734920.7034                   22734913.4024
        43.0004         28.0004
 -21622207.96547 -16799674.02945  21402440.1414                   21402434.5274
        46.0004         35.5004
 -26832486.77648 -20894627.32849  20323154.6954                   20323149.1564
        48.2504         54.0004
  -1755927.04646  -1356009.27645  24698525.5004                   24698518.8594
        39.7504         32.7504
 -16443962.91047 -12793010.31847  21914322.6884                   21914318.3094
        45.5004         46.5004
 -10040048.13546  -7811216.73646  23714933.6724                   23714929.6174
        40.5004         36.2504
 -17222639.42847 -13401569.23847  21858161.9694                   21858157.6524
        45.0004         46.2504
 -19979603.33847 -15511148.71148  21670863.3444                   21670855.4924
        47.0004         48.0004
 20  5 21  1 29 30.0000000  0  8G16G04G09G05G27G30G08G07
 -11776338.00847  -9060385.08144  22753889.6884                   22753882.5474
        43.5004         28.7504
 -21547593.85547 -16741533.20545  21416638.7034                   21416632.8364
        45.2504         35.5004
 -26821804.81948 -20886303.73149  20325187.2504                   20325182.2304
        48.7504         54.0004
  -1798105.08746  -1388875.28145  24690499.3594                   24690493.0594
        39.2504         33.0004
 -16449667.45947 -12797455.41247  21913237.3524                   21913232.9654
        45.2504         46.5004
 -10121539.21546  -7874716.27045  23699426.6644                   23699422.1454
        40.5004         35.7504
 -17286938.37747 -13451672.31547  21845926.4384                   21845922.3754
        45.5004         46.5004
 -20031854.54847 -15551863.93548  21660920.0004                   21660912.4224
        47.2504         48.0004
 20  5 21  1 30  0.0000000  0  8G16G04G09G05G27G30G08G07
 -11676456.03147  -8982555.01744  22772897.7664                   22772889.7624
        43.5004         28.0004
 -21472575.83647 -16683077.63346  21430913.7504                   21430908.3834
        46.7504         36.0004
 -26810565.30548 -20877545.68449  20327326.1954                   20327320.7384
        48.5004         54.0004
  -1839771.54746  -1421342.65745  24682569.9534                   24682563.6454
        39.2504         33.0004
 -16454724.96647 -12801396.32147  21912274.9924                   21912270.1254
        45.7504         46.5004
 -10202969.68746  -7938168.57346  23683931.5864                   23683926.4264
        40.5004         36.0004
 -17350759.53847 -13501403.08347  21833781.7034                   21833777.5634
        45.2504         46.2504
 -20083954.70547 -15592461.45548  21651005.5084                   21650998.0394
        47.5004         48.2504
 20  5 21  1 30 30.0000000  0  8G16G04G09G05G27G30G08G07
 -11576379.62947  -8904573.43344  22791941.2734                   22791933.6214
        43.0004         27.0004
 -21397156.31147 -16624309.21045  21445265.6644                   21445260.1374
        46.0004         35.2504
 -26798768.94448 -20868353.72349  20329570.6804                   20329565.1454
        48.7504         54.0004
  -1880926.09846  -1453411.13045  24674739.1254                   24674732.2304
        39.2504         32.5004
 -16459135.86147 -12804833.38547  21911435.1094                   21911430.5314
        45.5004         46.7504
 -10284340.17246  -8001574.13046  23668446.9064                   23668442.4104
        41.0004         37.5004
 -17414100.89647 -13550759.98347  21821727.7584                   21821724.1524
        45.0004         46.5004
 -20135904.18747 -15632941.57348  21641119.9384                   21641112.2384
        47.2504         48.0004
 20  5 21  1 31  0.0000000  0  8G16G04G09G05G27G30G08G07
 -11476111.42647  -8826442.39344  22811021.9384                   22811013.7114
        43.0004         27.5004
 -21321336.44547 -16565228.83145  21459694.2894                   21459688.0744
        46.2504         35.5004
 -26786415.18448 -20858727.43049  20331921.3524                   20331916.2154
        48.7504         54.0004
  -1921567.32146  -1485079.61245  24667005.5944                   24666998.5784
        39.5004         33.0004
 -16462899.43447 -12807766.02947  21910719.3134                   21910714.9574
        45.5004         46.7504
 -10365649.79446  -8064932.25546  23652974.1644                   23652969.7274
        41.2504         37.2504
 -17476959.59647 -13599740.78347  21809766.2274                   21809762.5314
        45.0004         46.7504
 -20187701.75247 -15673303.30648  21631263.4384                   21631255.2074
        47.5004         48.0004
 20  5 21  1 31 30.0000000  0  8G16G04G09G05G27G30G08G07
 -11375654.56147  -8748164.34844  22830137.7584                   22830129.9534
        43.0004         28.5004
 -21245118.22947 -16505838.04145  21474198.3054                   21474192.2384
        45.5004         35.5004
 -26773504.29948 -20848667.00749  20334378.6334                   20334373.0824
        48.5004         54.0004
  -1961694.36446  -1516347.47145  24659369.0554                   24659362.6454
        38.5004         33.0004
 -16466015.80947 -12810194.37847  21910126.8204                   21910121.8094
        45.2504         46.5004
 -10446898.70746  -8128243.07046  23637513.3524                   23637508.7624
        41.5004         38.0004
 -17539333.62647 -13648343.91047  21797897.1884                   21797893.2464
        45.2504         46.5004
 -20239347.42347 -15713546.68548  21621435.2034                   21621427.8054
        47.0004         48.0004
 20  5 21  1 32  0.0000000  0  9G16G04G09G05G27G30G08G11G07
 -11275010.93147  -8669740.77244  22849289.7424                   22849281.2704
        43.5004         28.0004
 -21168502.49747 -16446137.50446  21488777.4614                   21488771.5354
        46.5004         36.5004
 -26760035.37648 -20838171.75249  20336941.3754                   20336936.1684
        48.5004         54.0004
  -2001305.74446  -1547213.46645  24651831.1094                   24651824.5744
        37.5004         32.7504
 -16468483.80947 -12812117.48847  21909656.5004                   21909652.1024
        45.7504         46.7504
 -10528085.61246  -8191505.57846  23622063.6644                   23622059.4654
        41.0004         37.7504
 -17601219.65547 -13696566.79047  21786120.3444                   21786116.6954
        45.0004         46.7504
                                  25611503.406
        32.000
 -20290840.11547 -15753670.86248  21611636.7504                   21611628.8014
        47.5004         48.2504
 20  5 21  1 32 30.0000000  0  9G16G04G09G05G27G30G08G11G07
 -11174186.85247  -8591176.58244  22868475.4534                   22868467.8984
        42.7504         27.0004
 -21091494.77847 -16386131.52445  21503431.7504                   21503425.6684
        46.2504         34.7504
 -26746012.28948 -20827244.68249  20339609.9534                   20339604.6094
        49.5004         54.0004
  -2040404.60846  -1577680.10545  24644391.3594                   24644384.3134
        39.0004         32.2504
 -16470307.21947 -12813538.32747  21909309.8134                   21909304.9694
        45.7504         46.7504
 -10609214.21547  -8254722.64346  23606624.9384                   23606620.7034
        42.5004         37.5004
 -17662619.54547 -13744410.85647  21774436.5234                   21774433.1214
        45.2504         47.0004
    143254.781 6                  25594777.430
        39.000
 -20342183.08548 -15793678.37448  21601866.4924                   21601858.7304
        48.0004         48.5004
 20  5 21  1 33  0.0000000  0  9G16G04G09G05G27G30G08G11G07
 -11073176.59047  -8512467.32244  22887697.0704                   22887690.1454
        42.7504         26.7504
 -21014087.95347 -16325814.56045  21518161.9534                   21518155.9494
        46.0004         35.5004
 -26731426.24548 -20815878.94449  20342385.6174                   20342380.2584
        48.2504         54.0004
  -2078980.79746  -1607739.47745  24637049.8754                   24637043.1054
        38.2504         31.7504
 -16471477.04747 -12814449.89247  21909087.2664                   21909082.0434
        45.5004         46.7504
 -10690275.41147  -8317887.19246  23591200.0314                   23591195.4414
        42.0004         38.2504
 -17723521.98247 -13791867.29747  21762846.9454                   21762843.3054
        45.7504         47.0004
     55254.00946     98140.22653  25578030.9774                   25578026.4694
        38.5004         19.0004
 -20393367.08347 -15833562.01548  21592126.3914                   21592118.8134
        47.7504         48.5004
 20  5 21  1 33 30.0000000  0  9G16G04G09G05G27G30G08G11G07
 -10971986.95947  -8433618.30644  22906953.1254                   22906945.4804
        43.2504         27.2504
 -20936288.18947 -16265191.40645  21532966.5864                   21532960.4614
        45.2504         34.7504
 -26716281.68248 -20804078.00149  20345267.5944                   20345262.1134
        49.0004         54.0004
  -2117037.79646  -1637394.28145  24629808.1484                   24629801.2114
        37.7504         32.2504
 -16471997.58747 -12814855.50647  21908987.5314                   21908983.0084
        45.2504         46.7504
 -10771273.27447  -8381002.38846  23575786.3754                   23575781.9144
        42.5004         38.0004
 -17783928.84147 -13838937.56747  21751352.7664                   21751348.1524
        45.5004         47.0004
    -32856.86746     29482.35842  25561264.7584                   25561259.4144
        37.7504         15.5004
 -20444396.24647 -15873325.00648  21582415.8674                   21582408.2814
        47.5004         48.5004
 20  5 21  1 34  0.0000000  0  9G16G04G09G05G27G30G08G11G07
 -10870620.75547  -8354631.70444  22926242.6804                   22926235.0434
        43.2504         28.0004
 -20858097.12147 -16204263.33845  21547845.6884                   21547840.7974
        45.5004         35.0004
 -26700578.61348 -20791841.85549  20348255.8524                   20348250.1884
        48.7504         54.0004
  -2154575.14346  -1666644.13245  24622665.6884                   24622658.2304
        39.5004         33.0004
 -16471868.64747 -12814755.03347  21909012.6804                   21909008.0664
        46.0004         46.7504
 -10852207.47147  -8444067.98346  23560385.4534                   23560380.8364
        42.2504         37.5004
 -17843838.16347 -13885620.15447  21739951.2504                   21739947.5784
        45.5004         47.2504
   -121075.49446    -39259.49942  25544476.6724                   25544471.9964
        36.7504         13.7504
 -20495269.81448 -15912966.74748  21572735.2034                   21572727.3244
        48.0004         48.5004
 20  5 21  1 34 30.0000000  0  9G16G04G09G05G27G30G08G11G07
 -10769080.20547  -8275509.23044  22945565.0554                   22945558.1724
        43.5004         28.2504
 -20779515.98847 -16143031.33245  21562799.0234                   21562793.2274
        45.0004         35.5004
 -26684316.57248 -20779170.14449  20351350.5004                   20351345.1134
        48.7504         54.0004
  -2191591.00746  -1695487.66845  24615620.2194                   24615614.3244
        38.2504         32.5004
 -16471089.69647 -12814148.06247  21909160.8674                   21909155.7344
        47.0004         46.7504
 -10933077.17746  -8507083.31946  23544996.0704                   23544991.3714
        41.5004         37.2504
 -17903246.75947 -13931912.56047  21728646.8674                   21728642.8914
        45.5004         47.0004
   -209398.88646   -108082.92942  25527669.6414                   25527665.1484
        37.0004         17.2504
 -20545986.83748 -15952486.50648  21563084.0634                   21563076.0944
        48.0004         48.5004
 20  5 21  1 35  0.0000000  0  9G16G04G09G05G27G30G08G11G07
 -10667368.72747  -8196253.55844  22964920.4924                   22964912.8014
        43.5004         27.7504
 -20700547.25447 -16081497.28745  21577826.4694                   21577820.8834
        45.5004         34.5004
 -26667496.37948 -20766063.50949  20354551.3594                   20354545.6294
        49.5004         54.0004
  -2228085.43046  -1723924.86745  24608676.6334                   24608670.1454
        37.5004         32.5004
 -16469661.41047 -12813035.11647  21909432.3284                   21909427.6414
        45.2504         46.7504
 -11013882.79846  -8570048.71246  23529619.0634                   23529614.6764
        40.7504         37.2504
 -17962153.06747 -13977813.58447  21717437.4924                   21717433.3674
        46.2504         47.0004
   -297825.61546   -176986.81143  25510842.5474                   25510838.0394
        37.0004         18.5004
 -20596547.46248 -15991884.40048  21553462.3674                   21553454.9694
        48.0004         48.5004
 20  5 21  1 35 30.0000000  0  9G16G04G09G05G27G30G08G11G07
 -10565487.61747  -8116865.73644  22984307.7504                   22984300.0044
        43.0004         26.7504
 -20621191.38147 -16019661.56545  21592927.5474                   21592921.5274
        45.7504         34.5004
 -26650116.90248 -20752521.07149  20357858.5864                   20357853.2704
        48.5004         54.0004
  -2264056.31146  -1751954.12145  24601831.7114                   24601824.9924
        38.2504         31.7504
 -16467582.46847 -12811415.16447  21909828.4064                   21909823.5594
        45.5004         47.0004
 -11094622.71447  -8632962.92846  23514254.8054                   23514250.1134
        42.0004         38.0004
 -18020553.89147 -14023320.70847  21706323.5234                   21706319.6644
        45.7504         47.0004
   -386352.01745   -245968.37542  25493996.3984                   25493992.7504
        35.0004         16.7504
 -20646950.11647 -16031159.20348  21543871.3284                   21543864.0314
        47.5004         48.5004
 20  5 21  1 36  0.0000000  0  9G16G04G09G05G27G30G08G11G07
 -10463440.31347  -8037348.39744  23003726.8204                   23003718.9694
        43.0004         26.7504
 -20541450.59947 -15957525.92445  21608101.6954                   21608095.9224
        45.2504         34.7504
 -26632178.64548 -20738543.22149  20361271.9384                   20361266.5664
        48.7504         54.0004
  -2299503.25246  -1779575.11245  24595085.7584                   24595079.2894
        39.7504         32.7504
 -16464853.35247 -12809288.58547  21910347.3674                   21910343.1054
        46.0004         46.7504
 -11175297.03847  -8695826.03746  23498902.8914                   23498898.4884
        42.0004         38.0004
 -18078447.55747 -14068432.65447  21695307.1414                   21695302.8284
        45.7504         47.0004
   -474976.08245   -315026.00042  25477131.0944                   25477127.2974
        35.5004         15.5004
 -20697194.63547 -16070310.77348  21534309.8984                   21534302.5864
        47.7504         48.5004
 20  5 21  1 36 30.0000000  0  9G16G04G09G05G27G30G08G11G07
 -10361229.23347  -7957703.42544  23023176.6954                   23023169.2114
        43.0004         25.7504
 -20461326.50047 -15895091.59745  21623348.7814                   21623343.1174
        45.5004         34.7504
 -26613681.66448 -20724129.99849  20364791.7344                   20364786.6454
        48.5004         54.0004
  -2334425.52146  -1806787.27045  24588440.9224                   24588433.2274
        38.5004         32.5004
 -16461473.97747 -12806655.30547  21910990.7424                   21910986.0554
        45.5004         46.7504
 -11255905.27747  -8758637.65246  23483563.5394                   23483559.7774
        42.0004         38.7504
 -18135831.35147 -14113147.28747  21684386.9304                   21684383.2974
        45.5004         47.0004
   -563695.29245   -384157.83242  25460249.3524                   25460244.5904
        35.0004         16.2504
 -20747280.26847 -16109338.54248  21524778.7424                   21524770.9964
        47.7504         48.5004
 20  5 21  1 37  0.0000000  0 10G16G04G09G05G27G30G08G11G28G07
 -10258856.52047  -7877932.51344  23042657.8674                   23042649.6914
        43.0004         26.5004
 -20380820.50347 -15832359.68745  21638668.5634                   21638662.6414
        45.2504         34.5004
 -26594625.70348 -20709281.21149  20368418.1484                   20368412.6524
        48.5004         54.0004
  -2368821.87146  -1833589.60945  24581895.0634                   24581888.7384
        39.0004         33.0004
 -16457443.97747 -12803515.04647  21911757.5864                   21911753.1024
        46.2504         46.7504
 -11336446.77447  -8821397.23146  23468237.3364                   23468233.0314
        42.0004         39.2504
 -18192702.76247 -14157462.66747  21673565.0164                   21673561.0474
        45.5004         47.5004
   -652506.74546   -453361.44042  25443348.9454                   25443344.1644
        36.0004         16.7504
   -183054.67256   -105703.53253  24871226.9534                   24871219.5824
        36.2504         19.7504
 -20797206.21347 -16148241.87248  21515278.4224                   21515270.6174
        47.5004         48.5004
 20  5 21  1 37 30.0000000  0 10G16G04G09G05G27G30G08G11G28G07
 -10156325.20347  -7798038.04244  23062168.8594                   23062160.6054
        42.7504         25.2504
 -20299934.63647 -15769331.77945  21654060.5314                   21654055.1764
        45.2504         34.5004
 -26575011.21548 -20693997.21149  20372150.6804                   20372145.4454
        49.2504         54.0004
  -2402691.77746  -1859981.73245  24575449.3914                   24575442.9384
        38.7504         31.7504
 -16452763.72747 -12799868.09847  21912648.3834                   21912643.3484
        46.5004         46.7504
 -11416921.33547  -8884104.65746  23452924.0164                   23452919.4654
        42.0004         38.7504
 -18249059.97147 -14201377.35847  21662840.5704                   21662836.8204
        46.5004         47.5004
   -741408.46545   -522635.39943  25426431.9384                   25426425.8914
        35.5004         18.5004
   -282681.22845   -183334.66543  24852268.9534                   24852262.3284
        34.7504         18.5004
 -20846972.12147 -16187020.50948  21505808.3364                   21505800.7504
        47.7504         48.5004
 20  5 21  1 38  0.0000000  0 10G16G04G09G05G27G30G08G11G28G07
 -10053636.60747  -7718020.97644  23081710.0944                   23081702.2704
        42.5004         25.7504
 -20218669.53347 -15706008.37445  21669525.3204                   21669519.2704
        45.2504         34.5004
 -26554837.24948 -20678277.25348  20375989.6724                   20375984.2704
        49.0004         53.7504
  -2436033.14246  -1885962.02945  24569105.7664                   24569098.9344
        39.7504         32.5004
 -16447432.23747 -12795713.68047  21913662.6724                   21913658.1454
        46.7504         46.7504
 -11497327.49647  -8946758.79746  23437623.0474                   23437618.2774
        42.2504         38.7504
 -18304899.11147 -14244888.37647  21652215.1484                   21652210.7504
        46.0004         47.7504
   -830396.75546   -591976.83342  25409497.9534                   25409492.9734
        36.2504         16.7504
   -382172.67045   -260860.47242  24833336.3674                   24833329.9884
        35.0004         17.7504
 -20896576.23047 -16225673.05548  21496369.2504                   21496361.5554
        47.7504         48.5004
 20  5 21  1 38 30.0000000  0 10G16G04G09G05G27G30G08G11G28G07
  -9950793.95447  -7637883.88144  23101280.3364                   23101272.7774
        42.2504         26.2504
 -20137027.52047 -15642391.24845  21685061.3524                   21685055.3284
        45.7504         34.5004
 -26534104.46348 -20662121.84348  20379934.9694                   20379929.3954
        48.2504         53.7504
  -2468846.21046  -1911530.66045  24562860.3364                   24562854.8164
        38.5004         33.2504
 -16441450.06847 -12791052.24447  21914801.4304                   21914796.1604
        46.5004         47.0004
 -11577665.32747  -9009359.69746  23422334.4844                   23422330.1254
        42.0004         38.2504
 -18360219.37347 -14287995.06047  21641687.9144                   21641683.9384
        46.5004         47.7504
   -919469.64846   -661384.21542  25392546.8674                   25392541.4964
        38.0004         15.5004
   -481528.36645   -338280.51742  24814430.0004                   24814423.4844
        33.5004         15.5004
 -20946018.71248 -16264199.67548  21486960.4144                   21486952.3404
        48.0004         48.7504
 20  5 21  1 39  0.0000000  0 10G16G04G09G05G27G30G08G11G28G07
  -9847799.36047  -7557628.39544  23120879.0474                   23120871.4844
        42.0004         25.5004
 -20055010.02347 -15578481.55545  21700668.6804                   21700662.4574
        45.7504         34.2504
 -26512812.82248 -20645530.97149  20383986.4774                   20383981.1724
        48.5004         54.0004
  -2501129.66546  -1936686.61445  24556717.5474                   24556711.3014
        38.2504         32.0004
 -16434817.07447 -12785883.67447  21916063.8284                   21916058.7934
        46.2504         46.7504
 -11657934.14246  -9071906.81546  23407060.4534                   23407055.6524
        41.5004         38.2504
 -18415017.94747 -14330695.24247  21631260.0084                   21631255.8364
        46.5004         47.7504
  -1008624.67046   -730855.64042  25375581.6174                   25375576.3914
        38.0004         16.7504
   -580746.26345   -415593.16542  24795549.6334                   24795542.7854
        32.7504         15.5004
 -20995298.54648 -16302599.54748  21477582.8594                   21477574.7974
        48.0004         48.7504
 20  5 21  1 39 30.0000000  0 10G16G04G09G05G27G30G08G11G28G07
  -9744655.49647  -7477256.59944  23140507.4384                   23140499.4144
        43.0004         27.5004
 -19972618.79147 -15514280.62245  21716347.1884                   21716341.2464
        45.2504         34.0004
 -26490962.39448 -20628504.68049  20388144.9224                   20388139.1684
        48.5004         54.0004
  -2532882.70546  -1961429.23545  24550675.7664                   24550668.4924
        38.5004         31.7504
 -16427533.34447 -12780208.04347  21917449.3364                   21917444.6914
        45.7504         46.5004
 -11738133.42246  -9134399.75246  23391798.3524                   23391794.1374
        40.7504         37.7504
 -18469291.94647 -14372986.65848  21620931.7894                   21620928.2344
        46.0004         48.0004
  -1097858.93546   -800388.72842  25358601.2664                   25358595.8594
        38.2504         17.7504
   -679825.42445   -492797.79442  24776695.0004                   24776689.6524
        34.2504         14.7504
 -21044415.14047 -16340872.22748  21468236.0234                   21468228.6644
        47.5004         48.7504
 20  5 21  1 40  0.0000000  0 10G16G04G09G05G27G30G08G11G28G07
  -9641365.30447  -7396770.78944  23160162.7504                   23160155.1764
        43.5004         26.7504
 -19889855.98947 -15449790.16745  21732096.1724                   21732090.4734
        45.0004         34.5004
 -26468553.93848 -20611043.55448  20392408.9304                   20392403.5084
        48.0004         53.7504
  -2564104.93646  -1985758.26645  24544733.2114                   24544727.1414
        38.2504         32.5004
 -16419599.53547 -12774025.84347  21918959.1334                   21918954.1994
        45.5004         46.5004
 -11818263.16346  -9196838.49246  23376550.9694                   23376546.2974
        41.2504         38.5004
 -18523040.74147 -14414868.82048  21610703.5474                   21610699.6094
        45.7504         48.0004
  -1187170.39146   -869981.97043  25341605.8674                   25341600.3014
        37.7504         18.5004
   -778764.59745   -551241.26353  24757867.2344                   24757860.4804
        34.2504         19.5004
 -21093368.27047 -16379017.53248  21458920.4534                   21458913.1484
        47.5004         48.7504
 20  5 21  1 40 30.0000000  0 10G16G04G09G05G27G30G08G11G28G07
  -9537930.44447  -7316172.23044  23179845.6484                   23179838.4024
        42.0004         26.2504
 -19806722.60047 -15385010.93245  21747916.3054                   21747910.3524
        45.2504         34.2504
 -26445586.75848 -20593147.06948  20396779.2894                   20396773.6954
        48.5004         53.7504
  -2594794.91246  -2009672.53745  24538893.3754                   24538886.7234
        38.7504         32.0004
 -16411014.96847 -12767336.57047  21920592.6094                   21920588.1254
        46.2504         46.7504
 -11898322.07647  -9259222.03846  23361316.0864                   23361311.3364
        42.2504         39.0004
 -18576260.83347 -14456339.00748  21600576.1024                   21600572.5274
        46.5004         48.0004
  -1276555.85946   -939632.89442  25324595.2424                   25324590.3754
        37.0004         16.2504
   -877561.88045   -628226.24242  24739066.5084                   24739061.2544
        35.5004         15.5004
 -21142156.49047 -16417034.33248  21449637.0394                   21449629.2154
        47.7504         48.7504
 20  5 21  1 41  0.0000000  0 10G16G04G09G05G27G30G08G11G28G07
  -9434353.51647  -7235462.97943  23199555.6804                   23199548.5474
        42.0004         23.7504
 -19723220.51447 -15319944.41045  21763806.0704                   21763800.5984
        45.2504         34.0004
 -26422061.24948 -20574815.52448  20401256.3674                   20401251.0314
        48.2504         53.7504
  -2624952.50046  -2033171.93545  24533155.7274                   24533148.5314
        40.0004         32.2504
 -16401779.92747 -12760140.42847  21922349.6954                   21922344.7034
        46.0004         46.7504
 -11978309.73847  -9321550.07946  23346095.3284                   23346090.3324
        42.2504         39.0004
 -18628950.16547 -14497395.61947  21590549.8594                   21590545.5864
        46.5004         47.7504
  -1366012.78746  -1009339.68042  25307572.3054                   25307567.7424
        37.2504         15.5004
   -976216.18945   -705099.73942  24720293.8054                   24720287.7034
        35.5004         13.7504
 -21190779.13147 -16454922.10348  21440383.8444                   21440376.0084
        47.5004         48.7504
 20  5 21  1 41 30.0000000  0 10G16G04G09G05G27G30G08G11G28G07
  -9330637.09547  -7154645.02844  23219291.8364                   23219285.4574
        42.2504         26.0004
 -19639351.73147 -15254592.15045  21779765.8444                   21779760.1054
        44.7504         34.0004
 -26397977.93748 -20556049.31848  20405838.7344                   20405833.5394
        48.2504         53.7504
  -2654576.98446  -2056255.97345  24527518.4304                   24527510.7114
        40.5004         32.7504
 -16391894.99647 -12752437.88247  21924231.1094                   21924226.1844
        45.7504         46.7504
 -12058226.00047  -9383822.48346  23330887.2664                   23330882.7034
        42.0004         38.5004
 -18681106.46447 -14538036.88148  21580624.8984                   21580620.8094
        46.7504         48.0004
  -1455538.79346  -1079100.03642  25290536.2424                   25290532.0634
        37.0004         17.7504
  -1074726.03545   -781860.70142  24701546.7664                   24701542.6764
        34.5004         17.2504
 -21239235.78947 -16492680.54248  21431163.0164                   21431155.3054
        47.5004         48.5004
 20  5 21  1 42  0.0000000  0 10G16G04G09G05G27G30G08G11G28G07
  -9226783.66847  -7073720.34144  23239054.6804                   23239047.0274
        42.0004         26.0004
 -19555117.84547 -15188955.40245  21795795.2664                   21795789.0984
        45.5004         34.7504
 -26373336.82648 -20536848.46548  20410528.0084                   20410522.6684
        48.0004         53.5004
  -2683667.55646  -2078923.94145  24521983.0864                   24521975.1174
        41.7504         33.0004
 -16381360.16547 -12744228.91947  21926236.2034                   21926231.1214
        45.7504         46.5004
 -12138070.06647  -9446038.64646  23315693.1884                   23315688.9224
        42.7504         39.2504
 -18732728.13547 -14578261.55147  21570801.3524                   21570797.7504
        45.5004         47.7504
  -1545130.97745  -1148911.99942  25273485.5554                   25273482.9224
        31.7504         16.2504
  -1173089.89645   -858507.86742  24682829.5554                   24682823.8954
        35.2504         17.2504
 -21287525.72847 -16530309.06048  21421973.8594                   21421965.9694
        46.2504         48.5004
 20  5 21  1 42 30.0000000  0 10G16G04G09G05G27G30G08G11G28G07
  -9122795.33646  -6992690.51343  23258842.9534                   23258835.7034
        41.2504         23.0004
 -19470520.38447 -15123035.33845  21811893.3284                   21811887.8444
        45.0004         33.5004
 -26348137.96948 -20517213.00248  20415322.9924                   20415317.6174
        48.0004         53.5004
  -2712222.95246  -2101174.91845  24516548.5084                   24516540.9774
        40.5004         31.2504
 -16370175.46547 -12735513.55847  21928364.2194                   21928359.5314
        46.5004         46.5004
 -12217841.26446  -9508197.99446  23300513.2814                   23300509.2584
        41.7504         39.0004
 -18783812.47847 -14618067.51847  21561080.3914                   21561076.6914
        46.5004         47.7504
  -1634786.70445  -1218773.58542  25256426.2734                   25256421.8164
        35.2504         14.7504
  -1271306.31146   -935040.19042  24664140.4304                   24664133.9224
        36.0004         17.7504
 -21335647.86547 -16567806.83048  21412816.4614                   21412808.6764
        47.7504         48.7504
 20  5 21  1 43  0.0000000  0 10G16G04G09G05G27G30G08G11G28G07
  -9018674.78947  -6911557.65944  23278657.0474                   23278649.1684
        42.0004         24.7504
 -19385561.29947 -15056833.48945  21828060.5784                   21828054.9264
        45.2504         34.2504
 -26322381.87748 -20497143.34448  20420224.2274                   20420218.9184
        48.2504         53.7504
  -2740243.03546  -2123008.75045  24511216.8204                   24511208.6374
        40.2504         32.2504
 -16358341.37647 -12726292.17747  21930616.1254                   21930611.2464
        46.0004         46.5004
 -12297539.17146  -9570300.23646  23285347.8984                   23285343.2194
        41.5004         40.0004
 -18834357.32547 -14657453.10947  21551462.0864                   21551457.8674
        45.7504         47.7504
  -1724503.55046  -1288682.76842  25239353.9534                   25239348.9264
        36.7504         17.7504
  -1369374.34046  -1011456.84142  24645479.2504                   24645472.1764
        37.5004         17.2504
 -21383601.70348 -16605173.46248  21403690.9304                   21403683.0354
        48.0004         49.0004
 20  5 21  1 43 30.0000000  0 10G16G04G09G05G27G30G08G11G28G07
  -8914424.54546  -6830323.74544  23298495.0004                   23298487.2304
        41.0004         24.0004
 -19300242.73947 -14990351.53945  21844296.4534                   21844290.0554
        45.2504         34.2504
 -26296069.13448 -20476639.91548  20425231.8134                   20425226.3324
        48.2504         53.5004
  -2767727.46346  -2144425.17545  24505987.3594                   24505978.8754
        41.2504         32.7504
 -16345858.52947 -12716565.27647  21932991.5004                   21932986.8134
        45.7504         46.5004
 -12377163.58746  -9632345.22546  23270194.9144                   23270190.9264
        41.5004         39.7504
 -18884361.31047 -14696417.23947  21541946.4774                   21541942.5594
        46.5004         47.7504
  -1814279.24546  -1358637.80343  25222270.3984                   25222264.7664
        37.5004         19.5004
  -1467292.48546  -1087756.78242  24626844.9534                   24626838.2894
        36.5004         17.2504
 -21431386.85447 -16642408.64948  21394597.8674                   21394590.1524
        47.7504         48.7504
 20  5 21  1 44  0.0000000  0 10G16G04G09G05G27G30G08G11G28G07
  -8810046.44147  -6748990.19044  23318357.8524                   23318349.6254
        42.2504         24.0004
 -19214566.05747 -14923590.52045  21860600.2664                   21860594.3404
        45.0004         34.0004
 -26269199.66748 -20455702.68048  20430344.4144                   20430339.3054
        48.2504         53.5004
  -2794675.25046  -2165423.46945  24500858.1644                   24500850.8134
        39.7504         32.5004
 -16332726.84147 -12706332.77847  21935490.8444                   21935485.8834
        46.5004         46.5004
 -12456713.48746  -9694332.15346  23255057.0784                   23255053.4774
        41.2504         39.5004
 -18933821.95047 -14734957.99247  21532534.3364                   21532530.6684
        46.5004         47.7504
  -1904110.62046  -1428636.18143  25205175.7894                   25205170.8914
        37.5004         19.5004
  -1565058.50745  -1163938.17042  24608240.1724                   24608235.1294
        35.0004         17.2504
 -21479002.01048 -16679511.37348  21385537.4064                   21385529.3874
        48.0004         48.7504
 20  5 21  1 44 30.0000000  0 10G16G04G09G05G27G30G08G11G28G07
  -8705543.09246  -6667559.04244  23338244.0474                   23338235.9734
        41.7504         24.5004
 -19128532.75047 -14856551.61145  21876971.1174                   21876965.5704
        44.7504         33.5004
 -26241773.59548 -20434331.72748  20435563.8444                   20435558.4454
        48.0004         53.7504
  -2821085.52946  -2186002.91245  24495832.4534                   24495824.8404
        40.7504         32.7504
 -16318946.48247 -12695594.83647  21938112.4844                   21938107.5474
        46.0004         46.5004
 -12536188.13446  -9756260.42746  23239933.6954                   23239929.4184
        41.5004         39.0004
 -18982736.97347 -14773073.58648  21523226.4534                   21523222.1884
        46.5004         48.0004
  -1993994.41446  -1498675.49343  25188072.2734                   25188065.9144
        38.7504         19.7504
  -1662672.18745  -1240000.70842  24589665.5314                   24589659.7424
        35.2504         16.2504
 -21526446.45948 -16716481.07248  21376508.5554                   21376500.9304
        48.0004         49.0004
 20  5 21  1 45  0.0000000  0 10G16G04G09G05G27G30G08G11G28G07
  -8600916.97047  -6586032.23844  23358153.3914                   23358146.3134
        42.0004         25.0004
 -19042145.07647 -14789236.58045  21893409.9064                   21893404.7234
        44.2504         33.2504
 -26213791.60848 -20412527.60548  20440888.6024                   20440883.0474
        48.2504         53.7504
  -2846958.28446  -2206163.51445  24490909.6484                   24490901.6334
        40.5004         32.2504
 -16304518.13347 -12684351.96047  21940858.6254                   21940853.4924
        45.5004         46.2504
 -12615587.31347  -9818129.91146  23224824.8204                   23224820.4184
        42.2504         39.5004
 -19031104.26547 -14810762.37748  21514022.6804                   21514018.5164
        47.0004         48.0004
  -2083928.50546  -1568753.98543  25170958.1094                   25170952.0124
        39.5004         21.2504
  -1760131.70746  -1315943.26842  24571119.6254                   24571113.4414
        36.0004         16.7504
 -21573719.57248 -16753317.26548  21367513.1644                   21367505.1684
        48.0004         49.0004
 20  5 21  1 45 30.0000000  0 10G16G04G09G05G27G30G08G11G28G07
  -8496169.72746  -6504411.03343  23378086.4614                   23378079.0944
        41.2504         23.2504
 -18955404.33247 -14721646.42345  21909916.9614                   21909910.7194
        44.5004         33.0004
 -26185253.54348 -20390290.16048  20446319.4614                   20446313.9264
        48.2504         53.7504
  -2872292.23746  -2225904.28245  24486088.3204                   24486081.1804
        39.0004         32.7504
 -16289441.78047 -12672604.14347  21943727.4064                   21943722.5164
        45.5004         46.2504
 -12694909.82847  -9879939.65846  23209731.0474                   23209725.9224
        42.7504         39.5004
 -19078921.47847 -14848022.54548  21504923.0944                   21504918.5594
        46.0004         48.0004
  -2173909.76946  -1638869.18243  25153834.6644                   25153829.9884
        38.2504         20.0004
  -1857435.29745  -1391764.29542  24552602.7194                   24552597.2194
        35.0004         15.5004
 -21620820.03647 -16790018.92948  21358550.0164                   21358542.2464
        47.5004         49.0004
 20  5 21  1 46  0.0000000  0 10G16G04G09G05G27G30G08G11G28G07
  -8391304.49846  -6422697.93444  23398041.6564                   23398034.2154
        41.2504         24.5004
 -18868312.72047 -14653782.87445  21926489.8754                   21926484.1684
        45.0004         33.0004
 -26156160.28548 -20367620.10548  20451855.6564                   20451850.3404
        48.0004         53.5004
  -2897087.27346  -2245225.09045  24481370.1414                   24481362.9184
        40.7504         33.5004
 -16273718.28347 -12660352.05347  21946718.9694                   21946714.6094
        45.2504         46.5004
 -12774155.60747  -9941689.60546  23194650.7114                   23194645.8524
        42.5004         39.5004
 -19126187.48947 -14884853.19448  21495928.7734                   21495924.4844
        47.0004         48.5004
  -2263935.89546  -1709019.38343  25136704.5314                   25136698.0864
        39.5004         19.5004
  -1954582.00946  -1467463.00742  24534116.7584                   24534111.5354
        36.7504         17.2504
 -21667747.62547 -16826585.88748  21349619.8914                   21349612.2704
        47.7504         49.0004
 20  5 21  1 46 30.0000000  0 10G16G04G09G05G27G30G08G11G28G07
  -8286323.37446  -6340894.50644  23418019.5784                   23418011.7974
        41.7504         25.0004
 -18780872.07847 -14585647.33045  21943129.3204                   21943124.0124
        44.7504         33.5004
 -26126512.22848 -20344517.73548  20457497.5084                   20457491.7194
        48.0004         53.5004
  -2921343.50746  -2264126.07045  24476753.9694                   24476746.7854
        40.2504         32.5004
 -16257348.06547 -12647596.03747  21949834.7344                   21949829.6564
        45.5004         46.5004
 -12853324.04847 -10003379.28146  23179585.3444                   23179580.3404
        42.5004         39.5004
 -19172899.71847 -14921252.32148  21487039.4304                   21487035.4454
        47.2504         48.2504
  -2354004.47246  -1779202.67743  25119563.7814                   25119558.5824
        37.5004         19.7504
  -2051570.49346  -1543038.51843  24515660.8134                   24515654.6134
        37.2504         18.5004
 -21714501.50747 -16863017.48648  21340723.4144                   21340715.6024
        47.7504         49.2504
 20  5 21  1 47  0.0000000  0 10G16G04G09G05G27G30G08G11G28G07
  -8181228.20546  -6259002.22143  23438017.0944                   23438010.5234
        40.5004         22.5004
 -18693083.60747 -14517240.76245  21959834.4144                   21959829.3324
        44.5004         34.0004
 -26096309.17548 -20320982.90848  20463244.9144                   20463239.7304
        48.0004         53.5004
  -2945059.07546  -2282605.76445  24472241.0234                   24472233.8364
        40.5004         32.7504
 -16240330.98547 -12634335.96147  21953072.8674                   21953067.2034
        45.7504         46.5004
 -12932413.85947 -10065007.70646  23164534.6954                   23164529.9104
        42.0004         39.5004
 -19219055.94447 -14957218.20848  21478256.4614                   21478252.4384
        47.2504         48.5004
  -2444111.81046  -1849416.18143  25102417.2424                   25102412.1134
        37.2504         19.2504
  -2148398.88246  -1618489.21342  24497234.4774                   24497228.6524
        36.5004         17.7504
 -21761080.15848 -16899312.54848  21331859.3524                   21331851.9224
        48.5004         49.0004
 20  5 21  1 47 30.0000000  0 10G16G04G09G05G27G30G08G11G28G07
  -8076022.14146  -6177023.52344  23458037.4224                   23458030.6294
        40.7504         24.2504
 -18604950.23147 -14448565.43245  21976605.7114                   21976600.7584
        44.5004         33.5004
 -26065552.59848 -20297016.75748  20469097.6724                   20469092.3794
        48.0004         53.5004
  -2968234.72346  -2300664.71645  24467830.4924                   24467824.2544
        39.7504         32.0004
 -16222668.65447 -12620573.10047  21956433.4454                   21956428.5044
        45.2504         46.2504
 -13011425.49047 -10126575.18246  23149499.8914                   23149494.8484
        42.7504         40.0004
 -19264655.14547 -14992750.04548  21469579.2974                   21469575.0784
        47.0004         48.5004
  -2534256.35746  -1919658.69542  25085263.3594                   25085257.8014
        36.7504         17.2504
  -2245066.87546  -1693814.96743  24478839.8524                   24478833.5394
        37.2504         18.2504
 -21807483.95947 -16935471.35448  21323028.7974                   21323021.4064
        47.7504         49.2504
 20  5 21  1 48  0.0000000  0 10G16G04G09G05G27G30G08G11G28G07
  -7970706.86346  -6094959.70844  23478078.8284                   23478071.3524
        41.2504         25.5004
 -18516473.24747 -14379622.37345  21993442.9224                   21993437.3634
        45.2504         33.2504
 -26034242.50948 -20272619.30448  20475055.5394                   20475050.2424
        48.2504         53.5004
  -2990869.36046  -2318302.09745  24463524.3834                   24463516.3674
        40.5004         32.0004
 -16204361.14347 -12606307.49647  21959917.6564                   21959912.4574
        46.0004         46.2504
 -13090357.85247 -10188080.90946  23134479.0944                   23134474.6294
        42.7504         40.0004
 -19309694.93747 -15027845.97548  21461008.5394                   21461004.1484
        47.0004         48.5004
  -2624434.82045  -1989927.58842  25068102.6414                   25068097.8014
        35.0004         17.2504
  -2341572.38546  -1769014.06143  24460475.5164                   24460468.6484
        38.2504         18.2504
 -21853712.01648 -16971493.21448  21314232.3754                   21314224.7624
        48.2504         49.2504
 20  5 21  1 48 30.0000000  0 10G16G04G09G05G27G30G08G11G28G07
  -7865284.21746  -6012812.22643  23498140.0314                   23498133.2894
        40.7504         22.5004
 -18427653.97347 -14310412.58245  22010344.4454                   22010339.2854
        44.7504         33.0004
 -26002378.81348 -20247790.46148  20481119.5394                   20481113.9574
        48.2504         53.5004
  -3012962.45646  -2335517.52945  24459318.9844                   24459312.3914
        40.0004         32.5004
 -16185408.38847 -12591539.10747  21963524.0314                   21963519.1134
        46.2504         46.0004
 -13169209.68947 -10249523.87946  23119474.1804                   23119469.3324
        42.2504         40.0004
 -19354172.86047 -15062504.08948  21452544.7274                   21452540.5634
        47.5004         48.5004
  -2714644.11545  -2060220.57842  25050935.2034                   25050930.6604
        35.0004         14.7504
  -2437913.78846  -1844085.30842  24442142.3754                   24442135.7344
        36.0004         16.7504
 -21899762.14247 -17007376.43448  21305469.2814                   21305461.4454
        47.5004         49.2504
 20  5 21  1 49  0.0000000  0 10G16G04G09G05G27G30G08G11G28G07
  -7759756.95246  -5930583.25143  23518220.9064                   23518213.6684
        41.0004         22.0004
 -18338494.79347 -14240937.93245  22027311.1644                   22027305.4734
        44.0004         32.7504
 -25969962.51348 -20222531.03548  20487287.4304                   20487282.6954
        48.2504         53.5004
  -3034513.82346  -2352310.81545  24455218.0784                   24455211.5204
        40.0004         33.0004
 -16165811.59147 -12576268.86647  21967253.1724                   21967248.3634
        46.0004         46.0004
 -13247980.90447 -10310904.02446  23104484.2194                   23104479.8554
        43.7504         40.7504
 -19398087.66247 -15096723.40148  21444187.4844                   21444183.4884
        46.5004         48.5004
  -2804881.74745  -2130535.64042  25033763.9304                   25033759.4304
        34.7504         16.7504
  -2534090.27146  -1919028.01542  24423840.3134                   24423833.7194
        37.5004         16.2504
 -21945634.39448 -17043121.04548  21296739.9064                   21296732.3404
        48.7504         49.5004
 20  5 21  1 49 30.0000000  0 10G16G04G09G05G27G30G08G11G28G07
  -7654127.52546  -5848274.67143  23538321.7344                   23538314.3284
        40.7504         22.2504
 -18248997.21047 -14171199.57945  22044341.3834                   22044336.2234
        45.0004         33.0004
 -25936993.82848 -20196841.16048  20493561.7344                   20493556.4964
        48.2504         53.5004
  -3055522.94546  -2368681.55945  24451220.6724                   24451213.7814
        40.2504         32.7504
 -16145570.95647 -12560496.93347  21971105.0004                   21971099.8134
        46.0004         46.2504
 -13326670.55147 -10372220.61146  23089510.4844                   23089505.4494
        43.2504         40.5004
 -19441436.89647 -15130502.02248  21435938.5394                   21435934.4414
        46.0004         48.5004
  -2895144.58946  -2200870.21842  25016586.6884                   25016582.0904
        36.5004         17.2504
  -2630100.06946  -1993840.87243  24405570.9534                   24405564.0394
        36.5004         18.5004
 -21991327.57947 -17078726.12548  21288044.5944                   21288037.2194
        47.0004         49.5004
 20  5 21  1 50  0.0000000  0 10G16G04G09G05G27G30G08G11G28G07
  -7548398.55146  -5765888.48143  23558441.9064                   23558434.1294
        41.0004         22.7504
 -18159163.98947 -14101199.69845  22061436.9534                   22061431.1524
        44.5004         33.0004
 -25903474.16948 -20170721.96348  20499940.0864                   20499934.9064
        48.5004         53.5004
  -3075990.17346  -2384630.05145  24447325.5634                   24447318.9654
        41.2504         33.0004
 -16124688.05847 -12544224.53747  21975078.5634                   21975073.9384
        45.7504         46.0004
 -13405278.78447 -10433473.76446  23074551.8444                   23074546.7624
        43.0004         40.7504
 -19484219.52847 -15163839.12548  21427797.3284                   21427792.8984
        47.0004         48.5004
  -2985430.69046  -2271223.12342  24999407.0394                   24999399.5864
        38.7504         16.7504
  -2725942.53246  -2068523.31342  24387331.5164                   24387325.5904
        36.5004         17.7504
 -22036841.77948 -17114191.73148  21279383.6024                   21279376.1524
        48.2504         49.5004
 20  5 21  1 50 30.0000000  0 10G16G04G09G05G27G30G08G11G28G07
  -7442572.04346  -5683426.33244  23578579.8984                   23578572.4804
        40.7504         24.2504
 -18068996.92247 -14030939.68545  22078594.7584                   22078589.1884
        45.0004         32.7504
 -25869404.00448 -20144173.79848  20506423.2504                   20506418.2074
        48.5004         53.5004
  -3095915.11246  -2400155.98645  24443534.2424                   24443528.0474
        39.0004         33.0004
 -16103163.47047 -12527452.12747  21979174.7424                   21979169.5904
        46.0004         46.0004
 -13483804.87047 -10494662.90746  23059608.3524                   23059603.6334
        43.0004         40.0004
 -19526433.58347 -15196733.18348  21419764.5784                   21419760.3634
        46.5004         48.5004
  -3075737.28046  -2341591.88943  24982222.5474                   24982215.8524
        40.0004         19.2504
  -2821616.64846  -2143074.59642  24369125.0704                   24369120.1484
        36.2504         17.2504
 -22082176.12947 -17149517.20148  21270756.8054                   21270749.1374
        47.0004         49.2504
 20  5 21  1 51  0.0000000  0 10G16G04G09G05G27G30G08G11G28G07
  -7336650.02946  -5600889.72343  23598735.6254                   23598728.4064
        40.7504         22.7504
 -17978497.66447 -13960420.82945  22095816.6564                   22095810.5434
        44.7504         33.0004
 -25834783.67948 -20117196.93648  20513011.4224                   20513006.3754
        48.0004         53.5004
  -3115297.22446  -2415258.91845  24439846.6644                   24439838.9064
        40.2504         33.0004
 -16080997.64847 -12510180.04647  21983392.8674                   21983387.8554
        46.2504         46.0004
 -13562247.91847 -10555787.36046  23044681.5234                   23044676.3284
        43.0004         40.0004
 -19568077.48947 -15229182.96148  21411839.7504                   21411835.8794
        47.0004         48.5004
  -3166061.40347  -2411974.34043  24965036.3754                   24965028.6254
        42.0004         21.7504
  -2917120.62446  -2217493.30643  24350952.1174                   24350946.2034
        36.5004         19.0004
 -22127329.28948 -17184701.47848  21262164.6564                   21262156.7304
        48.0004         49.2504
 20  5 21  1 51 30.0000000  0 10G16G04G09G05G27G30G08G11G28G07
  -7230634.68646  -5518280.44243  23618910.0474                   23618902.9454
        40.0004         23.5004
 -17887668.19847 -13889644.65745  22113100.8834                   22113095.0124
        45.0004         32.0004
 -25799613.86748 -20089791.90448  20519703.9384                   20519698.9144
        48.7504         53.2504
  -3134136.15446  -2429938.62645  24436260.5864                   24436254.0634
        39.7504         33.0004
 -16058191.46847 -12492408.98847  21987732.5784                   21987727.6174
        46.0004         46.2504
 -13640607.33247 -10616846.61346  23029769.7274                   23029765.0004
        43.7504         40.0004
 -19609149.34747 -15261187.00348  21404024.1644                   21404019.6524
        47.7504         48.7504
  -3256400.42746  -2482368.39743  24947844.8754                   24947838.5204
        40.0004         22.2504
  -3012453.33746  -2291778.53142  24332810.8284                   24332804.4774
        37.0004         17.2504
 -22172300.52648 -17219744.00548  21253607.2194                   21253599.2424
        48.5004         49.5004
 20  5 21  1 52  0.0000000  0 10G16G04G09G05G27G30G08G11G28G07
  -7124527.48046  -5435599.54943  23639100.8444                   23639094.2854
        40.5004         22.7504
 -17796509.95947 -13818612.29045  22130447.4774                   22130441.7274
        44.7504         32.7504
 -25763894.73648 -20061958.83448  20526500.8834                   20526496.2664
        48.5004         53.2504
  -3152431.90846  -2444195.08945  24432778.8204                   24432772.6564
        39.2504         33.0004
 -16034745.12847 -12474139.09847  21992194.2974                   21992189.4534
        46.0004         46.0004
 -13718881.91547 -10677839.78246  23014874.7894                   23014870.0434
        43.0004         40.5004
 -19649647.02247 -15292743.62148  21396317.4384                   21396313.1254
        47.0004         48.5004
  -3346750.73846  -2552771.21443  24930650.8524                   24930645.2074
        37.5004         21.2504
  -3107613.09446  -2365929.02742  24314702.2814                   24314696.7934
        36.7504         17.7504
 -22217088.70448 -17254643.88548  21245083.7424                   21245076.3364
        48.2504         49.5004
 20  5 21  1 52 30.0000000  0 10G16G04G09G05G27G30G08G11G28G07
  -7018330.97746  -5352849.09043  23659310.2504                   23659302.8094
        41.2504         22.7504
 -17705024.37147 -13747324.84545  22147856.6564                   22147851.5204
        44.5004         32.7504
 -25727626.51348 -20033697.89748  20533402.8284                   20533397.5824
        49.0004         53.2504
  -3170182.83346  -2458026.95445  24429400.8284                   24429394.7624
        39.2504         33.5004
 -16010659.04447 -12455370.71947  21996777.3754                   21996772.6294
        45.7504         46.0004
 -13797070.53747 -10738765.96646  22999996.2344                   22999991.1054
        43.5004         40.5004
 -19689568.02347 -15323850.88648  21388720.4694                   21388716.6054
        47.0004         48.7504
  -3437109.40446  -2623180.52243  24913454.2274                   24913451.3284
        36.7504         20.0004
  -3202598.05846  -2439943.28543  24296627.6174                   24296620.9804
        37.5004         18.5004
 -22261692.46048 -17289400.06548  21236595.9454                   21236587.8984
        48.0004         49.5004
 20  5 21  1 53  0.0000000  0 10G16G04G09G05G27G30G08G11G28G07
  -6912047.79546  -5270031.08943  23679535.2274                   23679527.7384
        40.2504         22.0004
 -17613214.26447 -13675784.54545  22165327.4224                   22165322.3594
        44.2504         33.0004
 -25690810.64648 -20005010.22648  20540408.6484                   20540403.6334
        49.0004         53.2504
  -3187390.04046  -2471435.18345  24426126.8364                   24426120.2544
        39.0004         33.5004
 -15985934.81647 -12436105.08347  22001482.1644                   22001477.8554
        45.7504         46.0004
 -13875173.40147 -10799625.32846  22985133.5234                   22985128.8324
        42.7504         40.7504
 -19728911.57947 -15354508.19148  21381234.1644                   21381229.7074
        47.7504         48.7504
  -3527474.13345  -2693594.51643  24896257.2974                   24896255.8094
        33.2504         19.2504
  -3297407.69046  -2513820.92643  24278586.0164                   24278579.2274
        38.0004         19.5004
 -22306111.46747 -17324012.27748  21228143.2114                   21228135.6954
        47.5004         49.5004
 20  5 21  1 53 30.0000000  0 10G16G04G09G05G27G30G08G11G28G07
  -6805680.12946  -5187147.22943  23699776.1644                   23699768.6254
        40.5004         22.7504
 -17521081.47847 -13603992.79345  22182859.3674                   22182854.0474
        44.5004         33.0004
 -25653447.81048 -19975896.34348  20547518.7274                   20547513.6804
        48.0004         53.2504
  -3204052.89146  -2484419.23645  24422956.3674                   24422949.7304
        39.7504         34.0004
 -15960573.25547 -12416342.81747  22006308.6724                   22006303.6254
        45.5004         46.0004
 -13953189.70047 -10860417.23746  22970287.5004                   22970283.0984
        43.0004         41.2504
 -19767676.23647 -15384714.41448  21373857.3754                   21373853.5204
        47.2504         48.7504
  -3617842.40946  -2764011.36242  24879063.2894                   24879058.1254
        38.2504         16.7504
  -3392040.77646  -2587561.02943  24260577.9144                   24260571.3204
        38.0004         18.5004
 -22350344.92348 -17358479.90448  21219725.9224                   21219718.2734
        48.0004         49.2504
 20  5 21  1 54  0.0000000  0 10G16G04G09G05G27G30G08G11G28G07
  -6699230.17146  -5104199.30043  23720033.2974                   23720025.9224
        40.5004         21.5004
 -17428628.40747 -13531951.47845  22200452.9694                   22200447.3014
        44.5004         32.2504
 -25615539.13448 -19946357.13348  20554732.3594                   20554727.3094
        48.2504         53.2504
  -3220171.99946  -2496979.58645  24419889.1644                   24419882.3444
        39.5004         34.0004
 -15934575.66847 -12396084.94747  22011255.8914                   22011251.2234
        45.7504         46.0004
 -14031119.12547 -10921141.45246  22955458.2664                   22955453.9494
        43.0004         41.5004
 -19805860.62047 -15414468.46648  21366590.9844                   21366587.1294
        47.5004         48.7504
  -3708211.30846  -2834428.71743  24861866.5704                   24861860.0164
        37.5004         18.2504
  -3486496.56546  -2661162.92343  24242603.5554                   24242596.9344
        37.0004         18.2504
 -22394392.49047 -17392802.68148  21211344.0554                   21211336.2934
        47.2504         49.5004
 20  5 21  1 54 30.0000000  0 10G16G04G09G05G27G30G08G11G28G07
  -6592699.78546  -5021188.63543  23740305.0234                   23740297.5274
        40.2504         21.2504
 -17335856.65847 -13459661.84245  22218107.3054                   22218101.4384
        44.5004         32.5004
 -25577085.01048 -19916392.89048  20562050.0314                   20562044.7424
        48.7504         53.2504
  -3235746.60546  -2509115.65345  24416924.8754                   24416918.6914
        39.5004         33.5004
 -15907942.62847 -12375331.91847  22016324.0234                   22016319.1254
        45.5004         45.7504
 -14108960.71947 -10981797.22746  22940645.2894                   22940640.6414
        43.0004         41.7504
 -19843462.48247 -15443768.61248  21359435.8524                   21359431.7274
        47.5004         49.0004
  -3798578.14346  -2904844.39042  24844670.5784                   24844664.1724
        38.5004         16.7504
  -3580773.38446  -2734625.42343  24224662.6334                   24224656.3874
        37.0004         19.2504
 -22438252.87948 -17426979.60448  21202997.5554                   21202990.1024
        48.0004         49.5004
 20  5 21  1 55  0.0000000  0 10G16G04G09G05G27G30G08G11G28G07
  -6486091.07246  -4938116.96143  23760592.4694                   23760585.2854
        40.5004         21.7504
 -17242767.67547 -13387125.00145  22235821.4614                   22235815.6844
        44.0004         32.2504
 -25538085.67248 -19886003.81348  20569471.4384                   20569466.1724
        49.0004         53.2504
  -3250776.37646  -2520827.17645  24414065.0554                   24414058.3914
        39.2504         34.5004
 -15880674.47147 -12354083.99747  22021512.8054                   22021507.8914
        45.0004         45.7504
 -14186713.19047 -11042383.54546  22925849.7194                   22925844.7664
        43.0004         41.5004
 -19880479.73547 -15472613.21148  21352391.5164                   21352387.5084
        47.0004         49.0004
  -3888939.37746  -2975255.68843  24827476.5234                   24827468.8204
        40.5004         20.5004
  -3674869.59446  -2807947.13443  24206757.3834                   24206750.1564
        37.5004         20.0004
 -22481924.67047 -17461009.57648  21194687.2424                   21194679.4344
        47.5004         49.5004
 20  5 21  1 55 30.0000000  0 10G16G04G09G05G27G30G08G11G28G07
  -6379406.80746  -4854986.43543  23780894.0474                   23780886.6914
        41.5004         21.7504
 -17149364.54647 -13314343.37145  22253594.7974                   22253589.5634
        45.0004         32.5004
 -25498543.08548 -19855191.41948  20576996.2034                   20576990.7504
        48.2504         53.2504
  -3265262.12146  -2532114.76045  24411308.2344                   24411302.3714
        39.2504         34.0004
 -15852773.42547 -12332342.91147  22026822.0634                   22026817.6684
        45.5004         46.0004
 -14264376.96847 -11102900.75746  22911070.5394                   22911065.9924
        43.0004         41.0004
 -19916912.34847 -15501002.25448  21345458.5004                   21345454.5594
        46.2504         49.0004
  -3979293.28946  -3045661.32243  24810281.4844                   24810275.4024
        39.2504         19.7504
  -3768784.83446  -2881127.84443  24188885.6564                   24188878.9964
        36.7504         19.7504
 -22525408.30848 -17494892.92848  21186412.5314                   21186404.9774
        48.0004         49.5004
 20  5 21  1 56  0.0000000  0 10G16G04G09G05G27G30G08G11G28G07
  -6272648.31546  -4771798.06143  23801209.9924                   23801202.4734
        41.0004         22.5004
 -17055648.22547 -13241317.69645  22271429.6094                   22271423.5124
        45.0004         32.7504
 -25458456.89648 -19823955.44148  20584624.1334                   20584618.9494
        48.2504         53.0004
  -3279202.75946  -2542977.60845  24408655.3444                   24408648.8524
        40.0004         34.0004
 -15824239.27247 -12310108.50747  22032252.5234                   22032247.3554
        45.0004         46.0004
 -14341950.24147 -11163347.44446  22896308.9384                   22896303.9454
        43.0004         41.5004
 -19952757.74247 -15528933.72148  21338637.2424                   21338633.3554
        46.5004         49.0004
  -4069636.05346  -3116058.23543  24793090.2814                   24793084.0744
        40.0004         20.2504
  -3862516.58546  -2954165.56143  24171049.0164                   24171042.8794
        37.0004         19.0004
 -22568701.42648 -17528627.82548  21178174.2114                   21178166.3754
        48.5004         49.7504
 20  5 21  1 56 30.0000000  0 10G16G04G09G05G27G30G08G11G28G07
  -6165817.91446  -4688553.63643  23821538.3834                   23821531.8954
        40.5004         22.7504
 -16961621.00947 -13168049.77545  22289322.1174                   22289316.3404
        45.0004         32.7504
 -25417828.32548 -19792296.83148  20592355.8444                   20592350.2704
        48.5004         53.0004
  -3292598.75346  -2553416.05845  24406105.7814                   24406100.4414
        39.2504         34.0004
 -15795073.45647 -12287381.89647  22037801.7814                   22037797.3204
        45.0004         45.7504
 -14419432.65647 -11223723.34346  22881564.2504                   22881559.3984
        43.7504         41.0004
 -19988014.31247 -15556406.37248  21331928.3284                   21331924.1454
        47.5004         49.2504
  -4159964.93946  -3186444.38043  24775900.7114                   24775893.9384
        39.7504         19.0004
  -3956064.40846  -3027059.94643  24153247.6954                   24153241.6954
        36.7504         19.0004
 -22611803.55347 -17562213.88248  21169972.2274                   21169964.3054
        47.7504         49.7504
 20  5 21  1 57  0.0000000  0 10G16G04G09G05G27G30G08G11G28G07
  -6058917.59446  -4605254.76643  23841880.5004                   23841873.8594
        39.2504         21.7504
 -16867284.96147 -13094541.19445  22307273.5944                   22307268.2234
        45.0004         32.2504
 -25376658.23648 -19760216.25848  20600189.9534                   20600184.7304
        48.7504         53.0004
  -3305449.97346  -2563430.01945  24403660.3204                   24403654.6684
        40.0004         33.7504
 -15765277.04047 -12264163.90847  22043472.4064                   22043467.3364
        45.2504         45.7504
 -14496823.48947 -11284027.87446  22866837.6564                   22866832.7344
        43.5004         41.7504
 -20022680.72847 -15583419.15048  21325331.7504                   21325327.2624
        47.0004         49.0004
  -4250277.23246  -3256817.56843  24758714.7664                   24758709.0984
        38.5004         20.0004
  -4049427.07746  -3099810.06543  24135481.5784                   24135475.2304
        36.7504         19.7504
 -22654713.94548 -17595650.55748  21161806.6414                   21161798.9924
        48.0004         49.7504
 20  5 21  1 57 30.0000000  0 10G16G04G09G05G27G30G08G11G28G07
  -5951949.49846  -4521903.07343  23862236.4224                   23862229.4574
        39.7504         20.7504
 -16772641.83247 -13020793.33345  22325283.2814                   22325277.8754
        44.5004         32.2504
 -25334947.26548 -19727714.21448  20608127.3594                   20608121.9534
        49.0004         53.2504
  -3317756.13446  -2573019.22645  24401319.3754                   24401312.6334
        40.5004         33.7504
 -15734850.83147 -12240455.17247  22049262.3054                   22049257.2854
        45.0004         45.5004
 -14574121.77647 -11344260.29446  22852128.0634                   22852122.9884
        43.5004         41.5004
 -20056755.04347 -15609970.55948  21318847.3524                   21318843.5164
        46.5004         49.0004
  -4340569.83746  -3327175.35143  24741532.8364                   24741526.9654
        37.7504         20.2504
  -4142603.16546  -3172414.81943  24117750.8364                   24117744.0394
        38.2504         20.0004
 -22697431.36047 -17628936.86148  21153677.7894                   21153670.0124
        47.0004         49.7504
 20  5 21  1 58  0.0000000  0 10G16G04G09G05G27G30G08G11G28G07
  -5844916.08246  -4438500.47743  23882604.5944                   23882597.0594
        39.7504         21.2504
 -16677694.23747 -12946808.20945  22343351.1334                   22343345.4574
        45.0004         31.5004
 -25292696.86348 -19694791.84148  20616167.5234                   20616162.0664
        49.5004         53.0004
  -3329517.87246  -2582184.22645  24399081.4064                   24399074.4184
        39.2504         33.5004
 -15703796.51647 -12216257.00547  22055171.2814                   22055166.7734
        45.5004         46.0004
 -14651327.33147 -11404420.45946  22837436.2194                   22837431.3634
        44.0004         41.2504
 -20090236.79447 -15636060.23248  21312476.1334                   21312472.0164
        46.5004         49.2504
  -4430840.42645  -3397516.02043  24724353.7424                   24724348.9224
        34.7504         19.2504
  -4235591.61246  -3244873.25943  24100055.0004                   24100049.2384
        37.5004         19.2504
 -22739955.35747 -17662072.47448  21145585.6724                   21145577.8054
        47.7504         50.0004
 20  5 21  1 58 30.0000000  0 10G16G04G09G05G27G30G08G11G28G07
  -5737819.24046  -4355048.43743  23902983.4774                   23902977.3164
        39.2504         21.5004
 -16582443.87747 -12872587.19145  22361476.9304                   22361471.5234
        44.7504         31.0004
 -25249907.67348 -19661449.64048  20624309.7814                   20624304.6884
        48.5004         53.2504
  -3340734.95046  -2590924.83145  24396945.5704                   24396939.7624
        39.2504         33.5004
 -15672114.95247 -12191570.07647  22061200.1954                   22061195.6214
        45.0004         45.7504
 -14728439.19747 -11464507.61747  22822761.6884                   22822757.6134
        43.5004         42.0004
 -20123124.22147 -15661686.79548  21306217.5554                   21306213.7074
        47.0004         49.2504
  -4521085.73246  -3467836.96443  24707181.6724                   24707176.4024
        37.5004         20.7504
  -4328391.30646  -3317184.75143  24082396.7194                   24082388.5864
        37.7504         19.0004
 -22782284.78547 -17695056.44648  21137530.9384                   21137522.8404
        46.7504         49.7504
 20  5 21  1 59  0.0000000  0 10G16G04G09G05G27G30G08G11G28G07
  -5630661.17446  -4271548.68643  23923375.2504                   23923368.9024
        39.7504         22.2504
 -16486893.00647 -12798132.00445  22379659.5394                   22379653.6954
        44.0004         31.0004
 -25206580.78748 -19627688.44648  20632554.5634                   20632549.7624
        48.0004         53.0004
  -3351407.50546  -2599241.09945  24394915.8364                   24394909.0664
        39.0004         34.2504
 -15639807.43047 -12166395.38847  22067348.3054                   22067343.2974
        45.5004         45.7504
 -14805456.69647 -11524521.23946  22808106.2034                   22808101.4224
        43.7504         41.7504
 -20155415.97747 -15686849.19848  21300072.8204                   21300068.3244
        46.5004         49.2504
  -4611303.20746  -3538136.20043  24690013.3204                   24690008.7114
        36.2504         18.2504
  -4421001.31346  -3389348.35143  24064772.9694                   24064766.0394
        39.7504         19.7504
 -22824418.96847 -17727888.27448  21129513.2274                   21129504.8404
        47.0004         49.7504
 20  5 21  1 59 30.0000000  0 10G16G04G09G05G27G30G08G11G28G07
  -5523443.53746  -4188002.54843  23943779.3444                   23943771.2974
        40.5004         22.5004
 -16391043.35047 -12723443.99045  22397899.4694                   22397893.5784
        44.5004         31.0004
 -25162716.88548 -19593508.81048  20640901.9454                   20640896.9064
        49.0004         53.0004
  -3361535.69746  -2607133.22445  24392987.4694                   24392981.1254
        38.7504         33.5004
 -15606874.86547 -12140733.65047  22073615.1724                   22073610.4694
        44.7504         46.0004
 -14882378.85647 -11584460.57747  22793467.8594                   22793463.3754
        44.5004         42.5004
 -20187110.34147 -15711546.09748  21294041.9614                   21294037.7774
        46.5004         49.5004
  -4701489.82646  -3608411.46843  24672851.7894                   24672845.3484
        37.5004         19.5004
  -4513420.14846  -3461363.03843  24047186.6024                   24047179.1644
        38.0004         19.5004
 -22866356.61547 -17760566.96248  21121532.6334                   21121524.6684
        47.5004         50.0004
 20  5 21  2  0  0.0000000  0 10G16G04G09G05G27G30G08G11G28G07
  -5416168.61646  -4104411.73443  23964193.9144                   23964184.8594
        41.5004         20.5004
 -16294896.95247 -12648524.74445  22416195.1804                   22416189.6294
        45.0004         30.5004
 -25118316.85548 -19558911.40348  20649350.6024                   20649345.6374
        48.7504         53.0004
  -3371119.20846  -2614600.91245  24391164.3754                   24391157.9494
        39.5004         33.0004
 -15573318.39347 -12114585.76147  22080000.5394                   22079995.9184
        45.7504         45.5004
 -14959204.79047 -11644324.92647  22778849.5864                   22778844.5634
        44.2504         42.2504
 -20218205.89347 -15735776.39248  21288124.6334                   21288120.2664
        47.0004         49.5004
  -4791642.77546  -3678660.44643  24655695.5314                   24655691.2934
        38.5004         20.7504
  -4605646.37146  -3533227.58743  24029636.1484                   24029629.5314
        37.5004         19.0004
 -22908096.78747 -17793091.78048  21113589.3984                   21113581.5784
        47.5004         49.7504
 20  5 21  2  0 30.0000000  0 10G16G04G09G05G27G30G08G11G28G07
  -5308838.01046  -4020777.58643  23984617.8524                   23984609.2584
        40.5004         20.0004
 -16198455.77947 -12573375.80545  22434547.4064                   22434542.0234
        44.7504         31.5004
 -25073381.64748 -19523896.97248  20657901.9454                   20657896.3714
        48.0004         53.0004
  -3380158.23746  -2621644.29445  24389444.2274                   24389437.9654
        39.0004         33.0004
 -15539139.22047 -12087952.64447  22086505.0474                   22086500.4494
        45.2504         45.5004
 -15035933.76947 -11704113.71547  22764247.8444                   22764243.3134
        43.5004         42.2504
 -20248701.64247 -15759539.31048  21282321.2584                   21282317.1724
        47.0004         49.2504
  -4881758.38246  -3748880.32243  24638547.8054                   24638541.5234
        41.2504         20.2504
  -4697679.06946  -3604941.40143  24012122.6644                   24012116.7274
        37.0004         20.0004
 -22949638.31647 -17825461.80148  21105684.4384                   21105676.7544
        46.7504         49.7504
 20  5 21  2  1  0.0000000  0 10G16G04G09G05G27G30G08G11G28G07
  -5201454.47546  -3937102.16243  24005051.8364                   24005044.0314
        40.2504         19.0004
 -16101722.77447 -12497999.46545  22452954.9694                   22452949.4144
        44.5004         31.0004
 -25027913.17248 -19488467.00848  20666554.0704                   20666548.9734
        48.0004         53.0004
  -3388653.89946  -2628264.29445  24387828.5634                   24387821.0204
        40.0004         33.2504
 -15504339.44947 -12060835.94047  22093126.7274                   22093122.1954
        45.5004         45.5004
 -15112565.78447 -11763826.95347  22749665.0704                   22749660.6804
        42.7504         42.0004
 -20278596.64447 -15782834.11948  21276632.3524                   21276628.2934
        47.0004         49.2504
  -4971834.78346  -3819069.74143  24621406.6644                   24621400.1054
        40.5004         19.7504
  -4789517.79146  -3676503.98043  23994646.4774                   23994639.9454
        37.7504         19.0004
 -22990981.34547 -17857677.15848  21097817.3524                   21097809.6954
        47.5004         49.7504
 20  5 21  2  1 30.0000000  0 10G16G04G09G05G27G30G08G11G28G07
  -5094019.73146  -3853386.83243  24025495.3284                   24025488.5634
        39.2504         20.0004
 -16004699.22847 -12422396.74545  22471418.1564                   22471412.8634
        45.2504         32.2504
 -24981911.60748 -19452621.65048  20675307.9924                   20675302.7894
        48.0004         52.7504
  -3396605.63346  -2634460.47245  24386315.0864                   24386307.8674
        39.0004         33.0004
 -15468919.57847 -12033236.05347  22099867.4534                   22099862.4104
        45.5004         45.5004
 -15189099.36847 -11823463.49746  22735101.4774                   22735097.0984
        43.5004         41.7504
 -20307888.99647 -15805659.32248  21271058.2114                   21271054.2074
        46.5004         49.2504
  -5061868.39346  -3889225.74543  24604274.3284                   24604267.6024
        40.5004         20.7504
  -4881160.69846  -3747914.02843  23977207.7114                   23977200.7074
        37.5004         20.0004
 -23032123.96347 -17889736.33248  21089988.2894                   21089980.4414
        46.5004         50.0004
 20  5 21  2  2  0.0000000  0 10G16G04G09G05G27G30G08G11G28G07
  -4986535.42546  -3769632.90443  24045948.4694                   24045941.9654
        39.0004         19.7504
 -15907387.22947 -12346569.25945  22489936.3594                   22489930.9104
        44.7504         30.7504
 -24935378.08748 -19416361.78048  20684162.9844                   20684157.7974
        48.5004         53.0004
  -3404013.52346  -2640232.87745  24384905.5394                   24384898.5664
        39.0004         33.0004
 -15432880.90547 -12005153.97447  22106725.3914                   22106720.3874
        45.7504         45.5004
 -15265533.65147 -11883022.66947  22720556.6484                   22720551.8134
        43.5004         42.5004
 -20336577.46847 -15828013.97048  21265598.8524                   21265594.4964
        46.7504         49.2504
  -5151856.98846  -3959346.78242  24587149.3134                   24587141.8014
        39.7504         17.2504
  -4972606.51946  -3819170.48643  23959806.7194                   23959798.8834
        38.5004         20.5004
 -23073065.41347 -17921638.77148  21082196.8674                   21082189.6054
        47.0004         50.0004
 20  5 21  2  2 30.0000000  0 10G16G04G09G05G27G30G08G11G28G07
  -4879003.70846  -3685842.04443  24066412.1254                   24066404.9344
        39.5004         20.7504
 -15809789.01347 -12270518.73645  22508508.4144                   22508502.7274
        44.2504         31.5004
 -24888313.81948 -19379688.34148  20693119.1884                   20693113.7934
        48.2504         52.7504
  -3410877.84046  -2645581.71745  24383599.4844                   24383592.2304
        39.7504         33.2504
 -15396224.96947 -11976590.91547  22113700.6254                   22113695.5634
        46.2504         45.5004
 -15341868.05847 -11942504.01147  22706030.4844                   22706025.4734
        44.5004         42.2504
 -20364661.19247 -15849897.39348  21260254.7424                   21260250.8094
        46.5004         49.2504
  -5241797.25446  -4029430.01243  24570033.3524                   24570028.1454
        38.0004         19.2504
  -5063854.33146  -3890272.65043  23942442.1334                   23942435.7424
        38.7504         22.0004
 -23113804.72547 -17953383.70048  21074444.3984                   21074436.6214
        46.5004         50.0004
 20  5 21  2  3  0.0000000  0 10G16G04G09G05G27G30G08G11G28G07
  -4771427.07546  -3602016.14443  24086882.8594                   24086875.5434
        39.0004         21.5004
 -15711907.02247 -12194247.07645  22527134.9694                   22527129.0594
        44.5004         31.2504
 -24840720.16248 -19342602.38548  20702175.8524                   20702170.4384
        48.5004         52.7504
  -3417199.44446  -2650507.63445  24382396.2504                   24382389.0514
        39.5004         33.5004
 -15358953.40147 -11947548.14547  22120793.0004                   22120788.2624
        46.0004         45.2504
 -15418101.97847 -12001907.06047  22691524.4224                   22691518.9654
        45.0004         42.2504
 -20392139.08947 -15871308.73648  21255025.7974                   21255022.0234
        46.7504         49.2504
  -5331686.22846  -4099473.32743  24552929.6724                   24552923.3014
        39.5004         21.5004
  -5154903.45046  -3961220.00443  23925116.7504                   23925109.4024
        39.2504         21.2504
 -23154341.33947 -17984970.68048  21066730.6954                   21066722.6994
        47.0004         50.0004
 20  5 21  2  3 30.0000000  0 10G16G04G09G05G27G30G08G11G28G07
  -4663806.91346  -3518156.31643  24107362.0864                   24107355.3284
        38.5004         19.7504
 -15613743.01347 -12117755.67945  22545814.9534                   22545809.0314
        45.0004         31.0004
 -24792597.98648 -19305104.60748  20711333.1024                   20711327.9694
        48.7504         52.7504
  -3422978.17046  -2655010.56145  24381296.5784                   24381289.5594
        39.7504         33.5004
 -15321067.28047 -11918026.50647  22128002.7664                   22127998.0634
        46.0004         45.5004
 -15494234.47547 -12061231.08047  22677036.5314                   22677031.4804
        44.7504         42.5004
 -20419009.71047 -15892246.88348  21249912.4614                   21249908.0554
        47.0004         49.5004
  -5421521.16246  -4169474.53243  24535832.7424                   24535828.4024
        36.5004         20.0004
  -5245752.09046  -4032011.12643  23907828.4224                   23907820.8444
        39.0004         19.7504
 -23194673.73647 -18016398.52948  21059055.6954                   21059047.6764
        47.2504         50.0004
 20  5 21  2  4  0.0000000  0 10G16G04G09G05G27G30G08G11G28G07
  -4556144.87546  -3434263.89143  24127851.1024                   24127842.3754
        39.7504         19.0004
 -15515298.67647 -12041045.84045  22564548.2974                   22564542.7304
        44.5004         30.2504
 -24743948.01348 -19267195.55448  20720591.4694                   20720585.8674
        48.2504         52.7504
  -3428214.06646  -2659090.49745  24380299.6254                   24380293.1024
        39.7504         33.2504
 -15282567.62247 -11888026.78247  22135329.0554                   22135324.1484
        46.0004         45.2504
 -15570264.27247 -12120475.07247  22662568.2424                   22662563.4774
        45.2504         42.5004
 -20445271.29847 -15912710.46048  21244914.9064                   21244910.9224
        47.0004         49.5004
  -5511298.59146  -4239430.88843  24518749.4924                   24518744.2384
        38.2504         20.7504
  -5336399.09346  -4102645.15343  23890578.6564                   23890571.8204
        38.5004         20.0004
 -23234800.67647 -18047666.27548  21051419.9224                   21051412.0514
        47.0004         50.0004
 20  5 21  2  4 30.0000000  0 10G16G04G09G05G27G30G08G11G28G07
  -4448443.63446  -3350340.91843  24148344.8054                   24148337.5164
        39.0004         20.5004
 -15416576.93547 -11964119.84345  22583333.8674                   22583328.7274
        44.5004         30.5004
 -24694772.15248 -19228876.71448  20729949.3134                   20729944.0704
        48.7504         53.0004
  -3432907.95846  -2662748.10045  24379406.4384                   24379399.9734
        38.7504         33.0004
 -15243456.62047 -11857550.69747  22142771.5084                   22142766.5004
        45.7504         45.2504
 -15646191.29147 -12179638.96847  22648119.4774                   22648114.9774
        44.7504         42.2504
 -20470924.01847 -15932699.58748  21240033.4304                   21240029.6414
        47.5004         49.5004
  -5601016.20846  -4309340.68443  24501677.7814                   24501671.4694
        40.5004         22.2504
  -5426844.16246  -4173121.80343  23873366.8364                   23873360.5664
        37.5004         19.0004
 -23274721.92047 -18078773.74648  21043823.2344                   21043815.3914
        47.5004         50.0004
 20  5 21  2  5  0.0000000  0 10G16G04G09G05G27G30G08G11G28G07
  -4340705.08246  -3266388.85443  24168845.9614                   24168839.1054
        38.5004         18.5004
 -15317579.87947 -11886979.31845  22602172.4534                   22602167.1884
        44.2504         30.5004
 -24645071.53848 -19190148.98248  20739406.4534                   20739401.5354
        48.2504         52.7504
  -3437060.39046  -2665983.79545  24378615.8594                   24378610.2034
        39.0004         32.5004
 -15203735.67647 -11826599.32647  22150330.2424                   22150325.3794
        46.0004         45.2504
 -15722014.73847 -12238722.15347  22633691.0944                   22633686.0784
        44.0004         43.0004
 -20495966.36447 -15952213.09848  21235268.1174                   21235264.1844
        47.7504         49.5004
  -5690671.11546  -4379201.65443  24484616.2584                   24484610.3674
        40.5004         22.7504
  -5517085.97446  -4243440.04643  23856194.5864                   23856187.7734
        37.7504         19.5004
 -23314436.46147 -18109720.14948  21036265.4924                   21036258.0354
        47.5004         50.2504
 20  5 21  2  5 30.0000000  0 10G16G04G09G05G27G30G08G11G28G07
  -4232930.55946  -3182408.74343  24189355.9384                   24189347.8014
        39.0004         19.5004
 -15218308.94147 -11809625.38145  22621063.3674                   22621058.1334
        43.7504         31.0004
 -24594846.72047 -19151012.77648  20748963.7194                   20748958.6174
        47.7504         52.5004
  -3440670.99346  -2668797.27045  24377928.8594                   24377922.9104
        38.5004         32.5004
 -15163405.65847 -11795173.34847  22158004.5704                   22157999.7934
        45.7504         45.2504
 -15797733.03647 -12297723.40347  22619282.3834                   22619278.1954
        44.0004         42.7504
 -20520396.86947 -15971249.85548  21230618.9144                   21230615.3134
        47.2504         49.7504
  -5780259.83146  -4449011.03443  24467568.1884                   24467562.6214
        40.2504         22.5004
  -5607122.93846  -4313598.71043  23839061.4774                   23839054.2704
        38.2504         21.5004
 -23353942.77347 -18140504.29148  21028747.8364                   21028739.9924
        46.7504         50.2504
 20  5 21  2  6  0.0000000  0 10G16G04G09G05G27G30G08G11G28G07
  -4125121.84046  -3098402.02543  24209870.5944                   24209863.5704
        38.0004         19.5004
 -15118766.67947 -11732060.01745  22640006.3364                   22640001.0704
        43.0004         31.0004
 -24544099.27448 -19111469.33348  20758621.0004                   20758616.0824
        48.2504         52.5004
  -3443740.75746  -2671189.27845  24377344.8754                   24377338.4884
        39.2504         32.5004
 -15122468.44947 -11763274.24247  22165795.0164                   22165790.1724
        46.0004         45.0004
 -15873345.79347 -12356642.41347  22604893.8984                   22604888.8754
        44.7504         43.2504
 -20544214.81647 -15989809.28548  21226087.2424                   21226083.0554
        47.7504         49.5004
  -5869779.66146  -4518766.72743  24450532.7114                   24450527.6884
        39.7504         22.0004
  -5696954.31046  -4383597.17343  23821966.9774                   23821960.6564
        38.2504         20.5004
 -23393240.03547 -18171125.53948  21021270.1414                   21021261.7544
        46.7504         50.2504
 20  5 21  2  6 30.0000000  0 10G16G04G09G05G27G30G08G11G28G07
  -4017281.55546  -3014370.68143  24230393.0474                   24230385.2384
        40.5004         20.2504
 -15018955.14247 -11654284.83945  22658999.0704                   22658994.0124
        43.5004         30.7504
 -24492830.37348 -19071519.56048  20768377.1884                   20768371.8164
        48.0004         52.5004
  -3446269.81646  -2673159.99545  24376864.6094                   24376857.1954
        40.5004         33.2504
 -15080925.47647 -11730903.10347  22173700.2114                   22173695.5744
        45.5004         45.0004
 -15948852.06347 -12415478.45347  22590525.2194                   22590520.5784
        44.5004         43.2504
 -20567418.96047 -16007890.42848  21221671.3674                   21221667.5864
        47.5004         49.5004
  -5959227.56546  -4588466.43443  24433511.3204                   24433505.0514
        38.7504         19.5004
  -5786578.90346  -4453434.48643  23804913.0314                   23804905.3674
        39.5004         19.7504
 -23432327.23747 -18201583.10648  21013831.7504                   21013823.8284
        46.7504         50.2504
 20  5 21  2  7  0.0000000  0 10G16G04G09G05G27G30G08G11G28G07
  -3909411.67246  -2930316.34943  24250920.0704                   24250912.2734
        39.2504         20.7504
 -14918876.71447 -11576301.70145  22678044.0394                   22678038.2774
        43.5004         30.2504
 -24441041.50648 -19031164.61248  20778232.1484                   20778227.1884
        48.5004         52.5004
  -3448259.05846  -2674710.05245  24376486.6954                   24376478.6884
        40.5004         32.5004
 -15038778.53447 -11698061.34447  22181720.4144                   22181715.6454
        45.7504         45.0004
 -16024251.26047 -12474231.06847  22576177.5864                   22576172.4384
        44.2504         43.2504
 -20590008.69747 -16025492.81348  21217372.3524                   21217368.3284
        47.5004         49.5004
  -6048600.76946  -4658107.84443  24416504.5864                   24416498.4654
        39.2504         19.5004
  -5875995.89446  -4523110.06243  23787897.0554                   23787889.8984
        40.0004         22.5004
 -23471203.86448 -18231876.58548  21006433.7344                   21006425.9574
        48.0004         50.2504
 20  5 21  2  7 30.0000000  0 10G16G04G09G05G27G30G08G11G28G07
  -3801513.91946  -2846240.21943  24271451.1484                   24271445.0704
        39.0004         20.5004
 -14818533.45947 -11498112.18044  22697137.2424                   22697132.7384
        43.0004         29.2504
 -24388733.85948 -18990405.42848  20788185.9534                   20788180.6254
        48.0004         52.5004
  -3449708.34046  -2675839.37545  24376209.3524                   24376203.3834
        39.0004         33.0004
 -14996029.12647 -11664750.13147  22189855.9454                   22189850.6604
        46.0004         45.0004
 -16099542.42047 -12532899.49547  22561849.9304                   22561844.8324
        44.5004         43.0004
 -20611983.16748 -16042615.77648  21213191.0004                   21213186.5864
        48.0004         49.5004
  -6137896.17746  -4727688.73943  24399512.2424                   24399504.9694
        37.5004         18.5004
  -5965204.22646  -4592623.02643  23770921.3054                   23770914.2774
        39.7504         22.5004
 -23509868.31847 -18262004.74148  20999076.5314                   20999068.9344
        47.5004         50.2504
 20  5 21  2  8  0.0000000  0 10G16G04G09G05G27G30G08G11G28G07
  -3693589.50646  -2762143.40443  24291989.1644                   24291982.1484
        38.7504         18.5004
 -14717927.19947 -11419717.73544  22716283.0704                   22716277.8594
        43.5004         28.7504
 -24335908.34048 -18949242.69548  20798238.3134                   20798233.3444
        48.0004         52.5004
  -3450618.31346  -2676548.48145  24376035.3364                   24376030.1604
        38.7504         33.5004
 -14952678.48747 -11630970.42147  22198105.2814                   22198099.9654
        45.2504         45.0004
 -16174724.34347 -12591482.80847  22547543.5084                   22547538.3244
        44.5004         43.0004
 -20633340.81347 -16059258.09048  21209126.7034                   21209122.2584
        47.7504         49.5004
  -6227110.60246  -4797206.40543  24382536.1334                   24382529.8324
        39.7504         21.0004
  -6054202.41146  -4661972.25243  23753985.2894                   23753978.8674
        39.0004         21.7504
 -23548319.54947 -18291966.73748  20991759.1094                   20991751.2114
        47.5004         50.2504
 20  5 21  2  8 30.0000000  0 10G16G04G09G05G27G30G08G11G28G07
  -3585640.59246  -2678027.35643  24312530.7894                   24312524.0634
        37.5004         19.0004
 -14617060.19347 -11341120.11345  22735477.5634                   22735472.3054
        43.5004         30.0004
 -24282566.43748 -18907677.60148  20808389.1174                   20808383.7424
        48.0004         52.5004
  -3450989.75346  -2676837.90745  24375966.0784                   24375959.3014
        39.7504         33.5004
 -14908728.37447 -11596723.58747  22206468.1334                   22206463.3134
        45.5004         45.0004
 -16249796.29647 -12649980.42847  22533257.2664                   22533252.1374
        44.5004         43.0004
 -20654081.09548 -16075419.34248  21205179.7974                   21205175.2384
        48.0004         49.5004
  -6316241.18746  -4866658.79043  24365573.6174                   24365567.7704
        38.5004         21.5004
  -6142989.59246  -4731157.04943  23737089.2664                   23737082.5164
        38.5004         21.7504
 -23586556.56547 -18321761.82348  20984482.7194                   20984475.1684
        47.0004         50.5004
 20  5 21  2  9  0.0000000  0 10G16G04G09G05G27G30G08G11G28G07
  -3477668.95646  -2593893.73042  24333078.2814                   24333070.5004
        38.5004         17.7504
 -14515934.55047 -11262320.93044  22754721.3594                   22754715.8404
        43.5004         29.0004
 -24228709.34348 -18865711.05648  20818637.6174                   20818633.0744
        48.2504         52.5004
  -3450822.89246  -2676707.89545  24375997.5944                   24375991.1844
        39.5004         34.0004
 -14864180.34647 -11562010.85047  22214945.5554                   22214940.6954
        45.0004         44.7504
 -16324757.32847 -12708391.61047  22518992.3754                   22518987.9144
        44.5004         43.2504
 -20674202.70048 -16091098.52048  21201350.8984                   21201347.0084
        48.2504         49.5004
  -6405284.91346  -4936043.48843  24348629.4694                   24348623.6644
        40.0004         22.7504
  -6231564.94446  -4800176.79143  23720234.2194                   23720227.3674
        38.2504         21.5004
 -23624578.19147 -18351389.06548  20977247.8204                   20977240.0514
        47.5004         50.5004
 20  5 21  2  9 30.0000000  0 10G16G04G09G05G27G30G08G11G28G07
  -3369677.08346  -2509744.31143  24353628.2664                   24353620.7774
        38.5004         19.5004
 -14414553.20947 -11183322.53044  22774013.1024                   22774008.0634
        43.0004         29.7504
 -24174339.18748 -18823344.71848  20828984.2424                   20828979.2074
        48.0004         52.5004
  -3450118.99046  -2676159.42245  24376131.8134                   24376124.9384
        39.7504         33.5004
 -14819036.84347 -11526834.10447  22223536.0704                   22223530.9654
        45.7504         44.7504
 -16399607.27947 -12766716.22947  22504749.7894                   22504744.5984
        45.0004         43.5004
 -20693705.97548 -16106295.87248  21197639.7504                   21197634.9694
        48.0004         49.5004
  -6494239.14146  -5005358.46343  24331702.2344                   24331696.2544
        40.0004         22.0004
  -6319927.72446  -4869030.86843  23703418.6804                   23703412.0984
        38.2504         20.5004
 -23662384.36847 -18380848.42948  20970053.5004                   20970045.4574
        47.2504         50.5004
 20  5 21  2 10  0.0000000  0 10G16G04G09G05G27G30G08G11G28G07
  -3261666.58146  -2425580.28743  24374181.3524                   24374174.6884
        38.0004         18.5004
 -14312917.89447 -11104126.23044  22793353.5634                   22793348.9224
        43.0004         29.0004
 -24119456.86948 -18780579.28648  20839427.4774                   20839422.7544
        48.0004         52.2504
  -3448878.12146  -2675192.52345  24376368.2814                   24376361.4184
        40.0004         34.2504
 -14773299.06947 -11491194.28847  22232239.7504                   22232234.6524
        45.7504         44.5004
 -16474344.82447 -12824953.26747  22490527.1334                   22490522.5314
        45.0004         43.5004
 -20712589.05648 -16121009.95948  21194046.4774                   21194042.3594
        48.0004         49.5004
  -6583100.88046  -5074601.33044  24314793.1804                   24314787.3054
        40.0004         24.7504
  -6408076.59346  -4937718.24043  23686645.0004                   23686638.1174
        38.7504         21.0004
 -23699973.41647 -18410138.59748  20962900.3594                   20962892.8054
        47.7504         50.5004
 20  5 21  2 10 30.0000000  0 10G16G04G09G05G27G30G08G11G28G07
  -3153638.89546  -2341402.98943  24394738.6564                   24394732.0004
        38.5004         19.2504
 -14211030.73947 -11024733.67744  22812742.3134                   22812737.3364
        43.5004         29.5004
 -24064063.73847 -18737415.82948  20849969.0784                   20849964.0434
        47.7504         52.2504
  -3447101.21946  -2673807.95545  24376705.9844                   24376699.2114
        39.2504         33.5004
 -14726968.75447 -11455092.75947  22241055.7734                   22241051.1214
        45.0004         44.5004
 -16548969.03247 -12883101.97947  22476326.6484                   22476321.8954
        44.2504         43.7504
 -20730851.39848 -16135240.35348  21190571.0944                   21190566.9964
        48.2504         49.5004
  -6671866.91146  -5143769.66043  24297901.2344                   24297895.3484
        40.5004         22.2504
  -6496010.69546  -5006238.32543  23669911.8134                   23669904.5904
        39.2504         21.5004
 -23737344.11647 -18439258.62448  20955789.0554                   20955781.3984
        47.5004         50.5004
 20  5 21  2 11  0.0000000  0 10G16G04G09G05G27G30G08G11G28G07
  -3045595.90146  -2257213.71743  24415299.3204                   24415292.3674
        39.7504         19.5004
 -14108893.78447 -10945146.49244  22832178.8134                   22832173.6334
        43.7504         29.5004
 -24008160.97147 -18693855.24548  20860606.7734                   20860601.5124
        47.7504         52.2504
  -3444788.54546  -2672005.87745  24377144.9614                   24377139.4534
        38.2504         33.7504
 -14680047.42947 -11418530.69447  22249984.6174                   22249979.8404
        45.0004         44.5004
 -16623478.80447 -12941161.51947  22462147.9144                   22462143.2854
        44.7504         44.0004
 -20748492.28748 -16148986.49948  21187214.0314                   21187209.9304
        48.0004         49.5004
  -6760534.18346  -5212861.00543  24281027.9224                   24281021.8554
        39.7504         21.0004
  -6583728.76046  -5074590.06443  23653220.3674                   23653212.8444
        39.7504         21.2504
 -23774495.51247 -18468207.77548  20948719.4694                   20948711.9304
        47.5004         50.5004
 20  5 21  2 11 30.0000000  0 10G16G04G09G05G27G30G08G11G28G07
  -2937539.44746  -2173013.91943  24435862.0704                   24435853.9694
        40.5004         18.2504
 -14006509.45847 -10865366.54445  22851661.2194                   22851656.3914
        43.2504         30.0004
 -23951750.35547 -18649898.94448  20871341.5234                   20871336.3404
        47.7504         52.2504
  -3441940.73746  -2669786.83545  24377687.2894                   24377681.1134
        38.7504         33.5004
 -14632537.06347 -11381509.64147  22259025.6564                   22259021.1524
        45.0004         44.7504
 -16697873.52947 -12999131.43147  22447991.5394                   22447986.5204
        44.5004         44.0004
 -20765511.03547 -16162247.85748  21183975.8204                   21183971.1484
        47.5004         49.5004
  -6849099.91846  -5281873.27743  24264173.8984                   24264168.6724
        39.0004         21.0004
  -6671230.13546  -5142772.93643  23636568.5234                   23636561.5354
        39.5004         21.0004
 -23811426.56847 -18496985.22348  20941691.6024                   20941683.8874
        47.5004         50.5004
 20  5 21  2 12  0.0000000  0 10G16G04G09G05G27G30G08G11G28G07
  -2829471.03946  -2088804.86642  24456427.2274                   24456418.5044
        39.0004         17.7504
 -13903879.76747 -10785395.40244  22871191.7424                   22871185.8954
        42.5004         28.2504
 -23894833.07748 -18605547.82848  20882172.4144                   20882167.3054
        48.0004         52.2504
  -3438558.58446  -2667151.42045  24378332.3204                   24378324.7504
        39.5004         34.5004
 -14584439.32847 -11344030.89847  22268178.7664                   22268173.7934
        44.5004         44.7504
 -16772152.12447 -13057010.84147  22433856.5474                   22433851.5554
        44.2504         44.0004
 -20781906.90647 -16175023.85348  21180855.5784                   21180851.1994
        47.5004         49.7504
  -6937560.90346  -5350803.91143  24247340.9844                   24247335.6604
        39.0004         22.0004
  -6758513.69646  -5210786.10043  23619958.7424                   23619952.0354
        39.7504         21.5004
 -23848136.23647 -18525590.16248  20934706.2194                   20934698.5944
        47.0004         50.5004
 20  5 21  2 12 30.0000000  0 10G16G04G09G05G27G30G08G11G28G07
  -2721393.13346  -2004588.38842  24476991.7114                   24476985.4144
        36.5004         17.2504
 -13801007.45347 -10705235.18744  22890767.6884                   22890762.0784
        42.5004         28.5004
 -23837411.02048 -18560803.38948  20893099.4924                   20893094.1884
        48.5004         52.2504
  -3434643.02246  -2664100.34245  24379077.2664                   24379069.8324
        41.2504         34.7504
 -14535756.40047 -11306096.16447  22277442.6094                   22277437.7974
        44.5004         44.2504
 -16846314.09247 -13114799.37447  22419743.9224                   22419739.3054
        44.7504         44.0004
 -20797679.60247 -16187314.26348  21177853.8134                   21177849.4344
        47.7504         49.7504
  -7025914.32046  -5419650.70343  24230526.8524                   24230521.0784
        38.5004         20.5004
  -6845578.80446  -5278629.02043  23603391.0634                   23603384.1454
        39.7504         22.5004
 -23884623.93047 -18554022.13448  20927762.5554                   20927755.0164
        47.5004         50.5004
 20  5 21  2 13  0.0000000  0 10G16G04G09G05G27G30G08G11G28G07
  -2613307.01946  -1920365.52442  24497561.0164                   24497553.7664
        38.0004         17.7504
 -13697894.21647 -10624887.24144  22910388.9224                   22910383.6524
        42.7504         28.0004
 -23779485.28648 -18515666.47248  20904122.4384                   20904117.3244
        48.0004         52.0004
  -3430194.56846  -2660634.04045  24379923.7194                   24379916.9844
        40.7504         34.5004
 -14486489.68547 -11267706.52247  22286817.8204                   22286812.3984
        44.5004         44.0004
 -16920358.11047 -13172496.00047  22405653.7894                   22405648.8594
        44.7504         43.7504
 -20812827.96547 -16199118.17348  21174971.3204                   21174967.1914
        47.5004         49.7504
  -7114156.90846  -5488411.14243  24213735.7424                   24213728.8164
        39.5004         22.0004
  -6932424.20446  -5346300.74143  23586865.2034                   23586858.2114
        39.5004         23.0004
 -23920888.16148 -18582279.98048  20920862.2504                   20920853.9574
        48.0004         50.5004
 20  5 21  2 13 30.0000000  0 10G16G04G09G05G27G30G08G11G28G07
  -2505214.23546  -1836137.41542  24518129.4924                   24518123.1094
        37.2504         17.7504
 -13594542.33647 -10544353.35544  22930056.6954                   22930051.2034
        43.2504         29.0004
 -23721057.38448 -18470138.25248  20915240.8364                   20915235.5354
        48.0004         52.0004
  -3425214.06846  -2656753.14545  24380870.5944                   24380864.1994
        39.2504         34.0004
 -14436641.13447 -11228863.50747  22296303.0394                   22296299.1134
        44.5004         44.0004
 -16994283.20447 -13230099.95247  22391586.4144                   22391581.4694
        45.0004         44.0004
 -20827351.74748 -16210435.39348  21172207.7424                   21172203.3554
        48.0004         50.0004
  -7202285.94646  -5557083.12643  24196965.6414                   24196958.9534
        40.0004         21.5004
  -7019048.74646  -5413800.35343  23570380.6484                   23570374.1134
        39.2504         22.7504
 -23956927.73847 -18610362.76548  20914003.6564                   20913996.2154
        46.7504         50.5004
 20  5 21  2 14  0.0000000  0 10G16G04G09G05G27G30G08G11G28G07
  -2397116.55146  -1751905.47043  24538700.4384                   24538693.5784
        38.5004         18.5004
 -13490953.89947 -10463635.12544  22949769.0234                   22949763.5164
        43.2504         29.5004
 -23662128.64447 -18424219.76548  20926454.4774                   20926449.4924
        47.7504         52.0004
  -3419701.84246  -2652457.93045  24381919.7974                   24381913.5234
        40.2504         33.5004
 -14386212.40547 -11189568.40547  22305900.2584                   22305895.0004
        45.0004         44.0004
 -17068088.35447 -13287610.44447  22377541.7424                   22377536.3714
        45.0004         44.0004
 -20841249.53748 -16221264.82748  21169563.0864                   21169558.3554
        48.0004         49.7504
  -7290298.06946  -5625663.97843  24180216.9144                   24180212.1214
        39.5004         22.7504
  -7105451.61846  -5481127.22843  23553938.4694                   23553932.0664
        39.5004         22.0004
 -23992741.32447 -18638269.45648  20907188.4844                   20907180.9414
        47.5004         50.5004
 20  5 21  2 14 30.0000000  0 10G16G04G09G05G27G30G08G11G28G07
  -2289016.16546  -1667671.50643  24559271.6884                   24559264.4494
        38.5004         19.7504
 -13387131.58047 -10382734.66444  22969525.6174                   22969520.8364
        43.0004         28.5004
 -23602701.10348 -18377912.59848  20937763.3754                   20937758.4494
        48.5004         52.0004
  -3413659.53946  -2647749.64345  24383069.6724                   24383063.0204
        39.7504         33.5004
 -14335205.89547 -11149823.07947  22315606.1024                   22315601.2504
        44.2504         44.0004
 -17141773.09947 -13345027.12247  22363519.9384                   22363514.6294
        46.0004         44.2504
 -20854521.93348 -16231606.94348  21167037.1564                   21167033.1054
        48.5004         49.7504
  -7378190.45746  -5694151.55543  24163491.2974                   24163485.6524
        39.7504         22.7504
  -7191632.03746  -5548280.80143  23537539.4844                   23537532.2194
        39.7504         22.7504
 -24028328.50947 -18665999.73648  20900416.8594                   20900408.7304
        47.0004         50.5004
 20  5 21  2 15  0.0000000  0 10G16G04G09G05G27G30G08G11G28G07
  -2180914.79046  -1583436.72642  24579841.7504                   24579835.6724
        37.0004         17.2504
 -13283077.50647 -10301653.62644  22989326.4924                   22989321.1914
        42.5004         29.2504
 -23542776.19048 -18331217.88948  20949166.8984                   20949161.5204
        48.0004         52.0004
  -3407087.42246  -2642628.56845  24384319.9384                   24384313.7774
        38.5004         34.0004
 -14283623.35247 -11109628.89547  22325421.9064                   22325417.1334
        45.0004         43.7504
 -17215336.35247 -13402349.13347  22349521.5554                   22349516.6604
        45.2504         44.5004
 -20867167.94948 -16241460.96648  21164630.7664                   21164626.5554
        48.2504         50.0004
  -7465960.10446  -5762543.45443  24146790.2584                   24146784.0554
        41.5004         22.7504
  -7277589.26146  -5615260.41843  23521182.2974                   23521175.3014
        40.5004         22.5004
 -24063688.00547 -18693552.59648  20893687.9304                   20893680.0474
        47.5004         50.7504
 20  5 21  2 15 30.0000000  0 10G16G04G09G05G27G30G08G11G28G07
  -2072813.52146  -1499202.08443  24600412.4384                   24600406.4534
        36.0004         18.2504
 -13178793.71847 -10220393.57744  23009170.7734                   23009165.6254
        42.2504         28.2504
 -23482355.25048 -18284136.65748  20960664.5234                   20960659.7734
        48.0004         52.0004
  -3399986.40646  -2637095.31445  24385671.5704                   24385665.4494
        40.2504         34.0004
 -14231466.50047 -11068987.19947  22335347.2894                   22335341.8914
        44.2504         43.7504
 -17288776.93647 -13459575.54447  22335545.9844                   22335540.9734
        45.5004         44.5004
 -20879186.63647 -16250826.16548  21162343.3054                   21162339.2934
        47.2504         50.0004
  -7553604.00846  -5830837.38143  24130112.0164                   24130105.6294
        40.7504         23.7504
  -7363321.94946  -5682065.07843  23504868.1024                   23504861.0784
        40.2504         22.0004
 -24098818.60747 -18720927.09348  20887002.8524                   20886995.6374
        47.0004         50.7504
 20  5 21  2 16  0.0000000  0 10G16G04G09G05G27G30G08G11G28G07
  -1964714.54345  -1414969.17042  24620983.7814                   24620977.2194
        35.7504         17.2504
 -13074282.48547 -10138956.31144  23029059.1884                   23029053.2774
        43.2504         29.0004
 -23421439.91647 -18236670.17948  20972256.2274                   20972251.3444
        47.7504         51.7504
  -3392357.69646  -2631150.87345  24387123.0864                   24387116.7934
        40.2504         34.0004
 -14178737.38847 -11027899.58347  22345381.5634                   22345376.1684
        44.7504         43.7504
 -17362093.94447 -13516705.67147  22321594.1724                   22321589.7624
        44.5004         44.5004
 -20890577.97247 -16259702.51748  21160175.9144                   21160171.7974
        47.0004         50.0004
  -7641119.05946  -5899030.90443  24113458.6254                   24113452.2584
        40.2504         22.7504
  -7448829.39346  -5748694.25643  23488595.7114                   23488588.9024
        40.0004         22.5004
 -24133719.46447 -18748122.56848  20880361.5634                   20880353.4494
        47.0004         50.5004
