     2.11           OBSERVATION DATA    G (GPS)             RINEX VERSION / TYPE
teqc  2008Oct2                          20220510 03:47:53UTCPGM / RUN BY / DATE
MSXP|IAx86-PII|bcc32 5.0|MSWin95->XP|486/DX+                COMMENT
BIT 2 OF LLI FLAGS DATA COLLECTED UNDER A/S CONDITION       COMMENT
NtRSkaza                                                    MARKER NAME
kaza                                                        MARKER NUMBER
-Unknown-           -Unknown-                               OBSERVER / AGENCY
4752143407          TRIMBLE NETRS       NP 1.32 / SP 0.00   REC # / TYPE / VERS
30895097            TRM55971.00                             ANT # / TYPE
  1325807.4470  4606495.7499  4195524.6579                  APPROX POSITION XYZ
        0.1705        0.0000        0.0000                  ANTENNA: DELTA H/E/N
     1     1                                                WAVELENGTH FACT L1/2
     7    L1    L2    C1    P2    P1    S1    S2            # / TYPES OF OBSERV
 SNR is mapped to RINEX snr flag value [0-9]                COMMENT
  L1 & L2: min(max(int(snr_dBHz/6), 0), 9)                  COMMENT
  2020     5     1     0     0    0.0000000     GPS         TIME OF FIRST OBS
                                                            END OF HEADER
 20  5  1  0  0  0.0000000  0 10G16G23G 6G 9G 4G22G 3G26G14G31
 -18111043.99447 -14410721.63045  21401834.0314   21401826.2274
        46.7504         35.0004
  -5295583.58247  -4434418.59144  23758758.9614   23758750.0594
        42.7504         28.0004
   -605413.22045   -475255.65445  25210491.2424   25210486.3914
        35.7504         30.0004
  -7275166.60146  -5647523.78346  23999567.5314   23999563.3984
        38.0004         36.0004
 -21899870.48247 -17039794.08246  21337295.5084   21337289.1764
        45.5004         36.5004
 -20506960.11047 -15959845.80446  21793470.1644   21793460.2974
        47.0004         36.7504
 -24565190.96448 -19127976.57848  20687291.0474   20687286.3874
        48.0004         52.0004
 -20291218.54247 -15927819.20248  20912476.3284   20912472.0904
        47.0004         50.2504
  -7280730.95647  -5606697.91843  23746756.2814   23746749.3754
        42.0004         22.5004
 -12705480.35347  -9754885.44747  22575310.9064   22575302.6994
        45.0004         43.0004
 20  5  1  0  0 30.0000000  0 10G16G23G 6G 9G 4G22G 3G26G14G31
 -18189462.20947 -14471826.73946  21386911.7894   21386903.3914
        46.0004         36.0004
  -5378771.66347  -4499240.47244  23742928.5004   23742920.0474
        42.7504         27.7504
   -622471.86146   -488548.10145  25207245.6564   25207240.8094
        37.0004         31.5004
  -7366181.21046  -5718444.25246  23982250.0004   23982243.7624
        39.5004         36.2504
 -21957941.23747 -17085044.01646  21326244.8524   21326238.4614
        45.7504         36.0004
 -20436333.61547 -15904812.17846  21806909.6334   21806900.5204
        46.7504         37.0004
 -24537899.82147 -19106710.76448  20692484.1954   20692479.2344
        47.5004         52.0004
 -20290603.77247 -15927340.15948  20912593.5314   20912588.8134
        47.0004         50.2504
  -7204469.30446  -5547273.27143  23761268.1254   23761260.9924
        40.7504         22.7504
 -12616533.41547  -9685576.16647  22592236.9534   22592228.7344
        44.5004         43.0004
 20  5  1  0  1  0.0000000  0 10G16G23G 6G 9G 4G22G 3G26G14G31
 -18267390.09347 -14532549.77345  21372082.1024   21372074.2544
        46.7504         35.0004
  -5461939.06547  -4564046.20444  23727103.7584   23727093.8164
        44.0004         28.0004
   -639003.27646   -501429.75545  25204099.9304   25204095.5004
        36.7504         30.0004
  -7457166.19746  -5789341.64846  23964934.8054   23964929.9774
        39.2504         36.2504
 -22015804.94247 -17130132.61345  21315233.7114   21315227.1024
        45.2504         35.7504
 -20365306.76947 -15849466.60246  21820425.7584   21820416.0824
        46.5004         37.0004
 -24510027.71447 -19084992.25148  20697787.9534   20697783.3444
        47.5004         52.0004
 -20289371.09647 -15926379.63148  20912827.9304   20912823.3794
        47.0004         50.2504
  -7128054.24546  -5487729.08343  23775810.3444   23775801.4884
        41.7504         22.0004
 -12527468.19247  -9616174.72547  22609185.4454   22609177.3444
        45.0004         42.7504
 20  5  1  0  1 30.0000000  0 10G16G23G 6G 9G 4G22G 3G26G14G31
 -18344823.71447 -14592887.67345  21357347.1174   21357338.9574
        47.0004         35.2504
  -5545084.04447  -4628834.51844  23711280.3134   23711271.3634
        43.2504         27.2504
   -655006.42346   -513899.74745  25201054.7504   25201049.6844
        36.0004         30.0004
  -7548119.87746  -5860214.66346  23947627.3594   23947622.2194
        39.2504         36.0004
 -22073459.65747 -17175058.36745  21304262.6174   21304255.6884
        45.2504         35.2504
 -20293881.14847 -15793810.28346  21834017.4844   21834008.0234
        47.5004         36.2504
 -24481574.53147 -19062820.94848  20703202.4454   20703197.6954
        47.5004         51.7504
 -20287519.96147 -15924937.19948  20913180.5704   20913175.7154
        47.0004         50.2504
  -7051485.19146  -5428064.89243  23790379.4614   23790373.1254
        39.7504         20.7504
 -12438285.73447  -9546681.92047  22626156.0084   22626148.2584
        44.5004         42.7504
 20  5  1  0  2  0.0000000  0 10G16G23G 6G 9G 4G22G 3G26G14G31
 -18421760.56147 -14652838.45045  21342706.6884   21342698.2304
        46.7504         35.5004
  -5628205.73147  -4693604.66544  23695462.8134   23695453.7894
        42.2504         26.2504
   -670481.14945   -525957.99945  25198109.3364   25198104.4964
        35.7504         30.0004
  -7639041.18746  -5931062.46746  23930326.0784   23930320.7584
        40.0004         36.2504
 -22130904.07247 -17219820.24245  21293330.8914   21293324.5354
        45.2504         35.7504
 -20222058.46147 -15737844.56646  21847685.3524   21847675.5434
        46.5004         36.5004
 -24452540.87947 -19040197.33748  20708727.9614   20708722.5664
        47.5004         51.7504
 -20285050.49047 -15923012.93348  20913650.1024   20913645.7274
        47.0004         50.2504
  -6974762.20446  -5368280.79543  23804978.8134   23804973.1374
        38.7504         19.5004
 -12348987.81547  -9477099.14847  22643148.3284   22643141.3324
        43.7504         42.5004
 20  5  1  0  2 30.0000000  0 10G16G23G 6G 9G 4G22G 3G26G14G31
 -18498197.93347 -14712400.03446  21328160.6174   21328153.1524
        46.5004         36.0004
  -5711303.33047  -4758356.02344  23679650.9144   23679641.3134
        43.7504         26.7504
   -685427.30246   -537604.37444  25195265.8914   25195259.8754
        36.7504         29.5004
  -7729929.23846  -6001884.33846  23913029.7424   23913025.3134
        39.2504         36.2504
 -22188137.01747 -17264417.34845  21282440.1724   21282433.7154
        45.2504         35.5004
 -20149840.65147 -15681570.96246  21861427.6484   21861418.3204
        47.0004         36.5004
 -24422927.58347 -19017122.05648  20714362.8674   20714358.2154
        47.5004         52.0004
 -20281962.94647 -15920607.06048  20914237.6564   20914233.3524
        47.0004         50.2504
  -6897885.72046  -5308377.15543  23819609.1094   23819602.2774
        39.0004         19.7504
 -12259576.12247  -9407427.72647  22660163.2034   22660155.5204
        44.5004         42.7504
 20  5  1  0  3  0.0000000  0 10G16G23G 6G 9G 4G22G 3G26G14G31
 -18574134.06647 -14771571.06245  21313710.8134   21313702.6564
        46.5004         35.5004
  -5794377.18747  -4823088.92744  23663841.9064   23663832.4804
        43.5004         28.0004
   -699846.00146   -548839.74044  25192521.7194   25192516.9384
        36.7504         29.7504
  -7820784.26246  -6072680.45346  23895740.4144   23895735.6214
        38.7504         37.5004
 -22245158.53947 -17308849.70246  21271589.3524   21271583.0434
        45.0004         36.2504
 -20077231.30047 -15624992.25146  21875244.8524   21875235.4924
        47.5004         36.5004
 -24392736.66247 -18993596.67348  20720107.7894   20720103.1724
        47.5004         52.0004
 -20278258.83547 -15917720.73548  20914942.5634   20914938.1024
        47.5004         50.2504
  -6820857.24746  -5248355.00243  23834267.2504   23834260.8674
        40.2504         22.5004
 -12170053.42047  -9337669.80047  22677199.3284   22677191.5274
        44.5004         42.7504
 20  5  1  0  3 30.0000000  0 10G16G23G 6G 9G 4G22G 3G26G14G31
 -18649564.66647 -14830348.14545  21299356.6024   21299349.1134
        45.7504         35.5004
  -5877425.07047  -4887801.54744  23648038.9614   23648028.6054
        44.0004         28.7504
   -713735.96345   -559663.10245  25189878.0164   25189874.3014
        35.5004         31.0004
  -7911604.03446  -6143449.07446  23878459.6174   23878453.9804
        40.0004         37.7504
 -22301966.11047 -17353115.34645  21260779.2274   21260772.5084
        45.2504         35.5004
 -20004231.32347 -15568109.16945  21889136.1024   21889126.7304
        47.5004         35.7504
 -24361967.64947 -18969620.82948  20725963.2584   20725958.2424
        47.5004         52.0004
 -20273937.14847 -15914353.18948  20915764.8444   20915760.4924
        47.5004         50.2504
  -6743675.69946  -5188213.58843  23848954.3204   23848947.7344
        41.2504         22.7504
 -12080420.41647  -9267825.92947  22694255.9224   22694248.1134
        44.5004         42.2504
 20  5  1  0  4  0.0000000  0 10G16G23G 6G 9G 4G22G 3G26G14G31
 -18724487.97347 -14888729.95546  21285099.3524   21285091.9454
        47.0004         36.2504
  -5960446.80247  -4952493.82844  23632239.5864   23632230.6134
        43.5004         26.5004
   -727097.75046   -570074.90345  25187335.9064   25187332.1564
        36.5004         31.0004
  -8002388.23646  -6214190.01646  23861182.7344   23861177.8794
        40.0004         37.7504
 -22358559.19747 -17397213.84745  21250009.6484   21250003.4024
        45.5004         35.5004
 -19930843.12447 -15510923.56546  21903101.2344   21903091.8554
        47.0004         36.5004
 -24330622.03447 -18945195.69248  20731928.0554   20731923.0084
        47.2504         51.7504
 -20268998.92147 -15910505.21748  20916704.5004   20916699.8914
        47.0004         50.2504
  -6666341.79946  -5127953.43743  23863669.8204   23863663.5634
        39.2504         22.5004
 -11990679.46347  -9197897.93847  22711332.4774   22711324.9184
        44.5004         42.5004
 20  5  1  0  4 30.0000000  0 10G16G23G 6G 9G 4G22G 3G26G14G31
 -18798900.42847 -14946713.70046  21270938.7274   21270931.4064
        47.0004         36.5004
  -6043440.76747  -5017164.42744  23616447.4774   23616437.4694
        44.2504         27.5004
   -739930.63745   -580074.56045  25184893.3754   25184889.5944
        35.0004         30.5004
  -8093135.13346  -6284901.89046  23843913.8134   23843909.3404
        38.7504         37.2504
 -22414935.79647 -17441143.67746  21239281.3134   21239274.7624
        45.5004         36.0004
 -19857068.10347 -15453436.55646  21917140.5474   21917130.5164
        47.2504         36.7504
 -24298699.91147 -18920321.32348  20738002.4454   20737997.7194
        47.2504         51.7504
 -20263443.68947 -15906176.47348  20917761.5004   20917757.3094
        47.0004         50.0004
  -6588855.24646  -5067574.36643  23878415.0474   23878408.7114
        38.5004         21.0004
 -11900831.65947  -9127886.69547  22728430.7504   22728422.4844
        44.5004         42.7504
 20  5  1  0  5  0.0000000  0 10G16G23G 6G 9G 4G22G 3G26G14G31
 -18872799.26847 -15004297.22146  21256876.7974   21256869.1724
        46.7504         36.2504
  -6126405.85147  -5081812.54944  23600659.0234   23600649.6374
        43.2504         28.7504
   -752234.37646   -589661.91144  25182552.4774   25182547.7814
        36.5004         29.5004
  -8183843.62946  -6355583.81346  23826653.8914   23826647.9574
        39.7504         36.7504
 -22471094.58647 -17484903.77646  21228594.8204   21228588.2114
        45.5004         36.0004
 -19782908.50447 -15395649.86246  21931252.2504   21931243.0394
        47.0004         36.5004
 -24266202.11547 -18894998.37748  20744186.7584   20744181.6094
        47.2504         51.7504
 -20257271.74247 -15901367.16148  20918936.0394   20918931.7734
        47.0004         50.0004
  -6511216.15546  -5007076.41943  23893189.8284   23893182.6644
        38.2504         19.5004
 -11810878.38647  -9057793.25647  22745547.6254   22745540.1804
        44.2504         43.0004
 20  5  1  0  5 30.0000000  0 10G16G23G 6G 9G 4G22G 3G26G14G31
 -18946182.33748 -15061478.84346  21242912.0004   21242904.3134
        48.0004         36.0004
  -6209341.74047  -5146437.90644  23584876.5704   23584867.8794
        43.5004         28.5004
   -764009.67746   -598837.50445  25180312.2114   25180307.1764
        36.5004         30.0004
  -8274513.31046  -6426235.52246  23809400.4224   23809394.1094
        41.0004         36.7504
 -22527034.94847 -17528493.66446  21217949.9454   21217943.6334
        45.2504         36.2504
 -19708367.01947 -15337565.60946  21945437.2734   21945427.5234
        46.2504         36.0004
 -24233130.08147 -18869227.96748  20750480.0634   20750475.0984
        47.7504         51.7504
 -20250484.09247 -15896078.08348  20920227.9384   20920223.4384
        47.5004         50.0004
  -6433425.31546  -4946460.21043  23907992.5474   23907985.6764
        37.5004         19.0004
 -11720822.12247  -8987619.55947  22762684.6804   22762677.3444
        44.5004         42.0004
 20  5  1  0  6  0.0000000  0 10G16G23G 6G 9G 4G22G 3G26G14G31
 -19019047.01148 -15118256.51446  21229046.5864   21229038.9774
        48.0004         36.5004
  -6292247.67447  -5211039.92544  23569100.4384   23569090.9384
        44.0004         28.5004
   -775256.62046   -607601.36844  25178172.0864   25178166.4384
        37.5004         29.2504
  -8365143.27746  -6496856.29646  23792153.5164   23792147.9304
        40.5004         37.5004
 -22582755.70547 -17571912.43646  21207346.3674   21207340.1524
        46.0004         36.0004
 -19633445.67247 -15279185.35446  21959694.3914   21959684.8954
        47.2504         36.2504
 -24199484.87248 -18843010.93348  20756882.1724   20756877.8364
        48.0004         51.7504
 -20243081.25147 -15890309.64748  20921636.4064   20921632.1054
        47.5004         50.0004
  -6355483.15246  -4885726.10143  23922825.4304   23922818.6214
        39.2504         20.5004
 -11630664.46147  -8917366.88447  22779841.4694   22779833.5824
        44.2504         42.0004
 20  5  1  0  6 30.0000000  0 10G16G23G 6G 9G 4G22G 3G26G14G31
 -19091390.35847 -15174627.95446  21215280.1884   21215272.1374
        47.0004         36.0004
  -6375122.63747  -5275617.81144  23553328.8524   23553320.6134
        43.0004         27.2504
   -785975.22846   -615953.54444  25176132.4224   25176127.1294
        36.7504         29.7504
  -8455732.48446  -6567445.26946  23774915.3674   23774909.0664
        41.0004         37.2504
 -22638255.58947 -17615159.09645  21196785.4534   21196778.6484
        46.0004         35.5004
 -19558146.41247 -15220510.61545  21974023.3984   21974013.8324
        47.0004         35.7504
 -24165267.37147 -18816347.95348  20763393.9774   20763389.1524
        47.7504         51.7504
 -20235063.58747 -15884062.10948  20923162.5784   20923157.9844
        47.2504         50.0004
  -6277390.04146  -4824874.39543  23937686.0004   23937679.0824
        40.5004         22.5004
 -11540407.08247  -8847036.48647  22797017.5084   22797009.0004
        45.0004         42.2504
 20  5  1  0  7  0.0000000  0 10G16G23G 6G 9G 4G22G 3G26G14G31
 -19163209.43647 -15230590.86646  21201613.3594   21201605.9064
        46.5004         36.2504
  -6457964.93347  -5340170.25244  23537565.5004   23537556.1414
        43.0004         28.7504
   -796164.91846   -623893.58744  25174192.5784   25174188.3244
        36.5004         29.2504
  -8546279.18946  -6638001.18346  23757684.4064   23757678.2304
        40.7504         37.7504
 -22693532.64247 -17658232.12246  21186266.4534   21186260.1724
        45.5004         36.2504
 -19482471.07047 -15161542.82846  21988423.7664   21988414.2934
        46.2504         36.7504
 -24130477.90648 -18789239.29348  20770014.2734   20770009.0514
        48.5004         51.7504
 -20226430.94347 -15877335.37948  20924804.8444   20924800.7114
        47.5004         50.0004
  -6199145.47246  -4763904.65943  23952575.2274   23952569.1094
        39.5004         22.5004
 -11450050.91747  -8776629.09646  22814211.0944   22814203.3834
        44.7504         41.7504
 20  5  1  0  7 30.0000000  0 10G16G23G 6G 9G 4G22G 3G26G14G31
 -19234501.61047 -15286143.22146  21188046.6174   21188038.8634
        47.0004         36.5004
  -6540774.14247  -5404696.89944  23521807.2344   23521797.6134
        43.7504         28.7504
   -805826.05246   -631421.74544  25172354.1024   25172349.6564
        36.5004         29.5004
  -8636782.63046  -6708523.34346  23740461.6484   23740456.8554
        40.0004         37.5004
 -22748585.89647 -17701130.76846  21175790.3054   21175783.8554
        46.0004         37.0004
 -19406421.94647 -15102283.78946  22002895.7584   22002885.7344
        47.2504         36.5004
 -24095117.66947 -18761685.87748  20776742.9534   20776738.0864
        47.5004         51.7504
 -20217184.05447 -15870130.01448  20926564.6884   20926560.2544
        47.5004         50.0004
  -6120749.89146  -4702817.25743  23967493.2894   23967487.3204
        38.5004         22.5004
 -11359598.15647  -8706146.45547  22831423.8284   22831416.3954
        44.2504         42.0004
 20  5  1  0  8  0.0000000  0 10G16G23G 6G 9G 4G22G 3G26G14G31
 -19305263.64547 -15341282.47246  21174581.5004   21174573.4804
        47.0004         36.2504
  -6623548.78847  -5469196.64844  23506054.5864   23506046.2974
        42.5004         28.7504
   -814958.29845   -638537.79844  25170616.7734   25170612.2704
        35.7504         29.5004
  -8727241.34846  -6779010.65646  23723247.2814   23723242.9654
        39.7504         38.0004
 -22803413.62647 -17743853.66946  21165356.7734   21165350.4614
        46.2504         37.5004
 -19330000.72747 -15042734.79446  22017438.0084   22017428.2774
        47.0004         36.0004
 -24059187.28947 -18733688.19248  20783580.1644   20783575.4884
        47.5004         51.7504
 -20207322.94548 -15862446.03648  20928441.0314   20928436.6804
        48.0004         50.0004
  -6042203.26646  -4641612.13543  23982440.0944   23982433.3134
        39.0004         20.0004
 -11269049.85147  -8635589.35847  22848654.5554   22848646.9804
        44.2504         42.0004
 20  5  1  0  8 30.0000000  0 10G16G23G 6G 9G 4G22G 3G26G14G31
 -19375493.71447 -15396007.20046  21161217.2894   21161209.6524
        46.7504         36.7504
  -6706288.20747  -5533668.89944  23490310.2344   23490301.3634
        43.7504         28.5004
   -823562.39846   -645242.29045  25168979.3204   25168975.2934
        36.2504         30.2504
  -8817654.84746  -6849462.70046  23706043.7344   23706038.4964
        40.5004         37.7504
 -22858015.13647 -17786400.29846  21154966.7424   21154960.1564
        45.7504         36.7504
 -19253210.41647 -14982898.19945  22032050.6884   22032041.1254
        47.0004         35.5004
 -24022688.36647 -18705247.49248  20790525.6024   20790521.0704
        47.7504         51.7504
 -20196848.81947 -15854284.37948  20930434.3914   20930429.8954
        47.5004         50.2504
  -5963506.24146  -4580289.85943  23997416.2344   23997409.2274
        38.7504         19.7504
 -11178408.13147  -8564959.48046  22865903.2424   22865895.6684
        44.5004         41.7504
 20  5  1  0  9  0.0000000  0 10G16G23G 6G 9G 4G22G 3G26G14G31
 -19445189.32547 -15450315.46546  21147954.1334   21147946.4224
        47.0004         36.5004
  -6788991.51147  -5598113.03944  23474572.2274   23474563.4964
        44.2504         28.7504
   -831638.37845   -651535.28344  25167443.0004   25167438.2304
        35.5004         29.5004
  -8908022.02946  -6919878.68546  23688847.2504   23688841.7114
        41.5004         39.5004
 -22912389.15347 -17828769.65946  21144619.5314   21144612.9734
        46.0004         36.7504
 -19176052.90947 -14922775.48145  22046733.4614   22046723.6644
        47.2504         35.5004
 -23985621.89848 -18676364.54048  20797579.8284   20797574.7704
        48.2504         51.7504
 -20185762.18748 -15845645.45148  20932544.1884   20932539.6054
        48.0004         50.0004
  -5884659.19346  -4518850.64843  24012419.5704   24012413.0124
        38.5004         19.2504
 -11087674.56347  -8494258.03146  22883168.8284   22883161.4804
        44.2504         41.7504
 20  5  1  0  9 30.0000000  0 10G16G23G 6G 9G 4G22G 3G26G14G31
 -19514347.82647 -15504205.21746  21134793.9694   21134786.4304
        47.0004         36.5004
  -6871658.14447  -5662528.59744  23458841.6024   23458832.2934
        43.5004         29.0004
   -839186.82846   -657417.20444  25166005.8054   25166002.2114
        36.2504         29.7504
  -8998342.12946  -6990257.98946  23671659.4144   23671654.3954
        41.0004         39.0004
 -22966534.62347 -17870960.93346  21134315.6254   21134309.5044
        45.5004         36.7504
 -19098530.82047 -14862368.67945  22061485.3834   22061475.8834
        46.7504         35.7504
 -23947989.28947 -18647040.43848  20804740.5394   20804736.0234
        47.5004         51.5004
 -20174063.89548 -15836529.90348  20934769.8204   20934765.4144
        48.0004         50.0004
  -5805662.76346  -4457295.01743  24027452.4454   24027446.3524
        39.0004         20.5004
 -10996851.02647  -8423486.48046  22900452.0864   22900444.9734
        44.7504         41.7504
 20  5  1  0 10  0.0000000  0 10G16G23G 6G 9G 4G22G 3G26G14G31
 -19582966.92747 -15557674.65946  21121736.3984   21121728.8404
        46.5004         36.7504
  -6954286.89447  -5726914.62344  23443118.5164   23443109.1334
        43.7504         29.5004
   -846207.94446   -662888.20344  25164669.4924   25164666.1334
        36.5004         29.2504
  -9088613.98246  -7060599.70746  23654482.4144   23654475.9024
        41.7504         38.5004
 -23020450.31547 -17912973.15646  21124056.2894   21124049.5434
        45.5004         36.7504
 -19020646.50447 -14801679.61945  22076306.4614   22076296.9884
        46.5004         35.7504
 -23909791.59647 -18617276.02348  20812009.1884   20812004.7704
        47.5004         51.5004
 -20161754.62548 -15826938.27048  20937112.8594   20937107.9614
        49.2504         50.0004
  -5726517.18546  -4395623.17643  24042513.6884   24042507.1254
        40.0004         23.5004
 -10905939.45447  -8352646.33846  22917752.1954   22917744.5394
        44.2504         41.5004
 20  5  1  0 10 30.0000000  0 10G16G23G 6G 9G 4G22G 3G26G14G31
 -19651043.38047 -15610721.25546  21108781.8754   21108774.0314
        47.0004         37.0004
  -7036875.94147  -5791269.72445  23427402.1564   23427392.8284
        44.0004         30.0004
   -852701.05146   -667947.78945  25163434.5084   25163429.8094
        36.5004         30.0004
  -9178835.73146  -7130902.37246  23637312.8054   23637307.3014
        41.0004         38.0004
 -23074133.98047 -17954804.58845  21113840.1724   21113833.5274
        45.7504         35.7504
 -18942400.87847 -14740709.02245  22091196.2664   22091186.1524
        46.7504         35.5004
 -23871029.10647 -18587071.50048  20819385.7504   20819380.9414
        47.2504         51.2504
 -20148834.06147 -15816870.30548  20939571.1644   20939566.9184
        47.7504         50.0004
  -5647221.88346  -4333834.69943  24057604.3834   24057596.4184
        39.7504         22.5004
 -10814940.58947  -8281738.15946  22935068.4224   22935061.1994
        43.7504         41.5004
 20  5  1  0 11  0.0000000  0 10G16G23G 6G 9G 4G22G 3G26G14G31
 -19718574.83647 -15663343.18046  21095930.9614   21095923.0434
        47.5004         37.0004
  -7119424.99747  -5855593.65644  23411693.4224   23411684.4344
        44.0004         29.5004
   -858667.07046   -672596.65845  25162299.3444   25162294.5394
        36.5004         30.0004
  -9269006.89446  -7201165.63646  23620153.4694   23620148.2624
        39.5004         37.2504
 -23127585.05247 -17996454.77546  21103668.7974   21103662.0664
        46.0004         37.0004
 -18863797.05047 -14679459.30845  22106153.9064   22106144.0314
        47.5004         35.5004
 -23831703.57047 -18556428.23948  20826868.8914   20826864.1414
        47.5004         51.5004
 -20135303.56448 -15806327.07148  20942145.8914   20942141.2624
        48.0004         50.0004
  -5567777.77446  -4271930.25943  24072720.6414   24072714.0234
        37.5004         21.7504
 -10723856.40147  -8210763.49046  22952401.4454   22952394.1214
        44.2504         41.5004
 20  5  1  0 11 30.0000000  0 10G16G23G 6G 9G 4G22G 3G26G14G31
 -19785558.12747 -15715537.96246  21083184.4534   21083176.7304
        47.0004         36.2504
  -7201931.98247  -5919884.80844  23395993.9304   23395984.1294
        44.2504         29.5004
   -864105.36046   -676834.28945  25161264.9774   25161259.7504
        37.0004         30.2504
  -9359125.45546  -7271387.88246  23603005.4144   23602999.0824
        41.0004         36.7504
 -23180801.32947 -18037921.99846  21093542.2424   21093535.8014
        45.7504         36.7504
 -18784836.51047 -14617931.62745  22121179.1884   22121170.0004
        47.0004         35.5004
 -23791815.31347 -18525346.49248  20834459.3674   20834454.9924
        47.0004         51.2504
 -20121162.93248 -15795308.39348  20944836.6414   20944832.1414
        48.0004         50.0004
  -5488184.21146  -4209909.37243  24087866.5554   24087860.5234
        36.7504         20.7504
 -10632687.60647  -8139722.91246  22969750.6954   22969742.2974
        44.7504         40.7504
 20  5  1  0 12  0.0000000  0 10G16G23G 6G 9G 4G22G 3G26G14G31
 -19851991.72547 -15767304.41146  21070542.2894   21070534.7704
        47.2504         37.0004
  -7284397.10647  -5984143.33944  23380300.8524   23380291.0084
        44.5004         29.2504
   -869017.41846   -680661.90845  25160330.2344   25160324.7974
        37.5004         30.2504
  -9449191.46046  -7341569.20446  23585864.9844   23585860.1724
        40.5004         38.0004
 -23233782.59847 -18079206.10546  21083460.2734   21083453.8914
        45.5004         36.7504
 -18705522.26547 -14556128.32945  22136272.4534   22136262.6604
        46.7504         35.2504
 -23751366.63247 -18493828.06448  20842156.7034   20842151.8094
        47.7504         51.5004
 -20106414.03348 -15783815.75148  20947643.2274   20947639.0274
        49.2504         50.0004
  -5408442.66946  -4147773.16443  24103040.7974   24103034.4104
        37.0004         19.7504
 -10541436.87347  -8068618.47146  22987115.1094   22987107.1174
        44.5004         40.5004
 20  5  1  0 12 30.0000000  0 10G16G23G 6G 9G 4G22G 3G26G14G31
 -19917872.94947 -15818640.43946  21058005.8754   21057998.0594
        47.5004         37.2504
  -7366818.97247  -6048368.17744  23364615.8674   23364606.9804
        45.0004         28.5004
   -873402.81046   -684079.10344  25159493.9774   25159490.7194
        36.5004         29.7504
  -9539203.14846  -7411708.17946  23568736.0634   23568732.0474
        40.7504         39.0004
 -23286526.91247 -18120305.57246  21073423.2734   21073416.5984
        46.2504         36.5004
 -18625856.37847 -14494051.04445  22151432.6724   22151422.7074
        47.2504         35.5004
 -23710358.12148 -18461873.38748  20849960.4844   20849955.5274
        48.2504         51.5004
 -20091056.96048 -15771849.19948  20950566.0314   20950561.5004
        48.2504         50.0004
  -5328552.87746  -4085521.44243  24118243.6884   24118237.4144
        39.2504         20.7504
 -10450105.30347  -7997451.03946  23004494.1954   23004486.5044
        43.5004         41.0004
 20  5  1  0 13  0.0000000  0 10G16G23G 6G 9G 4G22G 3G26G14G31
 -19983199.34547 -15869544.12446  21045574.5554   21045567.2774
        47.0004         37.2504
  -7449196.70147  -6112558.60144  23348940.8984   23348930.9454
        45.5004         29.5004
   -877262.42446   -687086.59044  25158760.6174   25158756.3834
        36.0004         29.2504
  -9629159.76146  -7481804.22846  23551618.8364   23551614.2234
        41.0004         39.5004
 -23339033.40947 -18161219.72746  21063431.7734   21063425.1994
        46.7504         36.5004
 -18545841.31547 -14431701.65745  22166658.5164   22166649.3524
        46.7504         35.5004
 -23668791.38448 -18429483.73748  20857870.2504   20857865.7154
        48.0004         51.5004
 -20075092.87147 -15759409.65848  20953603.5554   20953599.2544
        47.7504         50.0004
  -5248515.40246  -4023154.65443  24133474.6954   24133468.0274
        40.0004         21.2504
 -10358694.77947  -7926222.09246  23021889.5084   23021881.9574
        44.5004         41.0004
 20  5  1  0 13 30.0000000  0 10G16G23G 6G 9G 4G22G 3G26G14G31
 -20047968.15447 -15920013.33446  21033249.4384   21033242.1024
        47.0004         37.0004
  -7531528.42147  -6176713.19544  23333273.6884   23333263.3094
        45.0004         29.5004
   -880596.03646   -689684.24045  25158126.2344   25158122.0124
        37.5004         30.2504
  -9719059.65946  -7551856.08946  23534511.8754   23534506.3794
        40.7504         39.2504
 -23391300.20647 -18201947.10346  21053485.2504   21053478.4534
        47.5004         36.5004
 -18465478.75147 -14369081.48845  22181951.2584   22181941.6914
        46.7504         34.7504
 -23626667.14048 -18396659.66848  20865886.4224   20865881.6254
        48.7504         51.5004
 -20058522.02248 -15746497.31048  20956757.1414   20956752.5944
        48.0004         50.0004
  -5168330.36646  -3960672.80243  24148733.1094   24148726.3444
        40.5004         21.5004
 -10267206.35747  -7854932.45646  23039299.3364   23039291.8874
        44.0004         40.5004
 20  5  1  0 14  0.0000000  0 10G16G23G 6G 9G 4G22G 3G26G14G31
 -20112177.51247 -15970046.60446  21021030.4614   21021023.0824
        47.2504         37.0004
  -7613813.66147  -6240831.58145  23317614.4774   23317605.1094
        44.5004         30.0004
   -883404.40246   -691872.60545  25157592.2504   25157587.2974
        37.5004         30.0004
  -9808902.09246  -7621863.17446  23517414.6884   23517410.0274
        41.0004         39.5004
 -23443326.42547 -18242487.01646  21043585.6644   21043579.0514
        47.0004         36.7504
 -18384771.69047 -14306192.89045  22197308.9774   22197299.6254
        46.7504         34.7504
 -23583987.14248 -18363402.54548  20874007.4924   20874002.8554
        48.7504         51.5004
 -20041345.69648 -15733113.16448  20960025.8444   20960021.3484
        48.0004         50.0004
  -5087998.38146  -3898076.46443  24164019.6884   24164012.9924
        37.7504         20.5004
 -10175641.79447  -7783583.48346  23056723.8284   23056715.8094
        44.0004         40.2504
 20  5  1  0 14 30.0000000  0 10G16G23G 6G 9G 4G22G 3G26G14G31
 -20175824.47147 -16019641.63546  21008919.2274   21008911.3244
        47.5004         37.2504
  -7696051.17447  -6304912.76444  23301965.3364   23301956.2154
        45.5004         29.2504
   -885687.65446   -693651.79945  25157157.0864   25157152.9384
        36.7504         30.0004
  -9898685.52546  -7691824.28846  23500330.3284   23500324.5864
        41.7504         39.5004
 -23495110.29647 -18282838.09746  21033731.5634   21033724.7934
        46.5004         37.2504
 -18303721.43747 -14243036.85945  22212732.3834   22212723.1804
        46.5004         35.2504
 -23540752.24948 -18329713.03248  20882235.3834   20882230.4774
        49.0004         51.5004
 -20023564.25648 -15719257.50148  20963409.2734   20963404.7704
        48.2504         50.0004
  -5007519.03746  -3835365.37243  24179334.6724   24179328.1484
        37.2504         19.5004
 -10084002.17647  -7712176.01446  23074161.7734   23074154.0824
        43.7504         40.2504
 20  5  1  0 15  0.0000000  0 10G16G23G 6G 9G 4G22G 3G26G14G31
 -20238906.67047 -16068796.58846  20996914.9304   20996907.1804
        47.0004         37.0004
  -7778239.72147  -6368955.77545  23286326.0004   23286316.0904
        46.2504         30.0004
   -887446.18946   -695022.07545  25156823.2114   25156817.8714
        37.2504         30.2504
  -9988408.91846  -7761738.62746  23483255.4454   23483251.0274
        39.7504         39.0004
 -23546650.61847 -18322999.38146  21023923.2734   21023916.9844
        47.0004         36.7504
 -18222330.80847 -14179615.60945  22228220.9694   22228211.6644
        46.2504         34.7504
 -23496963.84648 -18295592.21348  20890567.5944   20890563.3554
        49.5004         51.5004
 -20005178.75848 -15704931.14348  20966908.1334   20966903.0864
        48.0004         50.0004
  -4926892.84446  -3772539.85143  24194676.9384   24194670.6524
        36.2504         19.5004
  -9992289.25647  -7640711.42446  23091613.9774   23091606.5234
        43.7504         41.0004
 20  5  1  0 15 30.0000000  0 10G16G23G 6G 9G 4G22G 3G26G14G31
 -20301422.60947 -16117510.32246  20985018.7894   20985011.0004
        46.7504         37.2504
  -7860379.07547  -6432960.45945  23270695.4614   23270684.8164
        45.2504         30.5004
   -888681.19046   -695984.44045  25156588.2194   25156582.7504
        37.0004         30.7504
 -10078071.70046  -7831605.74946  23466193.0784   23466188.2934
        40.2504         38.5004
 -23597946.72447 -18362970.37746  21014161.7734   21014155.3834
        47.0004         36.5004
 -18140602.78247 -14115931.45745  22243773.1024   22243764.0204
        46.5004         35.0004
 -23452624.00748 -18261041.70348  20899005.2814   20899000.9774
        48.5004         51.2504
 -19986190.65048 -15690135.21848  20970521.2424   20970516.8524
        48.2504         50.0004
  -4846121.02446  -3709600.84543  24210047.5314   24210042.4414
        38.5004         22.2504
  -9900505.05347  -7569191.30746  23109080.1564   23109072.8484
        43.5004         40.7504
 20  5  1  0 16  0.0000000  0 10G16G23G 6G 9G 4G22G 3G26G14G31
 -20363368.79747 -16165780.09646  20973230.7424   20973223.1994
        46.2504         37.2504
  -7942467.00747  -6496925.09344  23255074.2584   23255064.7854
        45.7504         29.5004
   -889392.16646   -696538.44745  25156453.2974   25156447.6214
        37.2504         30.0004
 -10167671.68046  -7901423.91546  23449143.3984   23449137.9384
        40.7504         39.0004
 -23648996.16847 -18402749.16646  21004447.6724   21004441.2074
        47.0004         37.0004
 -18058538.75147 -14051985.48245  22259389.2734   22259380.1604
        45.7504         35.5004
 -23407732.94848 -18226061.67048  20907548.2114   20907543.4574
        49.5004         51.0004
 -19966599.82448 -15674869.64148  20974249.4064   20974244.6804
        48.0004         50.0004
  -4765202.67946  -3646547.70043  24225446.5634   24225439.9224
        39.2504         20.5004
  -9808650.35347  -7497616.27346  23126559.6954   23126552.4454
        43.2504         41.0004
 20  5  1  0 16 30.0000000  0 10G16G23G 6G 9G 4G22G 3G26G14G31
 -20424743.62647 -16213604.64746  20961551.5234   20961543.9534
        46.7504         37.2504
  -8024503.09647  -6560849.32645  23239463.2584   23239453.8524
        46.0004         31.0004
   -889580.15246   -696684.97345  25156417.2504   25156412.4844
        36.7504         30.5004
 -10257208.40046  -7971192.76946  23432105.5474   23432100.0044
        41.5004         40.0004
 -23699798.35647 -18442335.28446  20994780.0314   20994773.9574
        46.5004         37.0004
 -17976141.34647 -13987779.73445  22275069.1174   22275059.9694
        45.7504         35.0004
 -23362292.86248 -18190653.83348  20916195.0084   20916190.3954
        49.5004         51.0004
 -19946408.01247 -15659135.76048  20978091.6804   20978087.3204
        47.7504         50.0004
  -4684139.02846  -3583381.23643  24240872.5704   24240865.9614
        41.0004         20.5004
  -9716727.26147  -7425987.92446  23144051.7894   23144044.4774
        43.0004         40.5004
 20  5  1  0 17  0.0000000  0 10G16G23G 6G 9G 4G22G 3G26G14G31
 -20485544.27047 -16260981.77946  20949981.4224   20949973.8134
        46.5004         37.0004
  -8106485.69447  -6624731.85445  23223862.2664   23223853.1294
        45.5004         30.5004
   -889245.39845   -696424.13545  25156481.6414   25156476.1684
        35.5004         31.0004
 -10346680.12846  -8040911.00646  23415079.5944   23415073.9454
        41.7504         39.7504
 -23750351.46647 -18481727.32046  20985160.3914   20985153.7854
        46.2504         37.2504
 -17893412.52747 -13923315.74245  22290811.9454   22290802.3914
        46.5004         34.7504
 -23316304.60048 -18154818.84148  20924946.1564   20924941.5044
        48.7504         51.0004
 -19925615.56948 -15642933.87048  20982048.1174   20982043.7034
        48.2504         50.0004
  -4602929.70946  -3520101.32543  24256325.4924   24256319.2704
        39.0004         19.7504
  -9624736.62247  -7354306.95346  23161557.0944   23161549.9184
        43.2504         40.0004
 20  5  1  0 17 30.0000000  0 10G16G23G 6G 9G 4G22G 3G26G14G31
 -20545768.95947 -16307910.11046  20938521.1484   20938513.5634
        47.5004         37.7504
  -8188413.93847  -6688572.04145  23208271.7974   23208262.5004
        45.7504         30.0004
   -888388.41946   -695756.38345  25156644.4064   25156639.7074
        36.2504         31.7504
 -10436085.90546  -8110577.82546  23398066.0784   23398060.8444
        41.5004         40.0004
 -23800654.24547 -18520924.28946  20975588.4534   20975582.1724
        46.7504         37.2504
 -17810354.95647 -13858595.58045  22306616.9384   22306607.8094
        46.5004         35.0004
 -23269769.83648 -18118558.00048  20933801.4614   20933796.8594
        49.0004         51.2504
 -19904223.71847 -15626264.89048  20986119.2344   20986114.8244
        47.2504         50.0004
  -4521575.55546  -3456708.49443  24271807.1644   24271800.8914
        39.2504         18.5004
  -9532680.09447  -7282574.62446  23179074.9144   23179067.4414
        43.7504         40.0004
 20  5  1  0 18  0.0000000  0 10G16G23G 6G 9G 4G22G 3G26G14G31
 -20605415.19947 -16354387.70746  20927170.7344   20927163.1564
        47.0004         37.5004
  -8270286.75047  -6752369.04744  23192692.3364   23192682.5594
        45.5004         29.5004
   -887009.98346   -694682.29845  25156906.0634   25156902.0864
        38.0004         32.0004
 -10525424.52446  -8180192.36046  23381064.7974   23381060.3284
        40.5004         40.0004
 -23850705.54147 -18559925.29846  20966063.9454   20966057.3634
        46.5004         37.5004
 -17726971.08547 -13793621.16045  22322484.6884   22322474.8164
        46.5004         34.5004
 -23222690.01348 -18081872.44248  20942760.5314   20942755.7464
        48.7504         51.0004
 -19882233.53947 -15609129.69148  20990303.8444   20990298.9734
        47.7504         50.0004
  -4440076.83346  -3393202.96742  24287315.3984   24287309.9494
        36.0004         17.7504
  -9440559.18947  -7210792.13546  23196605.3284   23196597.6844
        43.7504         39.5004
 20  5  1  0 18 30.0000000  0 10G16G23G 6G 9G 4G22G 3G26G14G31
 -20664480.61247 -16400412.70546  20915931.0394   20915923.2664
        47.0004         37.5004
  -8352102.63747  -6816121.69844  23177122.4304   23177113.4264
        44.5004         29.7504
   -885110.48346   -693202.19945  25157268.3594   25157262.8164
        36.5004         31.5004
 -10614694.53446  -8249753.38646  23364078.5554   23364072.6484
        41.5004         39.7504
 -23900503.66647 -18598729.03346  20956587.7504   20956581.3714
        46.2504         37.2504
 -17643262.96547 -13728394.06345  22338413.7194   22338404.4104
        45.7504         33.7504
 -23175066.35548 -18044763.11948  20951823.2034   20951818.3874
        49.7504         51.0004
 -19859645.74747 -15591528.82348  20994601.8284   20994597.1484
        47.7504         50.0004
  -4358433.54546  -3329584.93243  24302853.1094   24302845.8714
        38.2504         18.5004
  -9348375.09747  -7138960.43146  23214147.6644   23214139.4804
        43.5004         40.0004
 20  5  1  0 19  0.0000000  0 10G16G23G 6G 9G 4G22G 3G26G14G31
 -20722963.67947 -16445983.93446  20904801.9304   20904794.3204
        46.7504         37.5004
  -8433860.94547  -6879829.46445  23161565.4534   23161555.4144
        46.5004         30.7504
   -882691.01946   -691316.91245  25157728.5704   25157723.6254
        37.2504         32.0004
 -10703895.28146  -8319260.46446  23347103.8054   23347098.1214
        41.5004         39.5004
 -23950047.86847 -18637334.90946  20947159.7584   20947153.0784
        47.2504         37.0004
 -17559233.60947 -13662916.66645  22354403.9614   22354394.3484
        45.7504         34.2504
 -23126900.93448 -18007231.64048  20960988.6254   20960983.8984
        49.0004         51.0004
 -19836462.04847 -15573463.60548  20999013.7584   20999009.0664
        47.5004         49.7504
  -4276646.69446  -3265854.93043  24318414.6564   24318409.4804
        36.0004         19.0004
  -9256129.81047  -7067081.02446  23231701.1334   23231693.7274
        43.0004         39.7504
 20  5  1  0 19 30.0000000  0 10G16G23G 6G 9G 4G22G 3G26G14G31
 -20780861.19647 -16491098.88746  20893784.7734   20893776.8634
        47.0004         38.0004
  -8515560.02047  -6943491.08245  23146018.4534   23146008.5864
        45.2504         30.5004
   -879751.46346   -689026.36145  25158287.7114   25158282.9884
        37.0004         31.2504
 -10793024.77446  -8388712.03546  23330142.5864   23330137.1094
        41.2504         39.5004
 -23999335.97447 -18675741.23346  20937780.3284   20937773.9224
        46.0004         37.0004
 -17474884.53247 -13597190.12645  22370454.8984   22370445.2664
        45.7504         33.5004
 -23078194.54748 -17969278.62948  20970256.9144   20970252.4734
        48.7504         51.0004
 -19812682.72047 -15554934.26248  21003539.2504   21003534.5784
        47.7504         50.0004
  -4194715.74145  -3202012.71943  24334005.5784   24334000.2934
        35.0004         20.0004
  -9163824.21447  -6995154.62846  23249265.9064   23249258.5554
        43.5004         40.0004
 20  5  1  0 20  0.0000000  0 10G16G23G 6G 9G 4G22G 3G26G14G31
 -20838171.74547 -16535756.46646  20882878.7194   20882870.9734
        46.5004         37.5004
  -8597199.15347  -7007105.99445  23130482.6644   23130473.5044
        45.5004         30.7504
   -876293.07346   -686331.52445  25158945.6334   25158941.2624
        37.0004         30.5004
 -10882082.39446  -8458107.58046  23313195.4224   23313190.2194
        41.5004         40.0004
 -24048367.21447 -18713947.40446  20928450.1724   20928443.4454
        46.0004         37.0004
 -17390218.82947 -13531216.86645  22386566.9454   22386557.0394
        45.7504         33.5004
 -23028949.26648 -17930905.70248  20979628.2974   20979623.3404
        49.0004         51.0004
 -19788309.48747 -15535942.13648  21008176.7504   21008172.2544
        47.5004         50.0004
  -4112641.90546  -3138059.22843  24349626.0004   24349619.4924
        38.0004         21.2504
  -9071460.25547  -6923182.75146  23266842.8834   23266835.5474
        42.5004         40.5004
 20  5  1  0 20 30.0000000  0 10G16G23G 6G 9G 4G22G 3G26G14G31
 -20894893.03147 -16579954.87846  20872085.1094   20872077.1644
        47.0004         37.5004
  -8678776.86847  -7070673.04345  23114959.3134   23114949.7464
        46.5004         31.0004
   -872316.30646   -683232.79345  25159702.1174   25159698.4344
        36.5004         31.7504
 -10971066.57246  -8527445.91146  23296262.0554   23296256.9734
        41.2504         40.0004
 -24097139.97347 -18751952.15146  20919168.9224   20919162.1994
        46.0004         37.5004
 -17305238.40747 -13464998.37745  22402737.8444   22402728.0944
        45.5004         34.0004
 -22979166.36348 -17892113.84548  20989101.7424   20989097.1564
        48.2504         51.0004
 -19763343.16747 -15516487.86248  21012928.0314   21012923.8594
        47.5004         50.0004
  -4030425.23246  -3073994.33643  24365271.3674   24365264.1054
        37.5004         18.2504
  -8979038.86647  -6851166.12146  23284429.7194   23284421.9964
        43.2504         40.0004
 20  5  1  0 21  0.0000000  0 10G16G23G 6G 9G 4G22G 3G26G14G31
 -20951022.93847 -16623692.46846  20861403.8674   20861395.9574
        47.0004         37.5004
  -8760292.06147  -7134191.36545  23099447.2034   23099437.8134
        46.0004         30.0004
   -867821.84146   -679730.61045  25160557.2894   25160553.1054
        37.5004         31.7504
 -11059975.99346  -8596725.96846  23279342.7274   23279338.8094
        41.0004         39.7504
 -24145652.84647 -18789754.39246  20909937.1254   20909930.7304
        46.0004         37.0004
 -17219945.72847 -13398536.56945  22418968.9614   22418959.1484
        46.0004         33.5004
 -22928847.38348 -17852904.27248  20998677.0314   20998672.2814
        48.2504         51.0004
 -19737784.85048 -15496572.29348  21017791.5864   21017787.0784
        48.0004         50.0004
  -3948065.88146  -3009818.20843  24380943.1094   24380935.8484
        38.0004         18.2504
  -8886561.85847  -6779106.15746  23302027.5554   23302020.1374
        42.7504         39.7504
 20  5  1  0 21 30.0000000  0 10G16G23G 6G 9G 4G22G 3G26G14G31
 -21006559.15047 -16666967.44346  20850835.5784   20850827.6134
        46.5004         37.2504
  -8841743.38347  -7197659.93245  23083947.0944   23083938.2584
        45.0004         31.5004
   -862810.14646   -675825.41145  25161510.1884   25161506.5864
        36.5004         30.5004
 -11148809.29446  -8665946.72046  23262438.4144   23262433.7814
        40.0004         40.2504
 -24193904.26347 -18827352.90346  20900755.1254   20900748.7974
        47.0004         36.7504
 -17134343.17047 -13331833.29245  22435258.3284   22435248.8834
        45.2504         34.5004
 -22877993.78848 -17813278.11248  21008354.1884   21008349.4264
        48.0004         51.0004
 -19711635.60047 -15476196.26148  21022767.4844   21022763.1884
        47.5004         50.0004
  -3865564.35546  -2945531.32942  24396642.1804   24396635.1334
        36.0004         17.7504
  -8794029.93247  -6707003.40846  23319636.3134   23319628.5044
        42.7504         40.0004
 20  5  1  0 22  0.0000000  0 10G16G23G 6G 9G 4G22G 3G26G14G31
 -21061499.58847 -16709778.18846  20840380.4144   20840373.0274
        47.0004         37.0004
  -8923129.28847  -7261077.50445  23068460.2814   23068451.0354
        45.5004         31.7504
   -857281.98145   -671517.76044  25162562.9844   25162558.5044
        34.5004         29.5004
 -11237565.03346  -8735107.02746  23245549.1484   23245544.0944
        41.0004         39.7504
 -24241892.72747 -18864746.50746  20891623.2194   20891617.0274
        46.2504         37.0004
 -17048432.80847 -13264890.17945  22451605.9924   22451597.0164
        45.5004         34.2504
 -22826606.97148 -17773236.45648  21018133.0004   21018128.2704
        48.0004         50.7504
 -19684896.42847 -15455360.54348  21027856.0314   21027851.7074
        47.5004         50.0004
  -3782920.63345  -2881133.79542  24412368.2584   24412363.5274
        35.0004         16.7504
  -8701444.63547  -6634859.05946  23337254.1804   23337246.8914
        42.5004         39.0004
 20  5  1  0 22 30.0000000  0 10G16G23G 6G 9G 4G22G 3G26G14G31
 -21115842.63647 -16752123.41846  20830039.6644   20830031.9454
        47.0004         37.7504
  -9004449.55447  -7324443.93345  23052985.2344   23052976.1374
        45.2504         31.2504
   -851238.78246   -666808.80445  25163712.7034   25163708.5204
        36.2504         30.5004
 -11326242.68347  -8804206.48446  23228674.5784   23228669.6914
        42.0004         40.5004
 -24289617.58647 -18901934.71946  20882541.7424   20882535.2274
        47.0004         37.2504
 -16962217.95547 -13197709.79145  22468012.6024   22468003.0904
        45.2504         33.2504
 -22774689.40148 -17732781.22448  21028012.6174   21028007.8754
        48.2504         50.5004
 -19657569.35047 -15434066.72448  21033055.7034   21033051.4574
        47.5004         49.7504
  -3700135.96146  -2816626.29043  24428122.8284   24428116.2774
        39.0004         19.5004
  -8608808.05147  -6562674.75446  23354883.1334   23354875.1844
        42.5004         39.0004
 20  5  1  0 23  0.0000000  0 10G16G23G 6G 9G 4G22G 3G26G14G31
 -21169586.24447 -16794001.56646  20819812.7424   20819805.0084
        47.5004         38.0004
  -9085702.60347  -7387757.99945  23037523.4144   23037513.9104
        46.0004         31.0004
   -844681.06546   -661698.94645  25164960.8754   25164957.3874
        37.5004         31.5004
 -11414840.61047  -8873243.83246  23211815.5864   23211809.4344
        42.2504         40.5004
 -24337077.13947 -18938916.18846  20873510.2734   20873504.1024
        47.0004         37.5004
 -16875700.58047 -13130293.68745  22484476.0084   22484467.1414
        45.0004         34.5004
 -22722242.41548 -17691913.46248  21037992.6884   21037988.1644
        48.0004         50.7504
 -19629655.23147 -15412315.47048  21038367.8134   21038363.3164
        47.2504         50.0004
  -3617210.70846  -2752009.12542  24443902.8754   24443895.8324
        39.5004         17.7504
  -8516121.12947  -6490451.19946  23372519.5864   23372512.6134
        42.0004         39.0004
 20  5  1  0 23 30.0000000  0 10G16G23G 6G 9G 4G22G 3G26G14G31
 -21222727.80147 -16835410.57746  20809700.6094   20809692.6024
        47.7504         37.7504
  -9166886.67647  -7451018.32445  23022074.3524   23022065.4384
        46.5004         31.2504
   -837609.12146   -656188.34245  25166306.6644   25166302.7544
        37.2504         31.0004
 -11503357.00146  -8942217.66146  23194970.6564   23194965.4844
        41.5004         40.0004
 -24384269.51547 -18975689.47046  20864530.0784   20864523.3594
        47.2504         37.5004
 -16788882.70447 -13062643.40845  22500996.8754   22500987.3674
        45.0004         33.2504
 -22669267.09948 -17650634.01048  21048073.5784   21048069.0314
        48.0004         50.5004
 -19601154.81047 -15390107.35448  21043791.0234   21043786.7814
        46.7504         49.5004
  -3534144.24346  -2687282.13243  24459709.5864   24459704.0124
        38.2504         19.7504
  -8423384.72347  -6418189.10646  23390167.0234   23390159.5944
        43.0004         38.7504
 20  5  1  0 24  0.0000000  0 10G16G23G 6G 9G 4G22G 3G26G14G31
 -21275265.61348 -16876349.14446  20799702.7664   20799694.8914
        48.0004         37.5004
  -9248000.69647  -7514224.06845  23006639.1954   23006629.5434
        45.7504         30.7504
   -830024.02646   -650277.95445  25167750.3834   25167745.5944
        37.7504         30.2504
 -11591790.89046  -9011127.17546  23178142.0864   23178138.0984
        41.2504         41.0004
 -24431193.54247 -19012253.64446  20855600.6334   20855594.2664
        47.0004         37.7504
 -16701767.19847 -12994761.21645  22517574.8594   22517565.3134
        45.0004         33.5004
 -22615765.43748 -17608944.42348  21058254.7814   21058249.9924
        48.0004         50.5004
 -19572069.70747 -15367443.64548  21049326.1174   21049321.5784
        47.0004         50.0004
  -3450937.22746  -2622445.66043  24475544.7194   24475537.7384
        39.5004         21.5004
  -8330600.46047  -6345889.72546  23407824.1414   23407815.9184
        43.0004         38.7504
 20  5  1  0 24 30.0000000  0 10G16G23G 6G 9G 4G22G 3G26G14G31
 -21327198.42848 -16916816.27946  20789820.1954   20789812.5204
        48.0004         38.2504
  -9329043.93647  -7577374.64345  22991217.2664   22991207.6914
        45.7504         31.0004
   -821927.14646   -643968.73245  25169292.5394   25169287.0004
        38.0004         32.0004
 -11680141.30047  -9079971.63746  23161330.2114   23161324.8794
        42.0004         40.5004
 -24477848.28547 -19048607.98946  20846722.8054   20846715.6954
        47.0004         37.0004
 -16614356.68447 -12926649.14845  22534208.1484   22534199.2624
        45.2504         33.5004
 -22561739.59647 -17566846.38848  21068535.2194   21068530.8794
        47.7504         50.5004
 -19542401.61547 -15344325.65648  21054971.8364   21054967.3444
        46.7504         50.0004
  -3367591.09846  -2557500.60943  24491403.8914   24491397.6214
        38.7504         19.5004
  -8237770.22947  -6273554.51946  23425489.2114   23425481.0314
        43.0004         39.2504
 20  5  1  0 25  0.0000000  0 10G16G23G 6G 9G 4G22G 3G26G14G31
 -21378523.64048 -16956809.95546  20780053.2424   20780045.2624
        48.0004         38.0004
  -9410014.58147  -7640468.64645  22975809.8754   22975799.7704
        46.2504         31.0004
   -813318.80346   -637260.95345  25170928.8204   25170924.7624
        37.0004         31.7504
 -11768406.40746  -9148749.65346  23144533.3284   23144529.2304
        41.0004         41.0004
 -24524231.82647 -19084751.01546  20837895.8444   20837889.3364
        47.7504         37.5004
 -16526653.34047 -12858308.90245  22550898.0234   22550888.3444
        45.2504         32.2504
 -22507190.76847 -17524340.82848  21078915.6804   21078911.3404
        47.0004         50.5004
 -19512151.35047 -15320754.02948  21060727.7504   21060723.8754
        47.0004         50.0004
  -3284105.50645  -2492446.91142  24507289.2034   24507284.9104
        32.0004         15.5004
  -8144894.95747  -6201184.21446  23443161.8444   23443155.1644
        42.2504         38.7504
 20  5  1  0 25 30.0000000  0 10G16G23G 6G 9G 4G22G 3G26G14G31
 -21429238.82347 -16996328.28846  20770402.3134   20770394.8094
        47.7504         38.0004
  -9490911.00947  -7703504.83045  22960415.0634   22960405.7664
        45.7504         31.2504
   -804199.45446   -630154.99144  25172665.0164   25172660.2274
        37.2504         29.7504
 -11856584.42447  -9217459.79446  23127753.3364   23127749.1764
        42.0004         40.7504
 -24570342.17447 -19120681.16046  20829121.7814   20829115.0824
        46.7504         37.7504
 -16438658.72547 -12789741.68445  22567642.5634   22567633.3014
        44.7504         32.5004
 -22452120.15747 -17481428.68248  21089395.4694   21089390.7734
        47.2504         50.5004
 -19481319.66047 -15296729.34448  21066595.0234   21066590.6604
        47.0004         49.7504
  -3200480.21045  -2427284.45342  24523203.1804   24523199.0084
        34.5004         16.7504
  -8051975.13447  -6128779.20246  23460844.0474   23460837.3364
        42.0004         38.7504
 20  5  1  0 26  0.0000000  0 10G16G23G 6G 9G 4G22G 3G26G14G31
 -21479343.49947 -17035370.89246  20760867.7274   20760860.2034
        47.7504         38.7504
  -9571733.71447  -7766483.55545  22945034.8984   22945025.5824
        46.0004         31.0004
   -794571.58446   -622652.75445  25174497.2584   25174492.1564
        38.0004         31.2504
 -11944675.60347  -9286102.25846  23110991.9844   23110985.4654
        43.0004         41.0004
 -24616179.66547 -19156398.69346  20820398.8674   20820392.5124
        47.5004         37.7504
 -16350377.31647 -12720950.99645  22584441.9924   22584432.2934
        45.0004         32.5004
 -22396531.21947 -17438112.64348  21099973.5084   21099969.1214
        47.0004         50.2504
 -19449909.66047 -15272254.02748  21072572.3834   21072567.7774
        47.0004         49.5004
  -3116717.23646  -2362014.67343  24539144.0784   24539137.2584
        38.5004         20.2504
  -7959013.69147  -6056341.75246  23478534.1884   23478527.2504
        42.0004         37.7504
 20  5  1  0 26 30.0000000  0 10G16G23G 6G 9G 4G22G 3G26G14G31
 -21528834.88647 -17073935.61146  20751449.9844   20751442.5904
        46.5004         38.7504
  -9652479.89547  -7829402.66245  22929669.6724   22929660.2934
        45.7504         31.5004
   -784434.85746   -614754.07045  25176426.1954   25176421.5044
        37.2504         32.0004
 -12032677.32547  -9354675.05346  23094244.9694   23094238.9184
        42.5004         40.7504
 -24661741.61447 -19191901.50246  20811728.8284   20811722.1844
        46.5004         37.5004
 -16261810.10947 -12651937.59945  22601295.4844   22601286.5984
        44.5004         34.0004
 -22340424.47347 -17394393.12348  21110650.1564   21110645.9144
        47.2504         50.5004
 -19417921.46847 -15247328.17448  21078659.3134   21078654.9924
        46.7504         49.5004
  -3032815.63846  -2296636.97442  24555109.3284   24555104.2034
        36.0004         16.7504
  -7866010.83247  -5983872.04346  23496232.5474   23496224.6254
        43.0004         38.7504
 20  5  1  0 27  0.0000000  0 11G16G23G 6G 9G 4G22G 7G 3G26G14G31
 -21577711.00047 -17112020.89646  20742149.0234   20742141.6254
        47.2504         37.5004
  -9733148.16047  -7892261.04145  22914318.7974   22914309.3444
        46.5004         31.5004
   -773790.14345   -606459.51745  25178450.9224   25178447.2034
        35.5004         31.0004
 -12120588.19346  -9423177.05046  23077515.1804   23077510.2544
        41.0004         41.0004
 -24707026.43847 -19227188.38446  20803111.0394   20803104.7974
        47.0004         38.0004
 -16172959.41547 -12582703.32245  22618203.4694   22618193.8404
        44.5004         33.2504
    142289.09055    151250.26453  25470176.8754   25470168.4264
        31.0004         18.5004
 -22283801.50047 -17350271.34748  21121424.9694   21121420.6804
        47.0004         50.2504
 -19385356.24847 -15221952.68248  21084856.2504   21084852.5474
        46.5004         49.5004
  -2948776.07245  -2231151.61742  24571101.4844   24571097.0124
        35.2504         13.7504
  -7772967.69947  -5911370.93846  23513937.5474   23513930.8834
        42.5004         38.7504
 20  5  1  0 27 30.0000000  0 11G16G23G 6G 9G 4G22G 7G 3G26G14G31
 -21625972.82647 -17149627.52246  20732965.1414   20732957.4534
        47.7504         38.5004
  -9813739.72347  -7955059.66245  22898982.6414   22898973.1524
        45.5004         31.0004
   -762641.11346   -597771.97845  25180573.1564   25180568.0354
        37.2504         31.0004
 -12208409.34446  -9491609.11746  23060803.5704   23060798.5124
        41.0004         40.5004
 -24752035.42747 -19262260.32846  20794546.5474   20794539.6954
        47.5004         37.5004
 -16083830.44947 -12513252.19645  22635164.4534   22635155.1294
        45.0004         33.0004
     58339.40745     85834.88343  25454200.7274   25454192.9344
        33.2504         21.7504
 -22226666.91647 -17305750.90948  21132297.6724   21132293.2384
        47.2504         50.5004
 -19352218.21847 -15196130.85648  21091162.5314   21091157.8014
        47.5004         49.5004
  -2864601.36346  -2165560.89643  24587120.8054   24587114.3284
        38.5004         18.2504
  -7679887.90547  -5838841.27446  23531650.7274   23531643.2664
        43.2504         38.5004
 20  5  1  0 28  0.0000000  0 11G16G23G 6G 9G 4G22G 7G 3G26G14G31
 -21673614.04747 -17186750.55246  20723899.2974   20723891.7854
        47.2504         37.2504
  -9894249.34347  -8017794.43745  22883662.9384   22883652.5124
        46.2504         31.2504
   -750984.50345   -588688.95245  25182791.1024   25182786.6644
        35.7504         31.0004
 -12296135.20047  -9559966.90446  23044110.1804   23044105.5474
        42.0004         41.5004
 -24796762.86447 -19297112.88346  20786035.1414   20786028.3094
        47.5004         37.2504
 -15994421.29747 -12443582.75245  22652178.4774   22652168.9104
        44.5004         31.7504
    -25527.94245     20483.68844  25438241.6954   25438233.5004
        34.7504         24.7504
 -22169018.19247 -17260829.85648  21143268.2424   21143263.4414
        47.5004         50.5004
 -19318504.48548 -15169860.42348  21097578.0084   21097573.5554
        48.0004         49.5004
  -2780287.67646  -2099861.99443  24603163.6954   24603158.2974
        36.0004         20.0004
  -7586768.81647  -5766280.97646  23549370.0864   23549362.3874
        42.7504         37.7504
 20  5  1  0 28 30.0000000  0 11G16G23G 6G 9G 4G22G 7G 3G26G14G31
 -21720635.01647 -17223390.27846  20714951.7814   20714943.7814
        47.5004         38.0004
  -9974677.68047  -8080465.87045  22868357.2814   22868347.5984
        46.0004         31.5004
   -738823.19646   -579212.62345  25185105.3984   25185101.3164
        37.0004         31.5004
 -12383766.33647  -9628250.91646  23027434.5634   23027429.6884
        42.7504         41.7504
 -24841209.21347 -19331746.41146  20777576.9454   20777570.5474
        46.0004         37.2504
 -15904736.60947 -12373698.59845  22669245.0944   22669234.9844
        44.5004         33.5004
   -109314.78646    -44804.80544  25422296.7194   25422289.5204
        36.5004         27.0004
 -22110859.09547 -17215511.10048  21154335.4384   21154330.4414
        47.2504         50.2504
 -19284218.40747 -15143144.01448  21104102.3444   21104097.7664
        47.5004         49.5004
  -2695837.36645  -2034056.68242  24619235.1804   24619229.4414
        34.5004         17.2504
  -7493613.67147  -5693692.60446  23567097.9064   23567090.0784
        43.2504         38.5004
 20  5  1  0 29  0.0000000  0 11G16G23G 6G 9G 4G22G 7G 3G26G14G31
 -21767033.67948 -17259545.07946  20706122.5394   20706114.3284
        48.7504         38.0004
 -10055022.65447  -8143072.35145  22853068.3054   22853059.0944
        45.5004         31.5004
   -726158.07446   -569343.74045  25187516.3754   25187511.3054
        38.0004         30.5004
 -12471300.95547  -9696459.70947  23010778.0554   23010772.6094
        43.0004         42.0004
 -24885372.85047 -19366159.64046  20769172.8594   20769166.4534
        47.5004         37.5004
 -15814778.74047 -12303601.57445  22686363.0704   22686353.7544
        44.5004         33.0004
   -193020.50446   -110030.07344  25406368.1724   25406360.8674
        38.2504         29.5004
 -22052191.29747 -17169795.95148  21165499.1414   21165495.1214
        47.0004         50.2504
 -19249361.30047 -15115982.63748  21110735.4924   21110730.5554
        47.0004         49.5004
  -2611251.01645  -1968145.36842  24635330.0784   24635326.6214
        32.7504         14.7504
  -7400423.38147  -5621076.83646  23584831.1724   23584823.6804
        42.0004         37.7504
 20  5  1  0 29 30.0000000  0 11G16G23G 6G 9G 4G22G 7G 3G26G14G31
 -21812809.08948 -17295214.23346  20697411.5234   20697403.9804
        48.0004         38.0004
 -10135283.89947  -8205613.57245  22837794.6414   22837785.5204
        45.5004         32.0004
   -712990.89946   -559083.60845  25190021.1094   25190016.4384
        36.7504         31.2504
 -12558738.55747  -9764592.89646  22994138.6644   22994133.5314
        42.2504         41.7504
 -24929253.04747 -19400352.00446  20760823.0704   20760816.6954
        47.0004         37.7504
 -15724550.69247 -12233294.02145  22703533.1414   22703523.5824
        44.5004         33.5004
   -276645.51146   -175192.45544  25390455.1334   25390447.6954
        38.0004         29.5004
 -21993017.40747 -17123686.44448  21176759.6724   21176755.0394
        47.2504         50.0004
 -19213935.32647 -15088377.99648  21117476.6724   21117472.5904
        47.7504         49.5004
  -2526529.52046  -1902128.59542  24651453.7584   24651448.5944
        36.2504         15.5004
  -7307200.07346  -5548435.35446  23602570.5474   23602563.2624
        41.5004         37.7504
 20  5  1  0 30  0.0000000  0 11G16G23G 6G 9G 4G22G 7G 3G26G14G31
 -21857959.65447 -17330396.49646  20688819.6254   20688811.8794
        47.7504         38.0004
 -10215460.23747  -8268088.64145  22822537.4694   22822528.2624
        45.5004         31.5004
   -699322.93846   -548433.23345  25192621.5314   25192617.9614
        37.0004         31.0004
 -12646077.64747  -9832649.32446  22977518.7344   22977513.0434
        42.0004         41.2504
 -24972848.44347 -19434322.46046  20752527.0554   20752520.5904
        46.5004         37.7504
 -15634054.75447 -12162777.72845  22720753.3984   22720744.4774
        45.0004         32.2504
   -360188.83546   -240291.16845  25374556.7504   25374549.9654
        38.0004         31.5004
 -21933339.37547 -17077184.10448  21188116.4384   21188111.6644
        47.5004         50.0004
 -19177942.11047 -15060331.34648  21124326.0634   21124321.8404
        47.5004         49.5004
  -2441672.91045  -1836006.60342  24667600.6334   24667595.7034
        35.7504         16.7504
  -7213944.66446  -5475768.85346  23620316.6094   23620309.5314
        41.5004         37.7504
 20  5  1  0 30 30.0000000  0 11G16G23G 6G 9G 4G22G 7G 3G26G14G31
 -21902483.00447 -17365090.01546  20680346.9064   20680339.2854
        46.7504         38.7504
 -10295549.56847  -8330495.91645  22807297.2424   22807288.0664
        46.0004         32.2504
   -685154.21646   -537392.71745  25195318.1174   25195313.8204
        36.5004         31.0004
 -12733316.01547  -9900627.28746  22960916.8524   22960912.0904
        42.0004         41.0004
 -25016156.76147 -19468069.21346  20744285.3914   20744279.1174
        45.5004         38.2504
 -15543292.89747 -12092054.22845  22738025.2114   22738015.9574
        44.5004         32.2504
   -443649.97346   -305325.85144  25358675.2034   25358667.9104
        37.2504         29.2504
 -21873158.26547 -17030289.75148  21199568.3054   21199563.7504
        46.5004         50.0004
 -19141382.31547 -15031843.19948  21131283.1254   21131278.8164
        47.0004         49.5004
  -2356681.40645  -1769779.60342  24683773.4064   24683768.7774
        32.7504         16.2504
  -7120657.23947  -5403077.39146  23638068.9774   23638061.2894
        42.0004         38.0004
 20  5  1  0 31  0.0000000  0 11G16G23G 6G 9G 4G22G 7G 3G26G14G31
 -21946377.40348 -17399293.43946  20671994.4774   20671986.7704
        48.2504         38.5004
 -10375550.26847  -8392834.10945  22792073.8594   22792063.9924
        46.2504         31.5004
   -670486.18645   -525963.08345  25198109.2894   25198104.9964
        35.5004         31.0004
 -12820452.33847  -9968525.72346  22944335.7034   22944330.5634
        42.2504         40.7504
 -25059176.62047 -19501591.18946  20736099.6094   20736092.9384
        46.7504         38.0004
 -15452267.86747 -12021125.66545  22755346.9534   22755337.2584
        44.5004         33.0004
   -527028.70746   -370296.30844  25342808.9384   25342801.0514
        37.0004         29.2504
 -21812476.08347 -16983004.95248  21211115.9144   21211111.0744
        47.2504         49.7504
 -19104257.59248 -15002914.84848  21138347.5864   21138343.5044
        48.0004         49.5004
  -2271555.60345  -1703447.95042  24699972.2114   24699967.8834
        35.0004         15.5004
  -7027339.92347  -5330362.65146  23655826.2504   23655819.3484
        42.2504         38.5004
 20  5  1  0 31 30.0000000  0 11G16G23G 6G 9G 4G22G 7G 3G26G14G31
 -21989641.91748 -17433006.05346  20663761.1954   20663753.1294
        48.7504         38.5004
 -10455461.56647  -8455102.66745  22776867.1334   22776857.5314
        46.2504         32.2504
   -655320.41446   -514145.62245  25200994.8284   25200991.0084
        37.0004         30.2504
 -12907485.58347 -10036343.85646  22927773.2424   22927768.6174
        42.0004         41.2504
 -25101907.08947 -19534887.66546  20727968.3914   20727961.7544
        47.0004         38.2504
 -15360982.51347 -11949994.24545  22772717.8674   22772708.0744
        45.0004         32.0004
   -610325.21546   -435202.70044  25326957.7664   25326950.8054
        36.2504         28.0004
 -21751295.29047 -16935331.63248  21222757.9774   21222753.9884
        46.5004         50.0004
 -19066569.99347 -14973547.90548  21145519.6024   21145515.0084
        47.5004         49.5004
  -2186296.24246  -1637012.13542  24716197.1334   24716192.3674
        37.5004         16.2504
  -6933994.01646  -5257625.62846  23673588.6414   23673582.0084
        41.5004         37.0004
 20  5  1  0 32  0.0000000  0 11G16G23G 6G 9G 4G22G 7G 3G26G14G31
 -22032275.31648 -17466226.87646  20655648.5084   20655641.2074
        48.0004         38.5004
 -10535282.96447  -8517301.16745  22761676.8834   22761668.1294
        45.7504         32.5004
   -639658.29946   -501941.39145  25203976.6564   25203971.8134
        37.0004         31.5004
 -12994414.66247 -10104080.79747  22911231.6024   22911226.7734
        42.0004         42.5004
 -25144346.98447 -19567957.72046  20719892.1564   20719885.4574
        47.0004         38.2504
 -15269439.64447 -11878662.15645  22790137.6414   22790128.5274
        44.2504         32.2504
   -693538.36246   -500044.15544  25311122.9454   25311115.8364
        37.5004         28.5004
 -21689618.15147 -16887271.54548  21234495.0864   21234490.1994
        47.0004         49.7504
 -19028321.43947 -14943743.84448  21152798.3364   21152793.8914
        47.5004         49.2504
  -2100904.11746  -1570472.72242  24732447.1954   24732441.6454
        38.5004         16.2504
  -6840620.94447  -5184867.43346  23691358.2734   23691350.6134
        42.5004         37.5004
 20  5  1  0 32 30.0000000  0 11G16G23G 6G 9G 4G22G 7G 3G26G14G31
 -22074275.15248 -17498954.01946  20647656.2584   20647648.2974
        48.2504         39.0004
 -10615011.61647  -8579427.38545  22746505.8674   22746496.4614
        45.5004         32.7504
   -623500.28146   -489350.74645  25207051.6804   25207046.0514
        37.5004         30.7504
 -13081237.33946 -10171734.82846  22894709.4534   22894704.7734
        41.7504         41.7504
 -25186494.11047 -19600799.65346  20711872.0394   20711865.4144
        47.0004         38.5004
 -15177641.06947 -11807130.81745  22807606.6804   22807597.1994
        44.2504         32.2504
   -776668.30546   -564820.79044  25295303.9924   25295296.9104
        38.0004         28.5004
 -21627445.89147 -16838825.65748  21246325.8444   21246321.3524
        47.5004         49.7504
 -18989512.75148 -14913503.32148  21160183.0704   21160178.2934
        48.0004         49.2504
  -2015378.97345  -1503829.71942  24748722.1644   24748716.4494
        34.7504         16.7504
  -6747221.18846  -5112088.46546  23709131.9924   23709124.0234
        41.5004         37.2504
 20  5  1  0 33  0.0000000  0 10G16G23G 6G 9G 4G22G 7G 3G26G31
 -22115637.98148 -17531184.79446  20639785.1644   20639777.4574
        48.2504         38.5004
 -10694644.43147  -8641478.91945  22731352.6094   22731342.6914
        46.0004         32.2504
   -606845.75745   -476373.22445  25210220.1724   25210215.3954
        35.5004         30.2504
 -13167950.18247 -10239303.26147  22878208.9144   22878204.3134
        42.5004         42.2504
 -25228345.14447 -19633410.84846  20703907.5164   20703901.2774
        47.0004         38.0004
 -15085587.19547 -11735400.55645  22825124.7814   22825114.3834
        45.0004         31.5004
   -859711.88046   -629530.11544  25279501.7664   25279493.6454
        37.2504         29.5004
 -21564778.56647 -16789993.99048  21258250.9614   21258246.4384
        46.5004         49.7504
 -18950143.66747 -14882826.12248  21167674.6254   21167670.3674
        47.5004         49.0004
  -6653793.91646  -5039288.03946  23726909.4534   23726902.6174
        41.2504         36.5004
 20  5  1  0 33 30.0000000  0 11G16G23G 6G 9G 4G22G 7G 3G26G14G31
 -22156369.99947 -17562924.02846  20632033.9224   20632026.5474
        47.2504         38.5004
 -10774187.52447  -8703460.56145  22716214.7344   22716206.1604
        45.7504         31.7504
   -589703.48546   -463015.63045  25213482.6024   25213478.0864
        36.7504         31.7504
 -13254559.38747 -10306790.95447  22861727.8674   22861723.0164
        42.5004         42.7504
 -25269906.20747 -19665796.09546  20695999.2814   20695992.2704
        46.2504         38.0004
 -14993288.42047 -11663479.45345  22842687.6254   22842678.2974
        44.2504         32.0004
   -942676.44946   -694177.83745  25263713.5004   25263706.4654
        36.0004         30.0004
 -21501625.88747 -16740784.13848  21270268.6414   21270264.3094
        47.0004         49.7504
 -18910223.45147 -14851719.46348  21175271.2504   21175266.6214
        47.7504         49.0004
   -190043.37815                  24781348.117
        34.000
  -6560347.97347  -4966473.06946  23744691.8284   23744685.0514
        42.2504         37.2504
 20  5  1  0 34  0.0000000  0 11G16G23G 6G 9G 4G22G 7G 3G26G14G31
 -22196461.38147 -17594164.07146  20624404.8914   20624397.3014
        47.0004         38.0004
 -10853631.32747  -8765364.82245  22701097.7344   22701088.3984
        46.5004         32.5004
   -572066.49646   -449272.56245  25216838.0394   25216833.6954
        36.7504         30.0004
 -13341055.10547 -10374190.20847  22845268.2344   22845263.5164
        43.2504         42.5004
 -25311167.65147 -19697947.88346  20688147.4614   20688140.8094
        45.5004         38.2504
 -14900738.68347 -11591362.79745  22860299.7114   22860290.0744
        45.0004         32.5004
  -1025553.57946   -758757.42544  25247943.0084   25247935.2384
        37.2504         29.0004
 -21437981.58847 -16691191.19848  21282379.7734   21282375.4144
        47.0004         49.7504
 -18869745.54547 -14820178.25148  21182974.1254   21182969.3364
        47.7504         49.0004
   -104122.89646  21895196.70653  24797697.4144   24797691.5554
        37.2504         19.2504
  -6466876.23647  -4893637.98846  23762479.5864   23762472.1294
        42.0004         37.5004
 20  5  1  0 34 30.0000000  0 11G16G23G 6G 9G 4G22G 7G 3G26G14G31
 -22235913.54148 -17624906.01746  20616897.5084   20616889.9064
        48.5004         38.2504
 -10932977.25247  -8827192.81845  22685999.0634   22685989.4304
        46.2504         32.5004
   -553938.92046   -435147.16845  25220287.8594   25220283.6134
        37.0004         31.2504
 -13427438.87547 -10441502.23946  22828829.7034   22828825.0044
        42.7504         41.7504
 -25352130.79947 -19729867.22546  20680352.2034   20680345.6804
        46.7504         38.0004
 -14807943.66047 -11519055.01645  22877957.8364   22877948.8324
        44.2504         31.2504
  -1108345.89346   -823270.98944  25232187.9924   25232180.7424
        38.2504         29.7504
 -21373850.52847 -16641218.97248  21294583.7814   21294579.2974
        46.5004         49.7504
 -18828714.42447 -14788205.95748  21190781.7664   21190776.9964
        46.7504         48.5004
    -18071.56345  21962249.61142  24814072.4454   24814066.8164
        34.5004         17.7504
  -6373382.72646  -4820785.95046  23780270.6334   23780263.2704
        41.5004         36.5004
 20  5  1  0 35  0.0000000  0 11G16G23G 6G 9G 4G22G 7G 3G26G14G31
 -22274724.46848 -17655148.29646  20609511.6484   20609504.3364
        48.0004         38.7504
 -11012223.26447  -8888942.95245  22670919.3984   22670909.0594
        46.5004         33.0004
   -535321.25246   -420639.95245  25223830.5234   25223826.5594
        36.2504         30.7504
 -13513708.35847 -10508725.21047  22812413.0084   22812408.2114
        42.0004         42.0004
 -25392793.45647 -19761552.42146  20672614.1804   20672607.8714
        47.2504         38.0004
 -14714905.26947 -11446557.58545  22895662.0704   22895653.0234
        43.5004         31.5004
  -1191052.82346   -887717.99744  25216448.8674   25216441.7974
        37.2504         29.7504
 -21309234.09447 -16590868.52248  21306879.4844   21306875.1844
        46.2504         49.5004
 -18787131.07447 -14755803.35648  21198694.8364   21198690.1254
        47.5004         48.7504
     68111.01745  22029404.73742  24830473.0784   24830467.7504
        32.5004         14.7504
  -6279867.73147  -4747917.16846  23798066.8204   23798058.3954
        43.0004         37.5004
 20  5  1  0 35 30.0000000  0 11G16G23G 6G 9G 4G22G 7G 3G26G14G31
 -22312894.19247 -17684890.93446  20602248.9384   20602240.9964
        47.7504         38.2504
 -11091369.16947  -8950615.09545  22655858.0474   22655848.1604
        46.2504         32.5004
   -516216.28146   -405752.98345  25227467.0554   25227461.6844
        36.7504         31.0004
 -13599863.42847 -10575859.02947  22796019.1804   22796013.8524
        43.0004         42.2504
 -25433155.59547 -19793003.44646  20664933.7504   20664927.3524
        47.0004         38.5004
 -14621627.19547 -11373873.40045  22913412.2584   22913402.9964
        44.5004         31.7504
  -1273674.54746   -952098.55645  25200727.5394   25200720.0204
        37.0004         30.2504
 -21244135.71247 -16540142.52448  21319267.6644   21319262.8244
        47.0004         49.5004
 -18744998.66247 -14722972.91548  21206712.4924   21206707.7854
        47.0004         48.7504
    154422.76046  22096660.63242  24846897.1174   24846892.7624
        37.2504         15.5004
  -6186333.94047  -4675033.73546  23815865.5234   23815857.6804
        43.5004         38.0004
 20  5  1  0 36  0.0000000  0 11G16G23G 6G 9G 4G22G 7G 3G26G14G31
 -22350421.25447 -17714132.80546  20595107.2814   20595099.7774
        46.7504         39.0004
 -11170413.48347  -9012208.05745  22640816.4694   22640806.7074
        47.0004         32.5004
   -496625.27745   -390487.30045  25231194.0554   25231190.4614
        35.0004         30.0004
 -13685902.61147 -10642902.54247  22779646.7664   22779640.9804
        43.0004         42.5004
 -25473215.79547 -19824219.19146  20657310.6174   20657304.0904
        46.5004         39.0004
 -14528111.79247 -11301004.28045  22931207.8444   22931198.7384
        44.0004         31.7504
  -1356210.78146  -1016412.54045  25185021.0474   25185013.7114
        39.0004         30.5004
 -21178557.56347 -16489042.69348  21331746.5704   21331741.9734
        47.0004         49.7504
 -18702318.92447 -14689715.98848  21214834.2344   21214829.5904
        47.0004         48.5004
    240863.15046  22164016.77042  24863347.3754   24863340.7464
        38.0004         16.2504
  -6092782.23446  -4602136.35146  23833667.6724   23833659.4534
        41.7504         36.0004
 20  5  1  0 36 30.0000000  0 11G16G23G 6G 9G 4G22G 7G 3G26G14G31
 -22387303.68048 -17742872.35746  20588088.8054   20588081.2774
        48.5004         39.0004
 -11249353.81947  -9073720.01045  22625795.0554   22625785.3984
        46.2504         33.0004
   -476548.87646   -374843.36345  25235015.0004   25235010.8594
        37.0004         31.2504
 -13771823.52647 -10709853.91347  22763296.3984   22763291.0474
        43.7504         43.5004
 -25512971.78947 -19855197.90146  20649745.1954   20649738.7774
        46.5004         38.0004
 -14434361.17647 -11227951.88245  22949047.8594   22949039.0594
        44.2504         31.5004
  -1438660.53046  -1080659.15144  25169331.0004   25169324.2304
        36.2504         28.2504
 -21112500.95447 -16437570.02448  21344316.8364   21344312.4104
        46.7504         49.2504
 -18659092.79447 -14656033.30148  21223059.8674   21223055.4304
        47.5004         48.5004
    327432.75146  22231473.58942  24879820.2894   24879814.5274
        36.2504         17.7504
  -5999213.13246  -4529225.41546  23851473.5704   23851465.9144
        41.7504         36.7504
 20  5  1  0 37  0.0000000  0 11G16G23G 6G 9G 4G22G 7G 3G26G14G31
 -22423540.62147 -17771108.93346  20581192.8524   20581185.7154
        47.0004         38.2504
 -11328189.52547  -9135150.42545  22610792.3984   22610783.2544
        46.2504         33.5004
   -455988.82945   -358822.53945  25238927.1024   25238922.4304
        35.7504         30.0004
 -13857625.16347 -10776712.32447  22746968.7034   22746963.1254
        43.2504         43.0004
 -25552422.50947 -19885938.72846  20642238.1254   20642231.1524
        46.2504         38.0004
 -14340378.24647 -11154718.46445  22966932.4534   22966923.6214
        44.5004         31.0004
  -1521024.14146  -1144838.61945  25153658.3134   25153651.1844
        39.2504         32.5004
 -21045968.39147 -16385726.49348  21356977.8284   21356973.1844
        47.5004         49.2504
 -18615322.47447 -14621926.56848  21231389.2734   21231384.6524
        47.5004         48.5004
    414130.49445  22299030.16542  24896318.5704   24896313.1214
        34.7504         15.5004
  -5905628.08446  -4456302.03546  23869281.5314   23869274.3444
        41.0004         36.2504
 20  5  1  0 37 30.0000000  0 11G16G23G 6G 9G 4G22G 7G 3G26G14G31
 -22459130.03447 -17798840.94446  20574420.9454   20574413.2304
        46.5004         38.7504
 -11406918.09947  -9196497.36645  22595810.7894   22595801.3594
        46.7504         33.5004
   -434945.98546   -342425.53645  25242932.2274   25242927.9304
        38.2504         30.0004
 -13943305.32847 -10843476.08547  22730664.7034   22730659.0904
        43.2504         42.7504
 -25591565.98047 -19916440.14246  20634789.3914   20634782.7704
        46.0004         38.2504
 -14246165.18547 -11081305.70545  22984859.8914   22984851.2424
        43.7504         30.7504
  -1603300.80846  -1208950.31645  25138001.2424   25137994.2234
        38.2504         30.2504
 -20978961.47347 -16333513.33048  21369728.2194   21369724.0664
        47.0004         49.5004
 -18571009.23347 -14587396.77048  21239821.9224   21239817.2074
        47.7504         48.5004
    500956.41645  22366686.76242  24912840.5004   24912836.4734
        33.5004         14.7504
  -5812027.74446  -4383366.76746  23887092.7194   23887086.4264
        41.7504         36.5004
 20  5  1  0 38  0.0000000  0 11G16G23G 6G 9G 4G22G 7G 3G26G14G31
 -22494071.14547 -17826067.78246  20567771.5234   20567763.8954
        47.5004         38.5004
 -11485539.03947  -9257760.42345  22580850.2814   22580840.8324
        47.0004         33.0004
   -413422.22646   -325653.80745  25247027.5394   25247022.8324
        37.0004         31.0004
 -14028862.92247 -10910144.33747  22714382.9694   22714378.2194
        43.0004         42.5004
 -25630401.11848 -19946701.29446  20627399.5864   20627392.6564
        48.0004         39.0004
 -14151724.59947 -11007715.67645  23002832.7194   23002822.7624
        43.7504         30.7504
  -1685490.38046  -1272994.18444  25122360.9144   25122353.5394
        38.2504         29.0004
 -20911482.83147 -16280932.58848  21382569.6024   21382564.9144
        46.7504         49.2504
 -18526155.28347 -14552445.65948  21248357.0864   21248352.6994
        47.7504         48.5004
                                  24929386.328
        30.250
  -5718413.34546  -4310420.52546  23904907.4304   23904901.0274
        41.0004         37.2504
 20  5  1  0 38 30.0000000  0 11G16G23G 6G 9G 4G22G 7G 3G26G14G31
 -22528363.26747 -17852788.91546  20561246.2504   20561238.8324
        47.2504         38.2504
 -11564050.75647  -9318938.38945  22565909.8754   22565899.9924
        46.5004         32.5004
   -391419.11146   -308508.55645  25251214.4384   25251210.1914
        36.5004         30.5004
 -14114296.68447 -10976716.07747  22698125.9614   22698120.8364
        43.5004         42.7504
 -25668926.79447 -19976721.31246  20620067.6024   20620061.6564
        47.0004         39.0004
 -14057059.32147 -10933950.55645  23020846.2584   23020836.8714
        44.0004         30.2504
  -1767592.58146  -1336969.96745  25106737.5474   25106730.3954
        38.0004         31.5004
 -20843534.90747 -16227986.16948  21395499.0084   21395495.0084
        47.0004         49.2504
 -18480762.76248 -14517074.87448  21256994.7194   21256990.9024
        48.0004         48.7504
    674988.86715                  24945958.117
        31.750
  -5624786.31747  -4237464.48246  23922724.5234   23922716.9184
        43.0004         37.2504
 20  5  1  0 39  0.0000000  0 11G16G23G 6G 9G 4G22G 7G 3G26G14G31
 -22562004.87147 -17879003.14946  20554844.2584   20554836.9344
        47.0004         38.5004
 -11642451.89847  -9380030.19445  22550990.0164   22550980.8364
        47.0004         32.7504
   -368938.20146   -290990.99945  25255493.0784   25255487.7114
        37.2504         30.0004
 -14199605.00347 -11043190.09347  22681892.0704   22681886.8914
        43.5004         43.5004
 -25707141.45647 -20006498.97446  20612795.7344   20612789.3794
        47.0004         38.0004
 -13962172.19147 -10860012.56045  23038903.1414   23038893.4884
        44.5004         30.5004
  -1849607.21146  -1400877.44845  25091130.9064   25091123.7344
        38.5004         30.2504
 -20775119.84447 -16174675.74548  21408518.1094   21408513.7504
        46.5004         49.0004
 -18434833.46348 -14481285.81848  21265735.0704   21265730.7034
        48.7504         48.7504
    762194.34245  22345226.62152  24962552.5164   24962546.4344
        34.5004         17.2504
  -5531147.78447  -4164499.43846  23940543.0084   23940535.8754
        42.2504         36.7504
 20  5  1  0 39 30.0000000  0 11G16G23G 6G 9G 4G22G 7G 3G26G14G31
 -22594994.77047 -17904709.57446  20548566.4614   20548559.1254
        47.0004         39.0004
 -11720740.59447  -9441034.37545  22536092.1094   22536082.9774
        47.0004         33.0004
   -345980.56346   -273101.92845  25259861.3524   25259856.7544
        38.2504         31.7504
 -14284785.87147 -11109564.79447  22665683.0864   22665677.3874
        44.0004         43.0004
 -25745043.25947 -20036032.85546  20605583.4064   20605577.1524
        47.0004         38.7504
 -13867065.22347 -10785903.25645  23057000.9304   23056992.4224
        44.2504         30.0004
  -1931533.71046  -1464716.37445  25075540.8834   25075533.7894
        37.5004         30.7504
 -20706239.44047 -16121002.72048  21421625.4454   21421621.2304
        47.2504         49.0004
 -18388368.82147 -14445079.61048  21274576.9844   21274572.5514
        47.7504         48.5004
    849525.21646  22413276.59943  24979171.9304   24979164.9144
        37.0004         18.5004
  -5437498.24646  -4091525.82546  23958363.8134   23958356.3954
        40.7504         36.0004
 20  5  1  0 40  0.0000000  0 11G16G23G 6G 9G 4G22G 7G 3G26G14G31
 -22627331.83647 -17929907.28046  20542412.9064   20542405.1994
        47.0004         38.5004
 -11798915.58747  -9501949.95145  22521216.6564   22521207.0124
        47.5004         33.5004
   -322547.73746   -254842.58345  25264320.0234   25264315.5904
        38.2504         31.0004
 -14369837.88147 -11175839.10047  22649497.5784   22649492.2584
        43.5004         43.0004
 -25782630.86947 -20065321.90846  20598430.5704   20598424.5394
        46.7504         38.7504
 -13771741.36547 -10711624.95745  23075140.9384   23075131.5554
        44.0004         30.2504
  -2013372.14046  -1528486.54245  25059967.1174   25059960.2114
        38.2504         31.5004
 -20636896.05547 -16066968.94148  21434821.3594   21434817.0554
        46.5004         49.0004
 -18341370.85547 -14408457.82148  21283520.3204   21283515.7974
        47.7504         48.5004
    936981.38346  22481424.20243  24995813.8134   24995808.1724
        37.5004         18.2504
  -5343838.99846  -4018544.66246  23976186.9384   23976180.2544
        41.5004         37.0004
 20  5  1  0 40 30.0000000  0 11G16G23G 6G 9G 4G22G 7G 3G26G14G31
 -22659014.66647 -17954595.21246  20536383.9224   20536376.3134
        47.2504         38.5004
 -11876974.73547  -9562775.28145  22506361.4614   22506352.8164
        47.5004         33.2504
   -298641.25846   -236214.19845  25268869.5234   25268865.2464
        37.0004         31.0004
 -14454759.30847 -11242011.64547  22633337.5474   22633332.4414
        43.5004         42.7504
 -25819902.72147 -20094364.91446  20591338.1484   20591331.7154
        46.7504         38.0004
 -13676202.82647 -10637179.38045  23093321.6254   23093311.9304
        45.0004         30.7504
  -2095121.42846  -1592187.36745  25044411.4774   25044403.6374
        38.2504         30.0004
 -20567091.83047 -16012576.05748  21448104.9614   21448100.0824
        46.7504         49.0004
 -18293841.38047 -14371421.87848  21292564.7424   21292560.5234
        47.2504         48.2504
   1024562.05145  22549668.85042  25012478.9534   25012474.5784
        34.0004         17.2504
  -5250170.93346  -3945556.60446  23994011.2974   23994004.1804
        41.2504         36.0004
 20  5  1  0 41  0.0000000  0 11G16G23G 6G 9G 4G22G 7G 3G26G14G31
 -22690042.94047 -17978773.08146  20530479.4384   20530471.9804
        47.0004         38.0004
 -11954917.58747  -9623509.96445  22491529.6954   22491520.7894
        47.2504         33.2504
   -274263.23446   -217218.34445  25273508.0554   25273504.0084
        36.0004         30.0004
 -14539549.26147 -11308081.74047  22617202.7584   22617197.5354
        44.5004         43.5004
 -25856858.06347 -20123161.29746  20584305.8984   20584299.6054
        46.7504         38.2504
 -13580452.80647 -10562569.00845  23111541.8834   23111532.5474
        43.7504         31.5004
  -2176782.47246  -1655819.35045  25028871.5084   25028864.5004
        39.0004         31.7504
 -20496829.73747 -15957826.39448  21461475.0864   21461470.4454
        47.5004         49.0004
 -18245782.98248 -14333973.78148  21301710.0164   21301705.6804
        48.0004         48.2504
   1112266.46345  22618009.87942  25029168.0164   25029163.7814
        32.0004         15.5004
  -5156495.67346  -3872562.93846  24011837.1174   24011830.0634
        41.0004         37.0004
 20  5  1  0 41 30.0000000  0 11G16G23G 6G 9G 4G22G 7G 3G26G14G31
 -22720415.02847 -18002439.64646  20524699.6484   20524692.2704
        47.5004         38.0004
 -12032741.74747  -9684152.16845  22476720.8204   22476711.3364
        47.0004         33.5004
   -249414.48045   -197855.72545  25278237.1644   25278232.1374
        35.0004         30.2504
 -14624205.44647 -11374047.59447  22601093.3914   22601088.2074
        43.7504         44.0004
 -25893494.67147 -20151709.31146  20577334.0704   20577327.4454
        46.5004         38.7504
 -13484493.15647 -10487795.27745  23129801.3204   23129793.2584
        44.2504         30.7504
  -2258353.86446  -1719381.52244  25013349.4774   25013341.7344
        38.0004         29.5004
 -20426111.27147 -15902721.11848  21474932.6804   21474928.3014
        47.0004         48.7504
 -18197196.85947 -14296114.46948  21310955.7424   21310951.4804
        47.7504         48.2504
   1200094.42745  22686447.23642  25045881.9384   25045876.8794
        33.7504         15.5004
  -5062813.47946  -3799563.90446  24029663.8754   24029657.3634
        40.5004         36.0004
 20  5  1  0 42  0.0000000  0 11G16G23G 6G 9G 4G22G 7G 3G26G14G31
 -22750130.10847 -18025594.26046  20519045.4144   20519037.4264
        46.5004         38.5004
 -12110445.98447  -9744700.92945  22461933.9924   22461924.7304
        47.7504         33.7504
   -224096.93945   -178127.78045  25283055.3204   25283051.0204
        35.7504         31.5004
 -14708726.39947 -11439908.07847  22585009.2504   22585004.5044
        44.5004         44.0004
 -25929811.39547 -20180008.06946  20570423.1954   20570416.8484
        47.0004         38.7504
 -13388326.86547 -10412860.54345  23148101.9694   23148092.9144
        44.5004         30.5004
  -2339836.11946  -1782874.21445  24997843.7114   24997836.2234
        39.0004         31.0004
 -20354938.98447 -15847262.21948  21488476.9304   21488472.2034
        47.5004         49.0004
 -18148085.21948 -14257845.66648  21320301.3204   21320296.9924
        48.0004         48.2504
   1288045.24445  22754980.29042  25062619.4384   25062613.3874
        35.2504         16.7504
  -4969125.91346  -3726560.66245  24047492.4224   24047485.3134
        40.2504         35.0004
 20  5  1  0 42 30.0000000  0 11G16G23G 6G 9G 4G22G 7G 3G26G14G31
 -22779187.63847 -18048236.48846  20513515.7664   20513508.4384
        47.0004         39.0004
 -12188029.06848  -9805155.28745  22447170.5554   22447160.8954
        48.0004         33.2504
   -198312.31545   -158035.91844  25287960.7664   25287957.1134
        35.2504         29.0004
 -14793110.84847 -11505662.19747  22568951.8754   22568946.6884
        44.2504         44.0004
 -25965806.93447 -20208056.54846  20563573.3594   20563566.9494
        47.0004         39.0004
 -13291956.66347 -10337766.90645  23166440.9844   23166431.6994
        44.7504         30.0004
  -2421228.48346  -1846296.84745  24982354.4844   24982347.7234
        37.2504         30.2504
 -20283315.40247 -15791451.65448  21502105.9614   21502101.2664
        47.7504         49.0004
 -18098450.22948 -14219169.05748  21329746.6254   21329742.3794
        48.0004         48.2504
   1376118.07445  22823608.47442  25079378.6174   25079374.2624
        34.2504         16.2504
  -4875434.15646  -3653554.14545  24065322.0634   24065314.0944
        41.2504         35.5004
 20  5  1  0 43  0.0000000  0 11G16G23G 6G 9G 4G22G 7G 3G26G14G31
 -22807582.31047 -18070362.21246  20508112.5234   20508105.1604
        47.0004         38.7504
 -12265485.16548  -9865510.69945  22432430.9304   22432421.7424
        48.0004         33.2504
   -172058.25845   -137578.23645  25292957.4454   25292953.0394
        35.0004         31.0004
 -14877353.10847 -11571305.50847  22552920.6174   22552915.5824
        44.5004         44.0004
 -26001475.83447 -20235850.50346  20556786.3594   20556779.4574
        45.7504         39.0004
 -13195381.35747 -10262513.44844  23184817.7034   23184808.6564
        44.2504         29.7504
  -2502526.90046  -1909646.29245  24966884.5634   24966877.5434
        38.0004         31.0004
 -20211238.82647 -15735288.10448  21515821.1954   21515817.1174
        47.7504         48.7504
 -18048289.92147 -14180083.11048  21339291.8364   21339287.6804
        47.2504         48.0004
                                  25096162.477
        27.500
  -4781734.99046  -3580541.85145  24083151.5554   24083144.5434
        41.2504         35.7504
 20  5  1  0 43 30.0000000  0 11G16G23G 6G 9G 4G22G 7G 3G26G14G31
 -22835324.37147 -18091979.40146  20502833.6254   20502825.7854
        47.5004         39.0004
 -12342823.87147  -9925774.62745  22417713.5314   22417704.8054
        47.0004         33.5004
   -145347.39545   -116764.64045  25298040.1804   25298036.8914
        35.7504         30.2504
 -14961462.46347 -11636845.27747  22536915.2034   22536910.2154
        44.0004         44.2504
 -26036827.63447 -20263397.37346  20550058.8284   20550052.5704
        46.5004         39.0004
 -13098614.39047 -10187110.63944  23203232.5234   23203223.1134
        43.7504         29.5004
  -2583742.40546  -1972931.09345  24951429.7344   24951422.8164
        37.7504         30.5004
 -20138722.53348 -15678781.93348  21529621.3914   21529616.7504
        48.0004         48.7504
 -17997617.17347 -14140597.86448  21348934.6804   21348930.4384
        47.2504         48.0004
   3128048.42215                  25112967.625
        30.000
  -4688040.28846  -3507533.03845  24100981.4774   24100973.7814
        40.7504         35.0004
 20  5  1  0 44  0.0000000  0 11G16G23G 6G 9G 4G22G 7G 3G26G14G31
 -22862402.26447 -18113079.06146  20497680.5944   20497672.7304
        46.5004         39.0004
 -12420033.13247  -9985937.68845  22403021.3444   22403012.4884
        47.7504         34.0004
   -118170.69346    -95588.00845  25303211.6564   25303207.9414
        36.2504         30.2504
 -15045426.77347 -11702272.01047  22520937.7034   22520932.1644
        44.0004         44.2504
 -26071850.29547 -20290687.76946  20543394.3524   20543388.0864
        46.5004         39.0004
 -13001647.87247 -10111552.35345  23221684.6024   23221675.5204
        43.5004         30.0004
  -2664863.96546  -2036142.72645  24935992.6484   24935985.7974
        37.5004         30.5004
 -20065758.30647 -15621926.71148  21543505.4304   21543500.8554
        47.2504         48.5004
 -17946423.44447 -14100706.64748  21358676.4224   21358672.1844
        47.2504         48.2504
   3216484.44215                  25129796.859
        34.500
  -4594340.55646  -3434520.31145  24118810.9224   24118804.8834
        39.5004         35.0004
 20  5  1  0 44 30.0000000  0 12G16G23G 6G27G 9G 4G22G 7G 3G26G14G31
 -22888818.72047 -18133663.30646  20492653.9534   20492646.3404
        46.5004         39.0004
 -12497115.03547 -10046001.50945  22388353.0704   22388343.8484
        47.2504         34.0004
    -90533.46845    -74052.55845  25308471.0394   25308467.5124
        35.0004         30.0004
    452696.67956    381295.99355  25097310.0784   25097306.1134
        38.0004         31.5004
 -15129247.94347 -11767587.22647  22504986.5234   22504981.6214
        44.2504         43.7504
 -26106545.91747 -20317723.32946  20536791.7274   20536785.3054
        45.7504         39.0004
 -12904487.58647 -10035843.05844  23240173.3834   23240164.4654
        43.5004         29.2504
  -2745894.34046  -2099283.28045  24920573.1094   24920565.8524
        39.2504         32.5004
 -19992352.10047 -15564727.09348  21557474.2424   21557469.7464
        47.2504         48.5004
 -17894714.33847 -14060413.84448  21368516.5084   21368512.0594
        47.0004         48.0004
   3305040.077 5                  25146647.867
        34.000
  -4500640.44246  -3361507.28245  24136641.2034   24136635.0594
        39.2504         34.5004
 20  5  1  0 45  0.0000000  0 12G16G23G 6G27G 9G 4G22G 7G 3G26G14G31
 -22914573.90947 -18153732.28546  20487752.5864   20487744.8244
        46.5004         39.7504
 -12574068.52148 -10105965.25745  22373709.5394   22373700.0514
        48.0004         34.0004
    -62438.15345    -52160.13245  25313817.8364   25313814.1804
        35.7504         30.0004
    356909.00546    306656.27044  25079082.3674   25079077.5784
        37.5004         24.5004
 -15212925.10947 -11832790.21647  22489064.0004   22489058.3484
        44.7504         44.0004
 -26140913.83647 -20344503.53746  20530251.7504   20530245.4104
        46.0004         38.7504
 -12807137.25047  -9959985.68945  23258698.2274   23258689.5704
        43.0004         30.0004
  -2826835.21146  -2162354.11645  24905170.7814   24905163.6214
        38.5004         31.2504
 -19918507.02247 -15507185.49448  21571526.6254   21571522.3134
        47.2504         48.2504
 -17842492.69247 -14019721.65348  21378453.8054   21378449.2624
        47.0004         48.0004
   3393714.28745  24077359.19952  25163521.7114   25163516.5474
        35.2504         15.5004
  -4406941.52546  -3288495.19546  24154471.7114   24154465.9574
        40.0004         36.0004
 20  5  1  0 45 30.0000000  0 12G16G23G 6G27G 9G 4G22G 7G 3G26G14G31
 -22939662.56347 -18173281.88946  20482978.3444   20482970.5274
        46.7504         39.0004
 -12650887.72148 -10165824.38445  22359091.5704   22359081.6374
        48.0004         33.7504
    -33882.26645    -29908.80745  25319251.2114   25319247.3014
        35.0004         30.2504
    261089.32346    231991.53544  25060848.0704   25060843.4614
        39.0004         29.0004
 -15296452.37047 -11897876.40247  22473168.8754   22473163.5864
        43.7504         44.5004
 -26174948.39247 -20371023.98346  20523775.2504   20523768.7154
        45.7504         39.2504
 -12709595.15147  -9883978.89144  23277260.3674   23277251.3444
        43.0004         29.5004
  -2907680.73046  -2225350.64445  24889786.6174   24889779.1334
        40.0004         32.2504
 -19844221.24947 -15449300.50548  21585663.0004   21585658.1024
        47.2504         48.2504
 -17789756.33147 -13978628.39248  21388489.0314   21388484.9454
        47.2504         48.0004
                                  25180420.633
        24.500
  -4313240.59546  -3215481.55445  24172302.1094   24172296.7974
        39.2504         35.0004
 20  5  1  0 46  0.0000000  0 11G16G23G 6G27G 9G 4G22G 7G 3G26G31
 -22964090.06747 -18192316.31446  20478329.8364   20478322.4104
        46.7504         39.7504
 -12727577.18747 -10225582.42345  22344497.8914   22344488.4734
        47.5004         33.5004
     -4873.52545     -7304.63345  25324771.8594   25324767.9224
        35.7504         31.7504
    165234.82846    157299.63045  25042607.9694   25042604.0664
        40.5004         34.0004
 -15379834.06847 -11962849.15747  22457301.6024   22457296.9024
        44.5004         44.0004
 -26208654.11247 -20397288.19746  20517360.8834   20517355.1024
        46.0004         39.2504
 -12611869.97547  -9807829.44244  23295857.1024   23295847.9734
        43.7504         29.5004
  -2988437.26246  -2288277.84245  24874419.3914   24874411.6644
        39.5004         32.0004
 -19769503.18347 -15391078.65448  21599881.1334   21599876.6294
        46.7504         48.2504
 -17736513.33647 -13937140.35648  21398620.8834   21398616.6644
        46.0004         48.0004
  -4219544.63946  -3142471.78245  24190133.5554   24190126.4224
        40.7504         35.7504
 20  5  1  0 46 30.0000000  0 11G16G23G 6G27G 9G 4G22G 7G 3G26G31
 -22987852.77947 -18210832.71146  20473808.1724   20473800.4774
        47.7504         38.7504
 -12804132.41147 -10285235.83745  22329929.8204   22329920.3954
        47.0004         33.2504
     24589.15146     15653.24645  25330379.6954   25330375.0704
        36.5004         31.7504
     69351.23146     82585.10045  25024361.8364   25024357.8404
        37.2504         31.0004
 -15463065.75547 -12027705.01247  22441463.5634   22441458.1994
        44.7504         44.0004
 -26242026.75447 -20423292.86346  20511010.4614   20511004.4454
        46.2504         38.7504
 -12513961.48647  -9731537.13444  23314488.1334   23314479.4964
        43.0004         28.2504
  -3069101.71946  -2351133.29345  24859069.3594   24859061.6414
        39.5004         32.2504
 -19694352.44047 -15332519.65448  21614181.7344   21614177.6294
        46.5004         48.2504
 -17682762.96347 -13895256.94748  21408849.3674   21408845.2504
        46.7504         48.0004
  -4125851.64846  -3069464.31546  24207963.4064   24207955.6454
        41.7504         36.0004
 20  5  1  0 47  0.0000000  0 11G16G23G 6G27G 9G 4G22G 7G 3G26G31
 -23010950.37947 -18228830.83946  20469412.9384   20469405.4104
        47.5004         39.5004
 -12880552.08847 -10344783.64245  22315387.8284   22315378.6414
        47.7504         34.5004
     54503.74646     38963.32845  25336071.4224   25336066.9184
        37.5004         32.2504
    -26558.65145      7850.22945  25006109.5004   25006107.3794
        35.7504         30.0004
 -15546145.93347 -12092442.82147  22425653.8914   22425648.5664
        44.5004         44.5004
 -26275065.08647 -20449037.03846  20504723.6884   20504717.3674
        46.0004         39.5004
 -12415872.36047  -9655104.09944  23333154.2034   23333145.1524
        43.0004         29.0004
  -3149674.14146  -2413917.05045  24843736.6804   24843728.9884
        38.7504         31.5004
 -19618771.61547 -15273625.52548  21628563.9614   21628559.8444
        46.5004         48.2504
 -17628507.53747 -13852980.00747  21419173.8594   21419169.5234
        46.2504         47.7504
  -4032162.81346  -2996460.05245  24225790.6174   24225784.1884
        40.0004         35.0004
 20  5  1  0 47 30.0000000  0 11G16G23G 6G27G 9G 4G22G 7G 3G26G31
 -23033381.78248 -18246309.85446  20465144.2424   20465136.5664
        48.5004         39.2504
 -12956834.31947 -10404224.33645  22300871.6804   22300862.8094
        47.5004         33.0004
     84868.74846     62624.32645  25341849.6174   25341845.4924
        37.5004         33.0004
   -122491.23646    -66902.50345  24987855.2584   24987851.4224
        39.2504         32.5004
 -15629072.65747 -12157061.05847  22409873.5554   22409867.7114
        44.5004         45.2504
 -26307767.42147 -20474519.38246  20498500.5314   20498494.2074
        45.2504         38.7504
 -12317605.25247  -9578532.34844  23351853.7194   23351844.3954
        43.2504         29.0004
  -3230153.90646  -2476628.57345  24828421.8364   24828414.6804
        39.0004         31.7504
 -19542762.98747 -15214398.04647  21643028.0474   21643023.9844
        46.7504         47.7504
 -17573748.96147 -13810310.99948  21429593.7344   21429589.6414
        46.5004         48.0004
  -3938478.83746  -2923459.63045  24243619.1484   24243611.7774
        40.2504         34.0004
 20  5  1  0 48  0.0000000  0 11G16G23G 6G27G 9G 4G22G 7G 3G26G31
 -23055146.75447 -18263269.57346  20461002.7814   20460994.8794
        46.7504         38.7504
 -13032977.77547 -10463556.89845  22286381.7504   22286372.6524
        47.2504         33.7504
    115681.99046     86634.69045  25347713.0474   25347708.9144
        36.2504         30.5004
   -218443.94945   -141670.86145  24969595.5394   24969592.3984
        35.0004         32.2504
 -15711844.64247 -12221558.69847  22394122.6094   22394117.2154
        44.5004         44.7504
 -26340132.65347 -20499739.06746  20492341.8754   20492335.6914
        45.5004         39.0004
 -12219163.00347  -9501824.15244  23370587.2814   23370577.3954
        44.0004         29.7504
  -3310541.59246  -2539268.36845  24813124.3984   24813117.8164
        38.2504         33.0004
 -19466329.27947 -15154839.34548  21657573.5394   21657569.0204
        47.5004         48.2504
 -17518489.63447 -13767251.78847  21440109.6174   21440105.1564
        46.2504         47.7504
  -3844801.05146  -2850463.99145  24261444.3364   24261437.3984
        39.7504         34.7504
 20  5  1  0 48 30.0000000  0 11G16G23G 6G27G 9G 4G22G 7G 3G26G31
 -23076244.25947 -18279709.19346  20456987.8754   20456980.0124
        47.5004         38.7504
 -13108980.34047 -10522779.68145  22271919.2734   22271910.0784
        47.2504         33.5004
    146942.22246    110993.22945  25353662.3594   25353658.2774
        37.0004         31.0004
   -314413.16146   -216451.98445  24951333.6024   24951330.0704
        37.0004         33.5004
 -15794459.65747 -12285934.04047  22378401.2114   22378396.2974
        44.7504         44.7504
 -26372158.83347 -20524694.55946  20486247.5234   20486240.9614
        46.2504         39.5004
 -12120547.81647  -9424981.17444  23389352.5944   23389343.1254
        44.0004         28.5004
  -3390836.09446  -2601835.50245  24797844.4534   24797837.9104
        38.5004         30.0004
 -19389472.46647 -15094950.93647  21672198.6024   21672194.4184
        46.7504         47.7504
 -17462731.25947 -13723803.71147  21450720.1564   21450715.3754
        46.7504         47.5004
  -3751130.05447  -2777473.68745  24279271.3444   24279263.0704
        42.0004         35.0004
 20  5  1  0 49  0.0000000  0 11G16G23G 6G27G 9G 4G22G 7G 3G26G31
 -23096674.41847 -18295628.79046  20453100.0784   20453092.4924
        47.0004         39.0004
 -13184841.59848 -10581892.36245  22257483.4774   22257473.8244
        48.0004         34.5004
    178646.65946    135697.99145  25359694.7584   25359691.0784
        38.5004         34.0004
   -410396.57146   -291244.21545  24933068.7344   24933065.1374
        36.5004         32.2504
 -15876916.85447 -12350186.40847  22362709.8984   22362704.7424
        44.0004         45.2504
 -26403845.41747 -20549385.41646  20480217.8204   20480211.2854
        46.0004         38.7504
 -12021762.88847  -9348005.92844  23408151.4144   23408141.4694
        43.0004         27.5004
  -3471037.70246  -2664330.27045  24782583.0394   24782576.5434
        37.5004         31.2504
 -19312195.95447 -15034735.49347  21686903.9774   21686899.4534
        46.2504         47.2504
 -17406476.85747 -13679969.11847  21461425.3834   21461420.5434
        46.0004         46.5004
  -3657467.42246  -2704489.82745  24297092.5474   24297086.3094
        40.5004         34.7504
 20  5  1  0 49 30.0000000  0 11G16G23G 6G27G 9G 4G22G 7G 3G26G31
 -23116435.67747 -18311027.18246  20449339.6884   20449331.9844
        47.2504         38.7504
 -13260558.43847 -10640892.49245  22243075.0164   22243065.5164
        47.5004         34.0004
    210794.46445    160748.23345  25365811.9454   25365808.9964
        35.2504         30.7504
   -506390.11446   -366044.40545  24914802.1334   24914797.6174
        36.7504         31.0004
 -15959213.64147 -12414313.76247  22347049.7424   22347043.9264
        44.5004         44.7504
 -26435189.99747 -20573809.78646  20474253.1884   20474246.6454
        46.0004         39.2504
 -11922810.11247  -9270899.90744  23426980.8674   23426971.5434
        42.5004         28.0004
  -3551145.39746  -2726751.88045  24767338.9844   24767332.3754
        38.0004         32.5004
 -19234501.17647 -14974194.13847  21701688.2814   21701684.1134
        46.2504         47.5004
 -17349727.59247 -13635748.92747  21472224.2584   21472219.6174
        46.0004         47.2504
  -3563812.97846  -2631512.44145  24314915.3284   24314907.8634
        40.7504         34.7504
 20  5  1  0 50  0.0000000  0 11G16G23G 6G27G 9G 4G22G 7G 3G26G31
 -23135528.39947 -18325904.62746  20445706.3204   20445698.9844
        47.0004         39.5004
 -13336130.13647 -10699779.53045  22228694.3594   22228684.7814
        47.2504         34.0004
    243383.04945    186141.90944  25372013.8284   25372009.5824
        35.5004         29.0004
   -602391.21046   -440850.47745  24896533.1174   24896528.7624
        38.5004         31.5004
 -16041348.82447 -12478315.20547  22331420.2814   22331414.6644
        44.7504         45.0004
 -26466191.80947 -20597967.05146  20468353.5634   20468347.1644
        46.0004         40.0004
 -11823692.57247  -9193665.49944  23445842.5864   23445833.0314
        42.7504         29.2504
  -3631159.95746  -2789100.88945  24752113.1644   24752106.0594
        39.2504         33.0004
 -19156391.31347 -14913329.34047  21716552.2194   21716548.0234
        47.0004         47.5004
 -17292486.31647 -13591145.35447  21483116.6484   21483111.9804
        46.2504         47.0004
  -3470168.28646  -2558542.57545  24332734.5314   24332728.0664
        40.0004         34.0004
 20  5  1  0 50 30.0000000  0 11G16G23G 6G27G 9G 4G22G 7G 3G26G31
 -23153952.25047 -18340260.87846  20442200.1884   20442192.3364
        46.7504         39.0004
 -13411555.25247 -10758552.35345  22214340.6884   22214332.1454
        47.0004         34.2504
    276410.39546    211877.49145  25378298.8524   25378294.3284
        37.5004         31.0004
   -698397.08446   -515660.23944  24878263.3364   24878259.6524
        37.2504         28.7504
 -16123320.96547 -12542189.61947  22315820.7344   22315815.5234
        44.5004         45.0004
 -26496849.59847 -20621856.25446  20462519.6884   20462513.3364
        47.2504         39.7504
 -11724413.36647  -9116305.11944  23464734.8284   23464725.8794
        42.2504         28.5004
  -3711080.77346  -2851376.84845  24736904.8914   24736898.0514
        40.0004         33.5004
 -19077869.14747 -14852143.25947  21731494.6174   21731490.5084
        47.0004         47.2504
 -17234755.47147 -13546160.28947  21494102.3674   21494098.1254
        45.7504         47.0004
  -3376534.45946  -2485581.23345  24350554.0864   24350546.4264
        41.5004         34.5004
 20  5  1  0 51  0.0000000  0 11G16G23G 6G27G 9G 4G22G 7G 3G26G31
 -23171706.26147 -18354095.17646  20438822.2344   20438814.1334
        47.0004         39.2504
 -13486831.34348 -10817209.04445  22200016.4774   22200007.3524
        48.2504         34.0004
    309875.04146    237953.81845  25384666.9454   25384662.7154
        37.0004         31.7504
   -794403.89046   -590470.82145  24859994.6254   24859990.1724
        40.2504         31.2504
 -16205127.74847 -12605935.16247  22300254.1254   22300248.2274
        44.7504         45.0004
 -26527161.33747 -20645475.80946  20456751.5634   20456745.2974
        46.0004         39.7504
 -11624974.32547  -9038820.19344  23483656.9844   23483648.7934
        42.5004         29.0004
  -3790907.56246  -2913579.56545  24721714.2974   24721707.0944
        39.7504         33.7504
 -18998936.56447 -14790637.36947  21746515.4384   21746510.8914
        46.5004         47.5004
 -17176536.64247 -13500794.98247  21505181.5394   21505176.5704
        46.2504         47.0004
  -3282911.62146  -2412628.40045  24368368.8364   24368361.8324
        38.7504         32.5004
 20  5  1  0 51 30.0000000  0 11G16G23G 6G27G 9G 4G22G 7G 3G26G31
 -23188790.46647 -18367407.53646  20435570.7344   20435563.0004
        47.0004         39.0004
 -13561957.30847 -10875748.75645  22185720.9924   22185711.2074
        47.2504         34.0004
    343774.82045    264369.20744  25391116.9534   25391113.7974
        34.5004         29.0004
   -890408.89846   -665279.94845  24841725.3524   24841721.5124
        39.0004         32.2504
 -16286767.80047 -12669550.78847  22284717.8284   22284712.9654
        45.2504         45.5004
 -26557126.04147 -20668824.93946  20451049.3984   20451042.8364
        46.2504         39.5004
 -11525378.73247  -8961213.28444  23502610.2814   23502600.8524
        43.5004         28.0004
  -3870640.48746  -2975709.13545  24706541.1884   24706534.5394
        40.0004         32.5004
 -18919596.52647 -14728813.97647  21761613.1724   21761608.5744
        47.0004         47.2504
 -17117832.47247 -13455051.48447  21516352.2424   21516347.4304
        46.5004         47.0004
  -3189301.17446  -2339685.24945  24386182.8524   24386176.1484
        40.0004         34.0004
 20  5  1  0 52  0.0000000  0 11G16G23G 6G27G 9G 4G22G 7G 3G26G31
 -23205204.17047 -18380197.43546  20432447.7424   20432439.8554
        47.7504         39.5004
 -13636931.44847 -10934170.16745  22171453.2034   22171444.0274
        47.7504         34.0004
    378107.84745    291122.17945  25397651.0704   25397646.9654
        34.7504         30.2504
   -986408.95346   -740085.20045  24823457.5394   24823453.9184
        39.2504         32.7504
 -16368239.34047 -12733035.09347  22269214.7974   22269209.4884
        44.5004         45.5004
 -26586742.18147 -20691902.45946  20445413.7664   20445407.0704
        46.7504         40.0004
 -11425628.85847  -8883486.15544  23521591.7194   23521582.6914
        43.0004         27.7504
  -3950278.82746  -3037764.98245  24691386.6954   24691379.2814
        39.5004         33.0004
 -18839851.46847 -14666675.00447  21776788.1484   21776783.5984
        47.5004         47.5004
 -17058645.11347 -13408931.47047  21527615.1414   21527610.6484
        46.0004         47.2504
  -3095703.84446  -2266752.34745  24403993.2504   24403986.9734
        39.7504         34.2504
 20  5  1  0 52 30.0000000  0 11G16G23G 6G27G 9G 4G22G 7G 3G26G31
 -23220946.72447 -18392464.36246  20429451.9694   20429444.2114
        47.7504         39.0004
 -13711751.83348 -10992471.76745  22157215.7894   22157206.6454
        48.0004         34.2504
    412872.25846    318211.28644  25404267.1024   25404261.6294
        36.2504         29.5004
  -1082400.62046   -814883.88345  24805189.7734   24805186.8444
        37.0004         32.5004
 -16449540.42947 -12796386.59147  22253744.0944   22253738.5554
        45.7504         45.5004
 -26616008.15947 -20714707.13646  20439844.5164   20439838.2464
        46.5004         39.7504
 -11325727.27647  -8805640.79044  23540602.0164   23540593.0904
        42.5004         27.0004
  -4029822.03246  -3099746.72645  24676250.1954   24676243.0864
        40.0004         33.2504
 -18759703.83447 -14604222.32647  21792039.6174   21792035.2274
        46.7504         47.2504
 -16998976.59747 -13362436.54347  21538969.4694   21538965.1764
        46.0004         47.2504
  -3002120.48146  -2193830.27945  24421801.3754   24421795.5474
        39.2504         34.0004
 20  5  1  0 53  0.0000000  0 11G16G23G 6G27G 9G 4G22G 7G 3G26G31
 -23236017.89947 -18404208.13746  20426583.9224   20426576.1844
        47.7504         39.0004
 -13786416.61847 -11050652.12645  22143007.1954   22142998.2584
        47.7504         34.2504
    448066.12146    345635.06144  25410964.2814   25410958.6844
        36.5004         29.5004
  -1178380.76246   -889673.56345  24786926.1334   24786922.7624
        37.0004         31.2504
 -16530669.27847 -12859603.88047  22238304.8834   22238300.0944
        45.0004         45.7504
 -26644922.52647 -20737237.82746  20434342.1174   20434335.6174
        45.7504         40.0004
 -11225676.61747  -8727679.28944  23559640.4454   23559632.3794
        42.7504         27.2504
  -4109270.49746  -3161654.64245  24661131.5944   24661124.1134
        39.2504         32.5004
 -18679156.10047 -14541457.87647  21807366.8284   21807363.2624
        46.5004         47.0004
 -16938829.19147 -13315568.43747  21550415.6334   21550411.1564
        45.7504         47.2504
  -2908551.82046  -2120919.71945  24439607.1954   24439600.9064
        40.0004         34.5004
 20  5  1  0 53 30.0000000  0 11G16G23G 6G27G 9G 4G22G 7G 3G26G31
 -23250417.51447 -18415428.60846  20423843.6954   20423836.1024
        47.7504         39.7504
 -13860924.03947 -11108709.84945  22128829.4384   22128819.7304
        47.5004         34.2504
    483687.52945    373391.95144  25417742.5394   25417737.8094
        35.2504         29.0004
  -1274346.14946   -964451.75345  24768663.8524   24768661.5744
        36.0004         32.5004
 -16611624.11447 -12922685.56847  22222900.4454   22222894.4884
        45.5004         45.5004
 -26673483.90747 -20759493.45146  20428907.4304   20428900.4414
        46.0004         39.7504
 -11125479.51247  -8649603.64944  23578708.7344   23578698.5514
        42.7504         27.0004
  -4188623.60146  -3223488.23645  24646030.5394   24646024.0704
        39.0004         31.5004
 -18598210.88447 -14478383.71247  21822771.0084   21822766.4964
        46.2504         47.0004
 -16878205.25647 -13268329.03147  21561952.0474   21561947.5864
        46.0004         47.0004
  -2814998.77146  -2048021.28745  24457409.9844   24457403.2704
        39.5004         33.7504
 20  5  1  0 54  0.0000000  0 11G16G23G 6G27G 9G 4G22G 7G 3G26G31
 -23264145.76648 -18426125.94646  20421231.5084   20421223.8404
        48.0004         39.0004
 -13935273.26148 -11166644.30345  22114681.0634   22114671.4494
        48.5004         34.5004
    519733.98745    401480.13944  25424601.8834   25424596.8874
        33.7504         27.2504
  -1370293.98246  -1039216.24845  24750407.3594   24750402.2774
        38.5004         33.0004
 -16692403.62647 -12985630.63947  22207528.2584   22207523.0354
        45.2504         45.2504
 -26701691.25247 -20781473.21346  20423539.9694   20423532.9884
        46.5004         40.2504
 -11025138.95847  -8571416.24144  23597801.9924   23597793.3674
        43.0004         26.7504
  -4267881.64046  -3285247.75645  24630948.7274   24630942.0594
        39.2504         32.5004
 -18516871.17647 -14415002.15047  21838249.2894   21838244.9494
        46.2504         47.2504
 -16817107.29447 -13220720.23847  21573578.2274   21573574.1054
        46.0004         47.2504
  -2721462.37946  -1975135.85145  24475209.2344   24475202.0594
        39.2504         32.5004
 20  5  1  0 54 30.0000000  0 11G16G23G 6G27G 9G 4G22G 7G 3G26G31
 -23277202.21947 -18436299.81346  20418747.0474   20418739.2074
        47.0004         40.0004
 -14009462.07348 -11224453.76345  22100563.1174   22100553.7074
        48.0004         34.7504
    556203.75045    429897.99644  25431541.7814   25431537.3324
        35.5004         27.5004
  -1466220.77746  -1113964.49945  24732153.1254   24732146.5084
        40.2504         32.2504
 -16773005.86547 -13048437.58047  22192190.0634   22192184.6604
        46.0004         45.5004
 -26729543.04347 -20803175.91446  20418239.7424   20418233.5124
        46.2504         39.7504
 -10924657.34947  -8493118.92344  23616923.1484   23616914.1914
        43.0004         26.2504
  -4347044.38946  -3346933.03945  24615884.3754   24615877.7344
        39.2504         33.0004
 -18435139.50747 -14351315.15947  21853802.2894   21853798.3444
        46.2504         47.0004
 -16755537.57047 -13172743.84247  21585294.9304   21585290.3324
        45.7504         47.0004
  -2627943.40646  -1902263.99245  24493005.0084   24493000.4024
        38.0004         33.2504
 20  5  1  0 55  0.0000000  0 11G16G23G 6G27G 9G 4G22G 7G 3G26G31
 -23289586.12947 -18445949.61146  20416389.9694   20416382.5864
        46.5004         39.5004
 -14083488.38548 -11282136.60845  22086476.5394   22086467.2154
        48.2504         34.0004
    593094.94845    458644.32844  25438563.4224   25438558.4144
        35.7504         29.0004
  -1562123.25546  -1188693.72945  24713902.3364   24713898.4184
        37.2504         33.2504
 -16853428.67747 -13111104.70647  22176886.7814   22176880.9924
        46.2504         46.0004
 -26757037.49047 -20824600.17246  20413007.5234   20413001.3404
        47.0004         40.0004
 -10824037.04247  -8414713.53444  23636070.0084   23636062.0944
        42.7504         28.2504
  -4426111.23346  -3408543.57945  24600838.2504   24600831.7114
        40.0004         32.5004
 -18353018.02547 -14287324.42147  21869429.7974   21869425.3204
        46.5004         47.0004
 -16693497.96647 -13124401.31147  21597100.6024   21597096.0514
        46.0004         47.0004
  -2534442.08546  -1829405.86545  24510796.7344   24510790.9304
        37.5004         32.2504
 20  5  1  0 55 30.0000000  0 11G16G23G 6G27G 9G 4G22G 7G 3G26G31
 -23301297.75347 -18455075.55246  20414161.4144   20414153.8874
        47.0004         39.2504
 -14157350.97748 -11339691.87545  22072421.1804   22072411.5004
        48.5004         34.5004
    630405.29445    487717.35345  25445662.3754   25445658.2934
        35.5004         30.0004
  -1657998.40046  -1263401.62345  24695657.9534   24695653.9844
        38.0004         34.2504
 -16933670.57647 -13173630.85947  22161616.8594   22161611.5744
        46.0004         46.2504
 -26784173.49847 -20845745.12046  20407844.0864   20407837.4144
        47.0004         39.7504
 -10723281.14747  -8336202.50044  23655244.1564   23655235.2034
        43.5004         27.5004
  -4505082.22446  -3470079.43945  24585811.1564   24585804.1454
        40.5004         32.5004
 -18270509.72147 -14223032.25647  21885130.1174   21885126.0474
        46.7504         46.7504
 -16630991.13447 -13075694.69647  21608994.8284   21608990.6604
        46.0004         47.0004
  -2440960.00246  -1756562.74245  24528585.8674   24528581.7814
        37.7504         32.5004
 20  5  1  0 56  0.0000000  0 11G16G23G 6G27G 9G 4G22G 7G 3G26G31
 -23312336.44847 -18463677.13146  20412060.9384   20412053.1454
        46.7504         39.0004
 -14231047.53848 -11397117.77145  22058397.2974   22058387.3754
        48.2504         34.2504
    668133.17445    517115.72044  25452841.2034   25452838.1804
        34.5004         29.2504
  -1753842.53346  -1338085.31145  24677418.6414   24677416.6334
        37.2504         35.2504
 -17013729.36747 -13236014.32947  22146382.2034   22146377.2304
        45.7504         46.7504
 -26810949.29047 -20866609.37446  20402748.3914   20402741.9884
        46.5004         39.5004
 -10622391.63947  -8257587.33044  23674443.6174   23674433.4924
        43.2504         26.7504
  -4583956.97646  -3531540.28445  24570801.8594   24570794.7274
        40.7504         33.5004
 -18187616.78747 -14158440.38147  21900903.9534   21900900.0124
        45.7504         46.5004
 -16568018.97047 -13026625.48947  21620978.1174   21620973.9774
        45.7504         46.7504
  -2347497.02746  -1683734.55545  24546372.2814   24546365.5514
        39.7504         33.0004
 20  5  1  0 56 30.0000000  0 11G16G23G 6G27G 9G 4G22G 7G 3G26G31
 -23322702.55547 -18471754.61346  20410088.6094   20410080.8484
        47.0004         40.0004
 -14304576.77548 -11454413.28645  22044404.7974   22044395.4804
        48.0004         34.5004
    706276.00146    546837.34145  25460099.1644   25460095.9224
        36.5004         32.5004
  -1849652.96146  -1412742.75045  24659187.2664   24659184.1604
        38.5004         35.0004
 -17093603.69147 -13298254.05947  22131181.5864   22131177.5594
        45.7504         46.0004
 -26837363.87247 -20887192.18046  20397722.2504   20397716.0744
        46.5004         40.0004
 -10521371.71047  -8178870.54544  23693665.9144   23693657.2154
        42.5004         27.2504
  -4662735.44946  -3592926.10845  24555810.6564   24555803.6604
        40.0004         33.5004
 -18104342.33947 -14093551.23047  21916750.8594   21916746.7814
        46.0004         46.5004
 -16504584.27847 -12977195.87347  21633049.4774   21633045.2854
        46.0004         46.5004
  -2254054.85947  -1610922.51345  24564155.0234   24564148.7424
        42.0004         34.5004
 20  5  1  0 57  0.0000000  0 11G16G23G 6G27G 9G 4G22G 7G 3G26G31
 -23332396.26147 -18479308.15246  20408243.8444   20408236.3594
        47.5004         39.5004
 -14377937.27748 -11511577.31645  22030444.7664   22030435.3794
        48.5004         35.0004
    744831.50245    576880.57943  25467436.4144   25467432.4804
        30.5004         22.5004
  -1945426.59046  -1487371.54846  24640963.1954   24640958.8404
        40.2504         36.0004
 -17173292.02647 -13360348.85147  22116017.6484   22116012.9884
        46.0004         46.0004
 -26863416.08647 -20907492.61446  20392764.4064   20392758.2424
        46.5004         40.0004
 -10420224.38547  -8100054.49344  23712913.1884   23712905.1024
        43.0004         27.7504
  -4741417.52646  -3654236.83745  24540837.9694   24540831.4654
        40.7504         33.5004
 -18020689.28847 -14028367.06247  21932669.9064   21932665.3134
        45.5004         46.5004
 -16440689.65647 -12927407.86947  21645208.2814   21645204.0394
        46.2504         46.5004
  -2160634.05347  -1538127.24845  24581934.0474   24581925.9414
        42.0004         33.5004
 20  5  1  0 57 30.0000000  0 10G16G23G27G 9G 4G22G 7G 3G26G31
 -23341414.61747 -18486335.43546  20406527.5314   20406519.7304
        47.5004         39.2504
 -14451124.50748 -11568606.32545  22016517.5394   22016508.2464
        48.5004         34.7504
  -2041157.41346  -1561966.97845  24622745.5474   24622741.9224
        38.5004         33.5004
 -17252789.69947 -13422295.09047  22100889.9694   22100885.0274
        46.5004         46.2504
 -26889101.77447 -20927507.44846  20387876.5234   20387870.5044
        47.0004         40.0004
 -10318949.34047  -8021138.92444  23732186.5164   23732176.8874
        43.2504         24.7504
  -4820000.29646  -3715470.18145  24525884.0634   24525877.3874
        41.2504         34.0004
 -17936657.45747 -13962887.73647  21948660.2504   21948656.1134
        45.2504         46.2504
 -16376334.64047 -12877261.11747  21657455.0704   21657450.4734
        45.7504         46.5004
  -2067232.84446  -1465347.07945  24599707.6024   24599697.7344
        39.7504         31.2504
 20  5  1  0 58  0.0000000  0 10G16G23G27G 9G 4G22G 7G 3G26G31
 -23349762.49147 -18492840.27246  20404939.1024   20404931.4264
        47.5004         39.5004
 -14524141.30348 -11625502.53345  22002623.3914   22002613.7424
        48.5004         34.7504
  -2136846.84546  -1636530.24044  24604536.3834   24604530.1214
        39.2504         29.0004
 -17332099.54247 -13484094.97047  22085798.3134   22085793.0434
        47.2504         46.2504
 -26914424.14847 -20947239.17346  20383058.1254   20383051.4064
        47.5004         40.7504
 -10217553.68547  -7942129.34044  23751481.1414   23751471.6374
        43.2504         25.7504
  -4898488.82446  -3776630.07345  24510948.3444   24510941.3284
        41.5004         33.2504
 -17852254.12147 -13897118.93347  21964721.9144   21964717.2074
        45.5004         46.2504
 -16311526.17447 -12826761.02547  21669787.2274   21669782.8674
        46.0004         46.2504
  -1973856.86146  -1392586.59145  24617473.5394   24617469.8554
        38.2504         33.5004
 20  5  1  0 58 30.0000000  0 10G16G23G27G 9G 4G22G 7G 3G26G31
 -23357437.67047 -18498820.92746  20403478.2974   20403470.8874
        46.5004         39.2504
 -14596983.72148 -11682262.86445  21988761.9694   21988752.3874
        48.7504         34.7504
  -2232489.48646  -1711057.01145  24586336.0394   24586331.9534
        37.5004         31.0004
 -17411217.63047 -13545745.42547  22070742.0784   22070737.4184
        47.0004         46.7504
 -26939379.73047 -20966685.09046  20378309.3054   20378302.6454
        47.2504         40.5004
 -10116038.05147  -7863026.27744  23770799.1724   23770789.8594
        43.5004         25.5004
  -4976880.48946  -3837714.49045  24496031.4064   24496023.8834
        41.2504         33.0004
 -17767479.90347 -13831061.12547  21980853.6644   21980849.2854
        45.5004         46.2504
 -16246264.57647 -12775907.84847  21682205.9774   21682201.6914
        45.5004         46.0004
  -1880504.32446  -1319844.38945  24635239.6024   24635231.4454
        40.7504         30.7504
 20  5  1  0 59  0.0000000  0 10G16G23G27G 9G 4G22G 7G 3G26G31
 -23364439.25348 -18504276.71046  20402146.5554   20402138.6374
        48.2504         40.0004
 -14669649.09948 -11738885.24345  21974933.9694   21974924.4184
        49.0004         34.7504
  -2328081.41445  -1785544.11645  24568144.3134   24568141.8164
        35.7504         30.0004
 -17490141.25847 -13607244.35047  22055723.8594   22055718.4844
        46.2504         46.2504
 -26963966.31947 -20985843.48146  20373630.4924   20373624.0474
        46.7504         40.5004
 -10014404.41947  -7783831.28444  23790137.7734   23790129.7274
        42.5004         25.5004
  -5055173.77546  -3898722.24345  24481132.6254   24481124.8204
        41.5004         33.7504
 -17682336.67247 -13764715.78147  21997055.8834   21997051.5704
        45.5004         46.2504
 -16180551.36747 -12724702.76647  21694710.8364   21694706.4614
        46.5004         46.0004
  -1787174.59146  -1247119.95045  24652999.3284   24652992.5474
        39.2504         33.7504
 20  5  1  0 59 30.0000000  0 10G16G23G27G 9G 4G22G 7G 3G26G31
 -23370768.74547 -18509208.78146  20400941.4774   20400934.2344
        47.0004         39.0004
 -14742137.10648 -11795369.40545  21961139.5004   21961130.0634
        48.5004         34.0004
  -2423620.56146  -1859990.28944  24549963.4534   24549960.3524
        36.5004         29.2504
 -17568870.04647 -13668591.45847  22040741.7664   22040736.6724
        46.2504         46.2504
 -26988183.91047 -21004714.33946  20369022.1724   20369015.9454
        47.7504         40.7504
  -9912656.77947  -7704547.45644  23809501.3594   23809492.4104
        42.7504         26.0004
  -5133370.12247  -3959654.47345  24466252.2344   24466245.1524
        42.5004         34.7504
 -17596828.51947 -13698086.07347  22013327.4844   22013323.6564
        45.5004         46.2504
 -16114390.36447 -12673148.74847  21707301.2034   21707296.5204
        46.7504         46.0004
  -1693870.82746  -1174415.84345  24670752.7274   24670749.9884
        36.0004         32.5004
 20  5  1  1  0  0.0000000  0 10G16G23G27G 9G 4G22G 7G 3G26G31
 -23376425.39947 -18513616.55446  20399865.0314   20399857.6254
        47.0004         39.5004
 -14814445.61148 -11851713.70845  21947380.1174   21947370.7234
        49.0004         34.5004
  -2519102.91846  -1934392.06046  24531796.1414   24531792.9694
        41.2504         37.5004
 -17647401.37347 -13729784.70147  22025797.7034   22025792.6954
        46.7504         46.5004
 -27012030.43847 -21023296.06346  20364484.2034   20364477.6054
        46.5004         40.7504
  -9810796.83047  -7625176.11544  23828884.2974   23828875.1884
        43.0004         26.2504
  -5211468.68047  -4020510.51445  24451390.4774   24451383.4654
        42.0004         34.0004
 -17510957.37247 -13631173.52847  22029669.1414   22029664.2194
        45.2504         46.2504
 -16047783.25547 -12621247.12047  21719976.1484   21719971.3404
        45.2504         46.0004
  -1600592.90246  -1101731.83645  24688504.1954   24688498.0784
        38.2504         31.7504
 20  5  1  1  0 30.0000000  0 10G16G23G27G 9G 4G22G 7G 3G26G31
 -23381409.74747 -18517500.46846  20398916.5004   20398909.2194
        46.5004         39.7504
 -14886572.49448 -11907916.47645  21933654.5864   21933644.9964
        48.7504         34.5004
  -2614525.46546  -2008747.27045  24513636.0634   24513633.1804
        37.0004         32.0004
 -17725733.61247 -13790822.81747  22010892.2194   22010886.6414
        47.7504         46.5004
 -27035504.68747 -21041587.69546  20360017.4844   20360011.2774
        47.2504         40.5004
  -9708827.42746  -7545719.45044  23848288.8054   23848279.8834
        41.2504         25.5004
  -5289469.70546  -4081290.54445  24436547.2974   24436540.3244
        40.7504         33.7504
 -17424726.18447 -13563980.41747  22046077.8984   22046073.7584
        45.5004         46.2504
 -15980732.55747 -12568999.83747  21732735.3284   21732731.0394
        45.5004         46.2504
  -1507341.37446  -1029068.31545  24706248.5314   24706244.0514
        36.7504         32.2504
 20  5  1  1  1  0.0000000  0 10G16G23G27G 9G 4G22G 7G 3G26G31
 -23385721.47447 -18520860.25246  20398096.5864   20398088.6684
        47.0004         39.2504
 -14958515.95348 -11963976.32245  21919964.5634   21919955.2074
        49.0004         34.7504
  -2709884.60846  -2083053.12345  24495491.4924   24495486.4024
        40.5004         35.5004
 -17803864.51747 -13851704.03847  21996024.7664   21996019.4414
        46.7504         47.0004
 -27058604.93047 -21059587.89646  20355621.3914   20355615.1724
        47.2504         41.0004
  -9606750.93946  -7466179.38344  23867712.4224   23867704.2234
        41.5004         26.5004
  -5367372.94046  -4141994.37945  24421723.0164   24421715.9734
        40.5004         33.0004
 -17338137.28747 -13496508.58047  22062554.8134   22062551.1214
        45.0004         46.0004
 -15913240.41247 -12516408.56447  21745578.9064   21745574.4264
        45.7504         46.0004
  -1414116.80546   -956425.90045  24723990.3984   24723983.0514
        40.5004         32.2504
 20  5  1  1  1 30.0000000  0 10G16G23G27G 9G 4G22G 7G 3G26G31
 -23389361.42847 -18523696.57846  20397403.7344   20397395.7234
        47.0004         39.5004
 -15030274.63048 -12019892.17945  21906309.2274   21906299.6214
        48.5004         35.0004
  -2805177.57546  -2157307.39845  24477356.1564   24477353.7234
        37.2504         33.5004
 -17881792.88247 -13912427.44147  21981194.5474   21981189.6174
        46.5004         47.0004
 -27081330.46947 -21077296.11146  20351296.9694   20351290.6994
        46.7504         40.5004
  -9504570.57347  -7386558.36644  23887157.7974   23887148.7664
        42.5004         26.2504
  -5445177.99546  -4202621.70245  24406917.1254   24406909.7384
        40.2504         34.0004
 -17251194.06247 -13428760.63947  22079099.8524   22079095.7814
        45.0004         45.5004
 -15845309.82947 -12463475.65847  21758505.2504   21758501.2734
        46.2504         46.0004
  -1320920.45246   -883805.43745  24741725.2584   24741717.8134
        40.2504         31.5004
 20  5  1  1  2  0.0000000  0 10G16G23G27G 9G 4G22G 7G 3G26G31
 -23392329.26647 -18526009.17746  20396838.8524   20396831.2664
        47.0004         39.0004
 -15101846.32248 -12075662.32245  21892690.1564   21892680.3054
        48.7504         34.7504
  -2900400.76446  -2231507.26045  24459236.6254   24459232.9884
        38.7504         35.2504
 -17959516.33647 -13972991.16547  21966405.0314   21966399.3164
        46.2504         47.0004
 -27103679.45947 -21094710.91746  20347043.9304   20347038.0164
        47.0004         41.0004
  -9402288.35046  -7306857.96844  23906620.6334   23906611.9304
        41.5004         25.2504
  -5522884.47846  -4263172.21345  24392130.0394   24392122.3404
        41.0004         34.5004
 -17163898.76847 -13360738.36447  22095711.8284   22095707.3834
        45.0004         45.2504
 -15776942.77947 -12410202.64347  21771515.3364   21771510.9694
        45.5004         46.0004
  -1227752.56246   -811207.03445  24759452.7194   24759447.4614
        37.5004         31.0004
 20  5  1  1  2 30.0000000  0 10G16G23G27G 9G 4G22G 7G 3G26G31
 -23394625.26047 -18527798.26946  20396401.9454   20396394.0704
        47.2504         39.0004
 -15173229.31448 -12131285.43545  21879105.6644   21879096.8364
        48.5004         35.5004
  -2995550.87246  -2305650.19246  24441129.6804   24441126.7194
        37.7504         36.0004
 -18037033.17547 -14033393.89647  21951654.0164   21951648.7234
        47.0004         47.0004
 -27125650.71647 -21111831.38946  20342862.9144   20342856.6884
        47.2504         40.5004
  -9299907.23447  -7227080.51244  23926104.2424   23926094.7734
        43.0004         26.5004
  -5600492.61546  -4323646.09345  24377361.9454   24377354.0784
        41.7504         34.5004
 -17076254.35247 -13292444.03447  22112389.8284   22112385.6174
        45.0004         45.2504
 -15708141.83147 -12356591.52347  21784607.7894   21784603.3794
        45.5004         46.0004
  -1134613.76246   -738631.53944  24777177.5704   24777171.0514
        37.2504         29.7504
 20  5  1  1  3  0.0000000  0 10G16G23G27G 9G 4G22G 7G 3G26G31
 -23396250.06647 -18529064.35446  20396092.8204   20396084.9964
        47.0004         39.5004
 -15244421.73648 -12186760.04845  21865558.2504   21865548.8674
        49.0004         35.2504
  -3090624.62045  -2379733.57945  24423037.0474   24423034.7774
        35.5004         32.2504
 -18114341.42347 -14093634.08347  21936941.8674   21936937.1454
        46.7504         47.2504
 -27147242.75147 -21128656.36146  20338754.3444   20338748.0124
        46.7504         40.7504
  -9197429.74246  -7147227.94944  23945603.4454   23945595.3244
        41.2504         26.5004
  -5678002.13446  -4384043.14345  24362612.1644   24362604.6644
        41.0004         34.7504
 -16988263.38347 -13223879.68647  22129133.9454   22129129.9264
        44.5004         45.2504
 -15638909.37547 -12302644.16747  21797782.2274   21797777.7974
        46.0004         45.7504
  -1041504.94046   -666079.20644  24794895.4144   24794888.3054
        38.2504         28.5004
 20  5  1  1  3 30.0000000  0 10G16G23G27G 9G 4G22G 7G 3G26G31
 -23397203.41447 -18529807.21846  20395911.2734   20395903.3164
        47.0004         39.2504
 -15315421.59248 -12242084.60545  21852047.2974   21852038.1764
        49.0004         35.5004
  -3185618.57146  -2453754.81445  24404960.5634   24404957.7704
        37.7504         34.5004
 -18191439.08147 -14153710.18847  21922271.4224   21922265.9574
        46.5004         47.0004
 -27168454.18547 -21145184.75046  20334717.7424   20334711.5394
        47.7504         40.5004
  -9094858.32147  -7067302.22044  23965123.6484   23965114.2774
        42.0004         24.5004
  -5755412.52546  -4444362.94945  24347881.4774   24347874.0704
        40.7504         34.2504
 -16899928.57947 -13155047.40347  22145943.3594   22145939.3164
        45.2504         45.5004
 -15569247.75147 -12248362.39647  21811038.2194   21811034.1484
        45.5004         45.7504
   -948426.51346   -593550.64645  24812608.7194   24812601.0664
        40.2504         31.7504
 20  5  1  1  4  0.0000000  0 10G16G23G27G 9G 4G22G 7G 3G26G31
 -23397486.72647 -18530027.97646  20395857.1804   20395849.8444
        47.5004         39.7504
 -15386227.99548 -12297258.42745  21838573.7424   21838563.9774
        48.5004         35.0004
  -3280529.92146  -2527711.70845  24386899.6334   24386895.0984
        37.7504         30.2504
 -18268324.90347 -14213621.21747  21907640.2194   21907635.1374
        46.2504         47.2504
 -27189284.25147 -21161415.98246  20330753.7894   20330747.5274
        47.0004         40.7504
  -8992196.11646  -6987305.71844  23984657.7194   23984650.6764
        40.7504         25.5004
  -5832724.49846  -4504606.04045  24333169.1414   24333162.0394
        40.2504         34.2504
 -16811253.31047 -13085949.81047  22162817.6094   22162813.4574
        44.7504         45.2504
 -15499160.02847 -12193748.60847  21824375.2504   21824371.3914
        45.2504         46.0004
   -855380.05946   -521046.96045  24830314.8754   24830307.9304
        39.2504         32.5004
 20  5  1  1  4 30.0000000  0 10G16G23G27G 9G 4G22G 7G 3G26G31
 -23397099.31547 -18529726.09246  20395931.0234   20395923.3404
        46.5004         39.5004
 -15456837.85548 -12352279.08545  21825136.5004   21825127.9734
        48.2504         35.5004
  -3375354.79046  -2601601.22445  24368855.9454   24368852.6884
        40.0004         35.2504
 -18344996.28347 -14273365.15247  21893050.1644   21893045.1884
        46.2504         47.2504
 -27209731.00847 -21177348.52246  20326863.1564   20326856.6484
        47.0004         40.7504
  -8889445.32846  -6907240.22344  24004211.3204   24004202.9964
        40.7504         24.0004
  -5909937.38546  -4564771.92745  24318476.0784   24318469.1484
        41.0004         35.0004
 -16722239.73147 -13016588.60347  22179756.9224   22179752.7974
        45.0004         45.2504
 -15428648.02447 -12138804.20047  21837793.3834   21837789.6024
        45.2504         45.5004
   -762365.14046   -448567.93545  24848016.5944   24848007.7344
        40.7504         32.7504
 20  5  1  1  5  0.0000000  0 10G16G23G27G 9G 4G22G 7G 3G26G31
 -23396041.67047 -18528901.96546  20396132.4224   20396124.6484
        46.5004         39.7504
 -15527249.67848 -12407145.43445  21811738.0944   21811728.3984
        48.7504         35.5004
  -3470089.86146  -2675420.77845  24350827.1254   24350824.1484
        37.2504         33.5004
 -18421451.40847 -14332940.57247  21878501.5234   21878496.1844
        46.2504         47.5004
 -27229793.07247 -21192981.29646  20323045.3524   20323039.0984
        47.0004         40.5004
  -8786608.53146  -6827107.69744  24023781.4144   24023772.2464
        41.7504         24.0004
  -5987050.74346  -4624860.25645  24303802.0234   24303794.8754
        40.7504         35.2504
 -16632890.60447 -12946965.93547  22196759.3594   22196754.8954
        45.0004         45.5004
 -15357714.25647 -12083531.14947  21851291.7114   21851287.6604
        45.2504         45.5004
   -669382.90446   -376114.25445  24865708.1484   24865702.3674
        39.0004         32.5004
 20  5  1  1  5 30.0000000  0 10G16G23G27G 9G 4G22G 7G 3G26G31
 -23394314.26547 -18527555.93146  20396461.1724   20396453.0944
        46.7504         39.0004
 -15597461.63948 -12461856.04545  21798377.3364   21798367.6134
        48.2504         35.2504
  -3564731.82846  -2749167.73845  24332819.2974   24332814.5004
        41.7504         35.5004
 -18497688.37047 -14392345.99047  21863994.0234   21863988.7304
        46.0004         47.5004
 -27249469.23047 -21208313.36946  20319301.2034   20319294.4304
        46.5004         41.0004
  -8683688.30146  -6746910.11644  24043365.0784   24043357.5314
        40.5004         25.5004
  -6064064.21246  -4684870.72945  24289146.6724   24289139.5824
        40.5004         34.2504
 -16543208.80247 -12877084.04447  22213825.1174   22213820.9574
        45.0004         45.0004
 -15286361.25047 -12027931.43447  21864869.7974   21864866.0084
        45.2504         45.5004
   -576433.71246   -303686.42744  24883395.3754   24883389.2544
        37.2504         29.0004
 20  5  1  1  6  0.0000000  0 10G16G23G27G 9G 4G22G 7G 3G26G31
 -23391917.79747 -18525688.54946  20396917.2584   20396909.5704
        46.5004         39.5004
 -15667472.12948 -12516409.66745  21785054.4694   21785045.2974
        48.0004         35.5004
  -3659277.53946  -2822839.68645  24314827.4844   24314823.6524
        40.0004         35.2504
 -18573705.40847 -14451580.03847  21849528.2114   21849523.3284
        45.5004         47.5004
 -27268758.32747 -21223343.83746  20315630.1954   20315623.9494
        47.0004         41.0004
  -8580687.49947  -6666649.82744  24062967.0554   24062957.7814
        42.0004         26.2504
  -6140978.21046  -4744803.71845  24274510.1644   24274503.7504
        41.2504         34.7504
 -16453197.23147 -12806945.18047  22230954.1724   22230949.5784
        45.2504         45.0004
 -15214591.61347 -11972007.04647  21878527.1954   21878522.6024
        45.0004         45.5004
   -483518.36246   -231284.91844  24901077.3134   24901069.9344
        38.2504         27.7504
 20  5  1  1  6 30.0000000  0 10G16G23G27G 9G 4G22G 7G 3G26G31
 -23388853.52647 -18523300.80246  20397500.2194   20397492.2854
        47.2504         39.0004
 -15737279.97248 -12570805.38745  21771770.5394   21771761.1024
        48.5004         35.5004
  -3753724.31446  -2896434.69446  24296854.9064   24296851.3404
        39.7504         37.5004
 -18649501.39747 -14510641.84447  21835104.7424   21835099.7424
        46.2504         47.5004
 -27287659.77747 -21238072.24746  20312033.4774   20312027.4804
        46.7504         40.7504
  -8477609.25847  -6586329.16044  24082583.3524   24082572.8914
        42.0004         24.7504
  -6217793.28046  -4804659.63245  24259893.7664   24259886.1294
        40.0004         34.5004
 -16362859.50647 -12736552.17947  22248144.0164   22248140.6054
        44.5004         44.7504
 -15142408.61747 -11915760.57247  21892263.1484   21892258.8094
        44.5004         45.0004
   -390638.32346   -158910.83444  24918752.0864   24918742.9384
        38.5004         27.0004
 20  5  1  1  7  0.0000000  0 10G16G23G27G 9G 4G22G 7G 3G26G31
 -23385120.05447 -18520391.60946  20398210.6174   20398202.7114
        47.5004         39.2504
 -15806881.29448 -12625040.17645  21758525.5164   21758516.2894
        48.7504         35.5004
  -3848067.24446  -2969948.52046  24278901.7504   24278898.7154
        38.0004         36.0004
 -18725072.56747 -14569528.45747  21820724.5314   21820719.0164
        46.5004         47.7504
 -27306170.46447 -21252496.15946  20308511.0704   20308505.0314
        47.2504         41.0004
  -8374454.56246  -6505948.90744  24102212.1804   24102202.8914
        41.5004         24.2504
  -6294507.31446  -4864436.81245  24245295.0004   24245287.7814
        40.2504         34.5004
 -16272196.56547 -12665905.76747  22265396.9064   22265392.9924
        44.7504         44.5004
 -15069812.96047 -11859192.53947  21906077.8524   21906073.7544
        45.2504         45.2504
   -297792.21546    -86563.33544  24936420.8284   24936412.6914
        38.2504         29.7504
 20  5  1  1  7 30.0000000  0 10G16G23G27G 9G 4G22G 7G 3G26G31
 -23380720.31347 -18516963.22446  20399048.0944   20399040.4144
        47.5004         38.7504
 -15876276.75148 -12679114.55145  21745320.3284   21745310.8404
        48.2504         35.2504
  -3942304.82146  -3043380.44945  24260968.7894   24260963.7814
        38.0004         32.7504
 -18800419.17347 -14628240.10247  21806386.3914   21806380.8954
        47.0004         47.7504
 -27324291.28147 -21266616.27746  20305062.7424   20305056.9774
        46.7504         41.5004
  -8271228.22046  -6425512.84143  24121855.1414   24121846.4534
        40.5004         22.5004
  -6371122.85046  -4924137.24945  24230715.8364   24230708.3674
        41.5004         35.0004
 -16181213.44947 -12595009.86247  22282710.9064   22282706.7274
        45.5004         44.5004
 -14996809.33247 -11802306.61547  21919969.5634   21919965.6334
        45.2504         45.0004
   -204983.31046    -14244.68545  24954082.1724   24954072.1334
        40.5004         30.5004
 20  5  1  1  8  0.0000000  0 10G16G23G27G 9G 4G22G 7G 3G26G31
 -23375652.97147 -18513014.64146  20400012.2344   20400004.3834
        47.5004         39.0004
 -15945462.63548 -12733025.62045  21732154.9304   21732145.4184
        48.7504         35.2504
  -4036432.36446  -3116726.55145  24243056.5634   24243053.5314
        39.0004         35.5004
 -18875537.71447 -14686774.01448  21792091.4224   21792086.2034
        47.0004         48.0004
 -27342019.37247 -21280430.39046  20301689.4304   20301683.0274
        47.5004         40.7504
  -8167931.19946  -6345021.68743  24141512.6094   24141502.7274
        41.5004         23.0004
  -6447637.32447  -4983758.93545  24216155.5164   24216147.6524
        42.0004         34.7504
 -16089911.40047 -12523865.43647  22300084.8674   22300080.7734
        44.5004         44.5004
 -14923398.66547 -11745103.51247  21933938.8054   21933935.1844
        45.7504         45.0004
   -112210.40646     58045.89645  24971735.7034   24971727.6294
        40.0004         32.0004
 20  5  1  1  8 30.0000000  0 10G16G23G27G 9G 4G22G 7G 3G26G31
 -23369918.98147 -18508546.59446  20401103.1954   20401095.7034
        47.7504         38.7504
 -16014437.51648 -12786772.27145  21719028.9774   21719019.7854
        48.2504         35.5004
  -4130446.67446  -3189984.41745  24225165.6254   24225161.8794
        37.0004         31.7504
 -18950426.51847 -14745128.92347  21777841.0944   21777835.2854
        47.0004         47.7504
 -27359353.71147 -21293937.68446  20298390.8444   20298384.6094
        47.5004         41.2504
  -8064566.44147  -6264477.78843  24161181.9844   24161172.1414
        42.2504         22.7504
  -6524051.44046  -5043302.39545  24201614.5234   24201607.1844
        41.7504         35.5004
 -15998293.49747 -12452474.88647  22317519.2114   22317515.1644
        45.0004         44.5004
 -14849583.71447 -11687585.38347  21947985.7504   21947981.8094
        45.2504         44.7504
    -19474.30946    130307.69945  24989382.8914   24989374.3164
        39.7504         31.2504
 20  5  1  1  9  0.0000000  0 10G16G23G27G 9G 4G22G 7G 3G26G31
 -23363519.22648 -18503559.76846  20402320.9924   20402313.2194
        48.0004         39.7504
 -16083199.82048 -12840353.29745  21705944.2274   21705934.9924
        49.0004         35.5004
  -4224344.63046  -3263151.65246  24207299.0004   24207294.2774
        40.5004         36.0004
 -19025083.81947 -14803303.43648  21763633.7814   21763628.4534
        47.0004         48.0004
 -27376293.18747 -21307137.28446  20295167.2814   20295160.7814
        47.5004         41.2504
  -7961136.78346  -6183883.27244  24180863.6174   24180854.5634
        41.2504         24.5004
  -6600365.05147  -5102767.55746  24187092.0784   24187085.9534
        42.5004         36.2504
 -15906362.79947 -12380840.60847  22335013.3364   22335009.1644
        45.2504         44.2504
 -14775367.27247 -11629754.40947  21962108.7114   21962104.8484
        45.0004         45.0004
     73224.22945    202540.23744  25007020.5314   25007015.3014
        35.5004         28.0004
 20  5  1  1  9 30.0000000  0 10G16G23G27G 9G 4G22G 7G 3G26G31
 -23356453.64748 -18498054.11346  20403665.7584   20403657.5824
        48.0004         39.0004
 -16151746.73148 -12893766.47445  21692899.8754   21692891.0904
        49.0004         35.5004
  -4318122.04446  -3336224.93145  24189452.9774   24189449.9384
        41.0004         35.7504
 -19099506.99647 -14861295.51247  21749471.2974   21749466.2464
        46.5004         47.7504
 -27392835.80547 -21320027.65046  20292019.6094   20292012.9884
        47.2504         41.2504
  -7857643.92746  -6103239.53243  24200557.9454   24200548.7774
        40.2504         22.7504
  -6676577.44346  -5162153.85246  24172589.4454   24172582.9264
        41.5004         36.0004
 -15814121.41047 -12308964.23147  22352566.2034   22352561.6994
        44.7504         44.0004
 -14700751.08147 -11571611.94347  21976308.0634   21976303.8094
        45.5004         44.7504
    165885.53046    274743.67844  25024655.2584   25024648.6134
        36.5004         25.7504
 20  5  1  1 10  0.0000000  0 10G16G23G27G 9G 4G22G 7G 3G26G31
 -23348724.59748 -18492031.47246  20405136.2974   20405128.6804
        48.0004         38.7504
 -16220077.83548 -12947011.48745  21679897.2894   21679887.5314
        48.5004         35.5004
  -4411777.24546  -3409203.03345  24171630.8204   24171626.9734
        40.0004         33.5004
 -19173695.66747 -14919104.86448  21735353.7734   21735348.2934
        46.2504         48.0004
 -27408981.90447 -21332609.04246  20288946.6954   20288940.5164
        47.7504         41.0004
  -7754092.01446  -6022549.75743  24220262.6094   24220254.0474
        39.0004         22.5004
  -6752689.86946  -5221462.23245  24158105.8364   24158098.4734
        40.7504         35.0004
 -15721573.79647 -12236849.24147  22370177.3444   22370173.4184
        44.7504         44.0004
 -14625739.28147 -11513161.20247  21990582.5394   21990577.8524
        45.5004         44.5004
    258506.91246    346916.13045  25042281.5394   25042273.9534
        39.7504         32.0004
 20  5  1  1 10 30.0000000  0 10G16G23G27G 9G 4G22G 7G 3G26G31
 -23340331.96448 -18485491.74746  20406733.3134   20406725.3204
        48.0004         39.5004
 -16288190.49048 -13000086.28846  21666936.0474   21666926.3674
        48.5004         36.0004
  -4505306.04446  -3482082.64946  24153833.2584   24153829.9344
        39.5004         36.2504
 -19247647.03047 -14976729.29048  21721281.6804   21721276.0634
        46.7504         48.0004
 -27424729.40247 -21344879.83546  20285950.0084   20285943.9534
        47.0004         41.0004
  -7650483.04346  -5941815.52344  24239978.7034   24239970.4064
        40.7504         24.2504
  -6828701.46747  -5280692.02645  24143641.6804   24143634.1134
        42.0004         35.5004
 -15628721.90447 -12164497.15947  22387847.0394   22387842.4224
        45.0004         43.7504
 -14550333.59947 -11454403.54547  22004931.3134   22004926.9534
        46.0004         44.5004
    351088.79746    419057.79145  25059899.2664   25059892.6454
        40.7504         32.0004
 20  5  1  1 11  0.0000000  0 10G16G23G27G 9G 4G22G 7G 3G26G31
 -23331276.10448 -18478435.23146  20408456.7034   20408449.3094
        48.2504         39.5004
 -16356082.86448 -13052989.44945  21654016.0084   21654006.7734
        48.7504         35.7504
  -4598704.91446  -3554860.98245  24136059.7974   24136056.1644
        40.0004         35.2504
 -19321359.06847 -15034167.24048  21707254.4924   21707249.5474
        47.0004         48.5004
 -27440076.93547 -21356838.97046  20283030.2664   20283023.4654
        47.0004         41.5004
  -7546819.40046  -5861038.69443  24259704.8984   24259696.6334
        39.0004         22.5004
  -6904612.15946  -5339843.22346  24129195.6094   24129189.6214
        39.7504         36.0004
 -15535568.57947 -12091910.18147  22405572.9774   22405568.9024
        45.0004         44.0004
 -14474536.55047 -11395340.92547  22019355.2584   22019350.8444
        45.2504         44.2504
    443630.79446    491168.46945  25077509.2504   25077501.8484
        40.5004         31.0004
 20  5  1  1 11 30.0000000  0 10G16G23G27G 9G 4G22G 7G 3G26G31
 -23321558.05447 -18470862.71646  20410305.9844   20410298.2934
        47.7504         39.5004
 -16423752.77948 -13105719.25746  21641139.2424   21641129.8794
        49.0004         36.0004
  -4691970.51046  -3627535.41145  24118311.9064   24118307.9534
        39.0004         35.0004
 -19394829.77047 -15091417.13848  21693273.7034   21693268.5234
        47.0004         48.5004
 -27455023.21247 -21368485.42946  20280185.2194   20280179.4494
        47.5004         41.0004
  -7443103.73346  -5780221.34343  24279440.8444   24279433.7114
        38.5004         23.5004
  -6980421.32346  -5398915.29045  24114770.1804   24114763.5204
        40.7504         35.2504
 -15442116.63647 -12019090.51347  22423356.0164   22423352.5044
        44.7504         44.0004
 -14398350.53047 -11335975.21347  22033852.7734   22033848.1994
        45.2504         44.2504
    536132.48446    563247.66145  25095110.9224   25095104.5124
        39.7504         32.2504
 20  5  1  1 12  0.0000000  0 10G16G23G27G 9G 4G22G 7G 3G26G31
 -23311178.89448 -18462775.05746  20412281.0784   20412273.0004
        48.5004         39.0004
 -16491198.72948 -13158274.54746  21628304.2584   21628294.9024
        48.5004         36.0004
  -4785099.67146  -3700103.56046  24100591.0164   24100585.7304
        40.0004         36.0004
 -19468057.42448 -15148477.64648  21679338.8524   21679333.6804
        48.0004         48.5004
 -27469567.28247 -21379818.47746  20277417.7974   20277411.5634
        47.0004         41.0004
  -7339338.69946  -5699365.53844  24299188.7114   24299178.9454
        40.7504         24.0004
  -7056129.59246  -5457908.74546  24100363.0164   24100356.3874
        41.7504         36.0004
 -15348369.17247 -11946040.59347  22441195.6724   22441191.9064
        44.7504         43.5004
 -14321778.45947 -11276308.67847  22048424.2344   22048419.5984
        45.0004         44.5004
    628592.81846    635294.60443  25112704.8284   25112699.6684
        36.5004         22.0004
 20  5  1  1 12 30.0000000  0 10G16G23G27G 9G 4G22G 7G 3G26G31
 -23300138.83748 -18454172.41446  20414381.9924   20414374.2814
        48.5004         39.7504
 -16558418.06548 -13210653.25945  21615512.9774   21615503.9414
        49.2504         35.5004
  -4878088.28446  -3772562.20246  24082894.2734   24082891.4024
        39.0004         36.7504
 -19541039.40547 -15205346.72148  21665451.0704   21665445.5904
        47.5004         48.5004
 -27483707.21747 -21390836.61846  20274727.3754   20274720.6914
        47.7504         41.5004
  -7235526.21046  -5618472.74043  24318942.0704   24318934.0944
        39.2504         22.7504
  -7131736.01246  -5516822.82146  24085975.5944   24085969.1214
        41.0004         36.0004
 -15254328.43047 -11872762.12147  22459091.4454   22459087.2894
        46.0004         44.0004
 -14244822.17947 -11216342.76847  22063068.1414   22063064.1174
        45.5004         44.2504
    721012.04446    707309.45443  25130292.3204   25130286.4534
        36.0004         20.7504
 20  5  1  1 13  0.0000000  0 10G16G23G27G 9G 4G22G 7G 3G26G31
 -23288439.26748 -18445055.86046  20416608.9144   20416600.5554
        48.2504         39.2504
 -16625409.83348 -13262854.64045  21602765.0474   21602756.0824
        48.5004         35.7504
  -4970933.92046  -3844909.39846  24065226.4924   24065223.6604
        39.7504         37.5004
 -19613774.53247 -15262023.44848  21651609.7504   21651604.5234
        47.0004         48.7504
 -27497442.68247 -21401539.59546  20272113.5164   20272107.3674
        47.5004         41.2504
  -7131670.12346  -5537545.96643  24338707.3834   24338696.9734
        40.5004         22.5004
  -7207241.32546  -5575658.14845  24071607.4144   24071600.9454
        40.5004         35.7504
 -15159998.14747 -11799258.03747  22477041.4304   22477037.7704
        45.2504         44.0004
 -14167485.11247 -11156080.13947  22077785.2424   22077780.6334
        45.0004         44.2504
    813388.66645    779291.22943  25147869.5864   25147864.8874
        35.5004         20.5004
 20  5  1  1 13 30.0000000  0 10G16G23G27G 9G 4G22G 7G 3G26G31
 -23276080.84848 -18435425.92246  20418960.0634   20418952.0744
        48.5004         39.2504
 -16692171.65548 -13314876.84845  21590060.7734   21590051.4964
        48.0004         35.5004
  -5063632.66146  -3917142.15446  24047587.3054   24047582.9144
        39.5004         36.0004
 -19686260.47648 -15318506.00848  21637816.1804   21637810.9414
        48.0004         48.7504
 -27510771.96347 -21411926.06046  20269576.9924   20269570.5274
        47.7504         41.5004
  -7027772.25446  -5456586.62243  24358477.6644   24358468.0204
        40.5004         22.0004
  -7282644.63946  -5634413.97946  24057259.3054   24057251.8794
        41.5004         36.0004
 -15065380.73147 -11725530.22247  22495047.2504   22495042.9024
        45.2504         43.5004
 -14089769.41647 -11095522.46747  22092574.1954   22092569.3794
        44.7504         44.0004
    905722.71746    851239.65643  25165443.1334   25165436.1804
        39.2504         20.5004
 20  5  1  1 14  0.0000000  0 10G16G23G27G 9G 4G22G 7G 3G26G31
 -23263064.96747 -18425283.67846  20421437.0864   20421429.3134
        47.5004         39.5004
 -16758701.64548 -13366718.40246  21577400.5394   21577391.2814
        48.2504         36.0004
  -5156181.50346  -3989258.13845  24029975.5864   24029970.5824
        39.7504         34.5004
 -19758495.52547 -15374793.06548  21624070.1094   21624064.9024
        47.2504         48.7504
 -27523694.21247 -21421995.35546  20267118.1254   20267111.6884
        47.0004         41.7504
  -6923835.51846  -5375596.97243  24378255.2894   24378246.9304
        40.0004         21.5004
  -7357946.37646  -5693090.69846  24042928.7664   24042922.4454
        41.0004         36.0004
 -14970479.42747 -11651581.17447  22513105.7584   22513101.7584
        44.7504         43.5004
 -14011677.95847 -11034672.00447  22107434.5084   22107429.8754
        44.7504         44.0004
    998013.02647    923154.08844  25183004.9694   25182997.9614
        42.0004         24.5004
 20  5  1  1 14 30.0000000  0 10G16G23G27G 9G 4G22G 7G 3G26G31
 -23249391.96447 -18414629.38946  20424038.7814   20424031.0514
        47.5004         39.2504
 -16824997.82548 -13418377.75246  21564784.7194   21564775.3094
        48.0004         36.2504
  -5248576.52846  -4061254.21845  24012393.8134   24012389.3134
        41.0004         34.7504
 -19830477.23747 -15430882.70848  21610372.4064   21610367.3444
        47.2504         48.7504
 -27536207.72547 -21431746.16046  20264736.6174   20264730.4734
        47.2504         41.5004
  -6819861.82546  -5294578.55943  24398041.2584   24398032.4574
        39.5004         21.5004
  -7433146.37446  -5751688.08946  24028619.9844   24028612.0864
        41.5004         36.0004
 -14875296.63147 -11577412.79847  22531218.7424   22531214.2584
        45.0004         42.7504
 -13933212.86947 -10973530.39147  22122365.5084   22122361.5084
        44.5004         43.7504
   1090259.62446    995034.55643  25200558.7974   25200551.3054
        40.5004         19.0004
 20  5  1  1 15  0.0000000  0 10G16G23G27G 9G 4G22G 7G 3G26G31
 -23235062.68547 -18403463.70446  20426765.5864   20426757.7234
        47.5004         38.7504
 -16891057.86448 -13469853.11646  21552213.8914   21552204.3554
        49.0004         36.2504
  -5340814.28646  -4133127.78245  23994841.1954   23994836.6914
        39.5004         34.0004
 -19902203.48747 -15486773.29848  21596723.5004   21596718.2034
        47.7504         48.7504
 -27548311.26447 -21441177.49546  20262433.3674   20262427.4614
        47.2504         41.5004
  -6715853.95546  -5213533.52443  24417833.2194   24417825.0234
        41.2504         22.5004
  -7508243.99446  -5810205.72045  24014328.7344   24014321.4384
        41.2504         34.5004
 -14779835.16547 -11503027.26347  22549384.3054   22549379.6484
        45.0004         42.5004
 -13854376.60747 -10912099.55847  22137367.4844   22137363.5004
        44.5004         43.7504
   1182462.37946   1066880.81043  25218104.3834   25218097.0474
        39.2504         19.2504
 20  5  1  1 15 30.0000000  0 10G16G23G27G 9G 4G22G 7G 3G26G31
 -23220078.97247 -18391788.08746  20429617.0784   20429608.9454
        47.7504         39.0004
 -16956880.65348 -13521143.60046  21539688.3054   21539678.9024
        48.0004         36.2504
  -5432892.20546  -4204876.79045  23977319.2194   23977314.8714
        40.0004         34.7504
 -19973673.14747 -15542463.94948  21583123.2424   21583117.9264
        47.7504         49.0004
 -27560004.42147 -21450289.05946  20260208.2974   20260202.4534
        47.0004         41.5004
  -6611815.15546  -5132464.35143  24437630.3984   24437623.4064
        40.0004         22.7504
  -7583239.79847  -5868644.01945  24000058.0314   24000050.8284
        42.0004         35.2504
 -14684098.75847 -11428427.49747  22567603.2424   22567598.0744
        45.0004         43.0004
 -13775172.57647 -10850382.15347  22152439.5084   22152435.6024
        44.5004         43.7504
   1274619.89646   1138691.93342  25235640.6724   25235633.8094
        38.7504         17.7504
 20  5  1  1 16  0.0000000  0 10G16G23G27G 9G 4G22G 7G 3G26G31
 -23204441.05648 -18379602.69446  20432592.6024   20432584.7114
        48.2504         39.5004
 -17022463.47748 -13572247.10146  21527208.1724   21527198.6484
        48.5004         36.0004
  -5524805.99246  -4276497.92045  23959827.0784   23959824.7304
        39.0004         35.5004
 -20044883.36347 -15597952.43048  21569572.8524   21569567.3404
        47.0004         49.0004
 -27571285.16047 -21459079.26546  20258061.9694   20258055.6094
        47.7504         41.5004
  -6507747.22546  -5051372.52043  24457434.6174   24457426.9774
        40.7504         23.7504
  -7658132.88946  -5927002.28046  23985805.6954   23985799.6374
        41.2504         36.0004
 -14588089.47747 -11353615.10047  22585872.7424   22585868.4024
        45.5004         42.7504
 -13695602.58947 -10788379.58947  22167581.6094   22167577.1414
        44.7504         44.0004
   1366732.32146   1210467.69843  25253168.8914   25253163.7344
        36.0004         18.5004
 20  5  1  1 16 30.0000000  0 10G16G23G27G 9G 4G22G 7G 3G26G31
 -23188150.09547 -18366908.43346  20435692.5554   20435684.7384
        47.2504         39.2504
 -17087804.72648 -13623162.34846  21514774.4144   21514764.8014
        48.0004         36.0004
  -5616552.57846  -4347988.72246  23942369.8364   23942366.7664
        39.7504         37.5004
 -20115832.35147 -15653237.34548  21556071.4224   21556066.2894
        46.7504         49.0004
 -27582152.58047 -21467547.39347  20255993.7424   20255987.3094
        47.2504         42.0004
  -6403652.82846  -4970260.06043  24477242.8204   24477235.0634
        40.5004         22.5004
  -7732923.88047  -5985280.99046  23971573.7664   23971567.8834
        42.0004         37.2504
 -14491810.46847 -11278592.52647  22604193.9924   22604189.8204
        45.0004         43.0004
 -13615669.39347 -10726093.99847  22182792.0164   22182787.9064
        44.5004         43.5004
   1458799.23945   1282208.10743  25270688.4454   25270683.2774
        34.7504         18.2504
 20  5  1  1 17  0.0000000  0 10G16G23G27G 9G 4G22G 7G 3G26G31
 -23171207.50247 -18353706.41246  20438917.1094   20438909.0164
        47.0004         39.2504
 -17152902.73147 -13673888.06646  21502386.5634   21502377.2504
        47.7504         36.0004
  -5708128.87346  -4419346.82846  23924943.3834   23924940.7154
        40.7504         38.5004
 -20186518.49247 -15708317.45648  21542619.9924   21542614.8134
        46.5004         49.2504
 -27592605.85447 -21475692.81146  20254004.7194   20253998.5004
        47.0004         41.5004
  -6299535.23346  -4889129.53643  24497056.3984   24497047.7814
        40.5004         22.7504
  -7807612.41647  -6043479.82046  23957361.1024   23957354.0314
        42.2504         37.2504
 -14395264.96047 -11203362.29947  22622565.7664   22622561.8754
        44.7504         42.7504
 -13535375.98747 -10663527.72947  22198071.4844   22198067.2234
        43.5004         43.0004
   1550819.44946   1353912.14743  25288199.9844   25288193.8984
        38.0004         21.5004
 20  5  1  1 17 30.0000000  0 10G16G23G27G 9G 4G22G 7G 3G26G31
 -23153614.64947 -18339997.69246  20442264.7664   20442256.8594
        46.7504         40.0004
 -17217755.40147 -13724422.60546  21490045.4224   21490036.1024
        47.7504         36.0004
  -5799531.41146  -4490569.55546  23907550.5084   23907546.6254
        41.0004         38.7504
 -20256939.84247 -15763191.23348  21529219.3834   21529214.2544
        47.5004         49.2504
 -27602643.90647 -21483514.68446  20252094.3754   20252087.9804
        46.5004         41.7504
  -6195396.70746  -4807982.67443  24516872.8054   24516864.9844
        40.2504         22.5004
  -7882198.76647  -6101599.08446  23943167.3444   23943159.8554
        42.0004         36.2504
 -14298456.02047 -11127926.79147  22640988.2424   22640984.2154
        44.5004         43.0004
 -13454724.99647 -10600682.81347  22213418.8284   22213414.7814
        43.7504         43.0004
   1642792.38346   1425579.27943  25305701.6884   25305696.4694
        39.0004         23.0004
 20  5  1  1 18  0.0000000  0 10G16G23G27G 9G 4G22G 7G 3G26G31
 -23135371.93947 -18325782.59646  20445736.0634   20445728.3404
        47.0004         39.0004
 -17282360.27748 -13774764.07746  21477751.5704   21477742.6414
        48.0004         36.2504
  -5890756.14546  -4561653.71946  23890190.6094   23890186.8594
        40.2504         38.0004
 -20327093.54347 -15817856.43948  21515869.5704   21515864.5784
        46.5004         49.5004
 -27612264.74347 -21491011.44646  20250263.3594   20250257.3714
        46.7504         41.7504
  -6091239.17046  -4726821.04543  24536694.0004   24536685.3674
        40.7504         20.7504
  -7956681.75347  -6159637.75146  23928994.5164   23928986.1844
        42.5004         36.7504
 -14201385.68947 -11052287.59947  22659459.8754   22659456.0474
        44.5004         42.7504
 -13373718.20147 -10537560.65747  22228834.3914   22228829.5124
        44.0004         43.0004
   1734718.55946   1497209.94743  25323195.5704   25323188.7974
        39.5004         22.0004
 20  5  1  1 18 30.0000000  0 10G16G23G27G 9G 4G22G 7G 3G26G31
 -23116481.08647 -18311062.45046  20449330.7504   20449323.3714
        47.0004         39.5004
 -17346715.75847 -13824911.20346  21465504.9924   21465495.7584
        47.5004         36.0004
  -5981800.12746  -4632597.07646  23872864.7344   23872861.3914
        41.2504         37.7504
 -20396978.24647 -15872312.04448  21502570.9144   21502565.8594
        47.5004         49.5004
 -27621467.84347 -21498182.68947  20248512.4064   20248505.9344
        46.7504         42.0004
  -5987065.80747  -4645647.06243  24556519.0784   24556509.0824
        42.5004         20.7504
  -8031062.00847  -6217596.39546  23914839.7504   23914832.7074
        42.2504         36.7504
 -14104057.51347 -10976447.49047  22677980.5004   22677976.8554
        44.5004         42.2504
 -13292358.85247 -10474163.77647  22244315.9384   22244312.3954
        43.2504         43.0004
   1826596.73646   1568803.25843  25340679.2194   25340672.8444
        38.7504         19.0004
 20  5  1  1 19  0.0000000  0 10G16G23G27G 9G 4G22G 7G 3G26G31
 -23096942.93347 -18295837.90646  20453049.2974   20453041.1484
        47.7504         39.2504
 -17410819.70548 -13874862.32546  21453306.3204   21453297.1484
        48.2504         36.7504
  -6072659.80746  -4703396.76645  23855575.7344   23855571.2504
        39.7504         35.7504
 -20466591.60847 -15926556.21348  21489323.8204   21489318.8094
        47.5004         49.5004
 -27630251.78547 -21505027.32847  20246841.0474   20246834.6484
        47.5004         42.0004
  -5882878.64147  -4564462.31943  24576344.8284   24576334.7304
        42.5004         20.5004
  -8105339.31247  -6275474.79446  23900705.7344   23900698.8794
        43.5004         37.5004
 -14006474.15147 -10900408.52347  22696550.4384   22696546.6764
        45.0004         43.0004
 -13210649.24847 -10410493.97847  22259864.8364   22259861.0274
        44.0004         43.0004
   1918426.81345   1640359.19242  25358152.9924   25358147.6884
        35.2504         15.5004
 20  5  1  1 19 30.0000000  0 10G16G23G27G 9G 4G22G 7G 3G26G31
 -23076758.99647 -18280110.17046  20456889.4694   20456882.4184
        47.5004         38.7504
 -17474670.42748 -13924616.12746  21441156.5554   21441146.6724
        48.5004         37.0004
  -6163331.87546  -4774050.36246  23838320.5704   23838316.3914
        40.5004         36.2504
 -20535931.88147 -15980587.58848  21476129.0084   21476123.4804
        47.5004         49.5004
 -27638615.71247 -21511544.68147  20245249.4384   20245242.9384
        47.2504         42.0004
  -5778680.52846  -4483269.02243  24596173.6564   24596163.2624
        41.5004         21.5004
  -8179513.48947  -6333272.85446  23886590.2814   23886583.2304
        42.5004         36.7504
 -13908638.73247 -10824173.16147  22715167.1334   22715164.0314
        44.0004         42.2504
 -13128592.22047 -10346553.45747  22275479.7034   22275475.7384
        44.2504         42.7504
   2010208.19345   1711877.07542  25375618.5234   25375613.6134
        35.7504         16.2504
 20  5  1  1 20  0.0000000  0 10G16G23G27G 9G 4G22G 7G 3G26G31
 -23055930.37247 -18263880.07046  20460853.4144   20460845.8284
        47.5004         39.0004
 -17538265.63748 -13974170.83646  21429054.3984   21429044.7504
        48.2504         36.5004
  -6253812.79346  -4844554.91845  23821103.4844   23821097.3364
        38.7504         34.5004
 -20604996.81047 -16034404.41748  21462986.3524   21462981.2734
        47.5004         49.5004
 -27646558.31147 -21517733.73047  20243738.0314   20243731.5784
        47.7504         42.0004
  -5674473.98246  -4402069.12743  24616001.7504   24615993.3444
        40.5004         21.0004
  -8253584.37347  -6390990.44146  23872495.0234   23872487.7854
        43.5004         36.2504
 -13810554.06347 -10747743.58447  22733832.3054   22733829.0554
        45.0004         42.0004
 -13046190.21047 -10282344.12347  22291160.8594   22291156.5084
        44.0004         43.0004
   2101940.31246   1783356.56243  25393075.1954   25393068.2664
        38.5004         18.2504
 20  5  1  1 20 30.0000000  0 11G16G23G27G 9G 4G22G 7G 3G26G 8G31
 -23034458.83547 -18247148.99446  20464939.5394   20464931.1134
        47.7504         39.2504
 -17601604.15947 -14023525.52546  21417001.2504   21416992.1844
        47.7504         36.7504
  -6344099.81346  -4914908.48946  23803921.3134   23803917.8954
        39.5004         37.0004
 -20673785.06247 -16088005.64948  21449896.6644   21449891.2344
        47.5004         49.5004
 -27654079.13147 -21523594.11446  20242306.5394   20242300.3324
        47.0004         41.7504
  -5570262.09946  -4320865.08143  24635832.0394   24635824.4614
        39.5004         21.5004
  -8327552.68647  -6448628.07946  23858419.1564   23858412.4534
        43.0004         36.5004
 -13712223.69047 -10671122.54747  22752543.5704   22752540.7934
        44.2504         42.2504
 -12963446.44647 -10217868.48947  22306906.1484   22306902.4064
        43.5004         43.0004
   -611287.34156   -461497.76055  24985353.4384   24985349.9384
        36.5004         30.5004
   2193622.40346   1854797.26643  25410522.5164   25410514.7974
        41.0004         18.5004
 20  5  1  1 21  0.0000000  0 11G16G23G27G 9G 4G22G 7G 3G26G 8G31
 -23012345.89447 -18229918.13446  20469147.2894   20469139.6724
        47.5004         39.5004
 -17664684.39847 -14072678.95846  21404997.9144   21404988.3134
        47.7504         36.7504
  -6434189.87947  -4985108.49046  23786779.3134   23786774.7464
        42.0004         38.2504
 -20742294.97747 -16141389.99548  21436859.6174   21436854.2424
        47.0004         49.5004
 -27661177.43048 -21529125.26246  20240955.6484   20240949.6414
        48.0004         41.7504
  -5466047.98146  -4239659.34943  24655663.4694   24655655.8094
        40.0004         22.7504
  -8401418.52947  -6506185.87646  23844363.1564   23844356.0354
        42.5004         36.0004
 -13613650.95247 -10594312.67247  22771302.2894   22771298.2854
        44.5004         42.0004
 -12880363.99247 -10153128.93547  22322716.2734   22322712.7734
        44.0004         42.7504
   -711539.99146   -539616.70744  24966275.2424   24966272.7114
        36.0004         29.0004
   2285253.40546   1926197.97443  25427958.8754   25427952.6764
        39.0004         22.2504
 20  5  1  1 21 30.0000000  0 11G16G23G27G 9G 4G22G 7G 3G26G 8G31
 -22989590.25247 -18212186.46046  20473477.5554   20473469.8484
        47.7504         40.0004
 -17727501.45648 -14121627.32046  21393044.2034   21393034.6294
        48.0004         36.5004
  -6524076.70146  -5055150.16546  23769673.8914   23769669.3714
        41.5004         38.2504
 -20810521.64047 -16194553.62148  21423876.6414   21423870.8054
        46.5004         49.5004
 -27667849.29847 -21534324.12747  20239686.0234   20239680.0784
        47.0004         42.7504
  -5361830.89446  -4158451.31943  24675497.3444   24675487.8954
        40.2504         20.2504
  -8475179.63747  -6563662.06646  23830326.7344   23830319.5124
        42.7504         36.2504
 -13514835.88947 -10517313.94847  22790106.0084   22790102.2114
        44.2504         42.0004
 -12796942.51447 -10088125.21147  22338591.3524   22338586.8954
        44.2504         42.7504
   -811870.64945   -617796.43144  24947182.5164   24947179.3834
        34.7504         26.0004
   2376835.95446   1997560.90243  25445385.8054   25445380.9224
        36.7504         21.2504
 20  5  1  1 22  0.0000000  0 11G16G23G27G 9G 4G22G 7G 3G26G 8G31
 -22966195.77247 -18193956.99646  20477929.2034   20477921.9304
        47.0004         39.0004
 -17790055.85247 -14170370.99846  21381140.6174   21381130.8284
        47.7504         36.5004
  -6613759.38146  -5125032.78246  23752607.7584   23752603.1804
        41.7504         39.2504
 -20878465.60047 -16247496.97048  21410947.0084   21410941.6214
        46.5004         49.5004
 -27674096.18047 -21539191.84046  20238497.5474   20238491.3164
        46.7504         41.7504
  -5257616.16946  -4077245.09843  24695327.0944   24695318.9774
        39.2504         21.5004
  -8548837.00147  -6621057.40146  23816310.9694   23816302.9024
        43.2504         36.5004
 -13415784.07547 -10440130.75146  22808954.7974   22808951.0234
        44.2504         41.7504
 -12713187.19547 -10022861.34347  22354529.0784   22354525.0234
        43.5004         42.5004
   -912278.81846   -696036.60844  24928077.5864   24928072.3984
        37.0004         28.7504
   2468366.70846   2068883.49743  25462804.0944   25462797.7934
        38.5004         22.5004
 20  5  1  1 22 30.0000000  0 11G16G23G27G 9G 4G22G 7G 3G26G 8G31
 -22942163.09847 -18175230.23246  20482502.1484   20482494.8554
        47.2504         39.2504
 -17852344.57947 -14218907.66946  21369287.1024   21369278.0004
        47.7504         36.2504
  -6703233.64946  -5194752.95146  23735582.1094   23735577.7624
        41.2504         39.2504
 -20946123.89247 -16300217.71148  21398071.7814   21398066.6294
        47.0004         49.5004
 -27679916.07647 -21543726.83047  20237390.1174   20237383.9064
        47.5004         42.0004
  -5153405.49346  -3996042.05543  24715158.3524   24715149.8364
        39.5004         19.7504
  -8622390.09047  -6678371.49546  23802313.8984   23802306.5744
        43.0004         37.0004
 -13316497.43947 -10362764.57146  22827848.7194   22827844.7624
        44.5004         41.2504
 -12629099.73347  -9957338.67147  22370530.3674   22370526.3404
        43.5004         42.5004
  -1012760.95846   -774334.34544  24908955.1564   24908951.3134
        36.2504         26.5004
   2559846.45645   2140166.38842  25480211.2664   25480206.1174
        34.2504         14.7504
 20  5  1  1 23  0.0000000  0 11G16G23G27G 9G 4G22G 7G 3G26G 8G31
 -22917493.84947 -18156007.44746  20487196.5394   20487189.0984
        47.0004         39.5004
 -17914365.92247 -14267235.98846  21357484.9694   21357475.5314
        47.5004         36.2504
  -6792496.32746  -5264308.25246  23718594.6724   23718591.8324
        40.2504         38.0004
 -21013494.77147 -16352714.49448  21385251.9384   21385246.3674
        47.0004         49.7504
 -27685308.20847 -21547928.50447  20236363.9224   20236357.6604
        47.2504         42.0004
  -5049201.23846  -3914843.99543  24734988.5314   24734979.1684
        39.0004         19.7504
  -8695839.65247  -6735604.91646  23788336.7584   23788329.3484
        43.7504         38.0004
 -13216979.27447 -10285217.97246  22846786.6564   22846782.3244
        44.0004         41.0004
 -12544683.00447  -9891559.42447  22386594.0474   22386590.0784
        43.5004         42.2504
  -1113314.37146   -852687.60944  24889820.1484   24889816.9654
        36.0004         27.7504
   2651274.76646   2211409.10042  25497610.3524   25497604.5864
        36.0004         17.2504
 20  5  1  1 23 30.0000000  0 11G16G23G27G 9G 4G22G 7G 3G26G 8G31
 -22892189.48447 -18136289.76846  20492012.3834   20492004.4304
        47.2504         38.7504
 -17976118.55747 -14315354.92446  21345733.5004   21345724.1094
        47.5004         36.5004
  -6881544.31546  -5333696.24846  23701649.9924   23701646.0904
        40.2504         37.5004
 -21080576.50347 -16404985.97648  21372486.8984   21372481.3484
        47.0004         49.7504
 -27690271.88247 -21551796.31046  20235419.2814   20235413.2384
        46.7504         41.7504
  -4945006.62446  -3833653.42843  24754814.4144   24754806.7464
        38.2504         20.0004
  -8769185.56747  -6792757.57646  23774379.3754   23774372.3284
        43.2504         37.5004
 -13117232.85447 -10207493.50746  22865767.1174   22865763.4144
        44.2504         40.7504
 -12459939.98547  -9825525.92847  22402719.8914   22402716.4654
        43.0004         42.2504
  -1213936.63545   -931094.49144  24870672.4454   24870669.2704
        35.5004         26.0004
   2742650.23345   2282610.62342  25514997.7664   25514993.3164
        34.5004         16.2504
 20  5  1  1 24  0.0000000  0 11G16G23G27G 9G 4G22G 7G 3G26G 8G31
 -22866251.23147 -18116078.13646  20496948.0164   20496939.9964
        47.0004         39.5004
 -18037599.86748 -14363262.44146  21334034.3284   21334024.6804
        48.5004         36.2504
  -6970373.88346  -5402914.07646  23684744.7584   23684742.3284
        39.2504         37.5004
 -21147366.71147 -16457030.29648  21359776.6564   21359771.7074
        47.0004         50.2504
 -27694805.68747 -21555329.15147  20234556.6254   20234550.1914
        46.5004         42.2504
  -4840823.92146  -3752472.16443  24774640.2584   24774631.7274
        40.2504         20.0004
  -8842427.38247  -6849829.12446  23760441.8364   23760435.5164
        43.5004         38.0004
 -13017260.75347 -10129593.19546  22884790.9614   22884787.7154
        44.2504         41.0004
 -12374872.93447  -9759239.94447  22418908.2274   22418904.1564
        43.0004         42.2504
  -1314624.70846  -1009552.73244  24851512.1484   24851509.2894
        37.0004         29.2504
   2833973.01447   2353771.39343  25532377.4064   25532370.6524
        42.5004         22.7504
 20  5  1  1 24 30.0000000  0 11G16G23G27G 9G 4G22G 7G 3G26G 8G31
 -22839680.58947 -18095373.74046  20502004.2344   20501996.7464
        47.0004         39.7504
 -18098808.33947 -14410957.35246  21322386.8444   21322377.2854
        47.5004         36.7504
  -7058981.76746  -5471959.19046  23667884.5634   23667879.8324
        41.5004         38.7504
 -21213863.58647 -16508846.04748  21347123.0864   21347117.7584
        47.7504         50.5004
 -27698908.78647 -21558526.37746  20233775.7424   20233769.3874
        46.7504         41.7504
  -4736655.72246  -3671302.14443  24794461.3444   24794455.0864
        39.5004         21.2504
  -8915565.34947  -6906819.74346  23746524.0314   23746517.3954
        43.5004         37.7504
 -12917066.18547 -10051519.53546  22903858.1024   22903854.3364
        43.7504         41.5004
 -12289484.68447  -9692703.66546  22435157.9384   22435152.7854
        43.0004         41.7504
  -1415375.80346  -1088060.05044  24832339.6484   24832336.4574
        37.0004         29.2504
   2925242.49046   2424890.48544  25549745.4774   25549739.3524
        39.5004         25.0004
 20  5  1  1 25  0.0000000  0 11G16G23G27G 9G 4G22G 7G 3G26G 8G31
 -22812478.56147 -18074177.36446  20507180.7664   20507173.0354
        47.0004         38.7504
 -18159740.81147 -14458437.20546  21310791.5474   21310782.1414
        47.7504         36.5004
  -7147363.76046  -5540828.26646  23651065.5084   23651061.2464
        41.2504         37.2504
 -21280064.17647 -16560430.91948  21334525.5314   21334519.6724
        47.7504         50.5004
 -27702579.36847 -21561386.58047  20233077.3674   20233071.2624
        46.7504         42.0004
  -4632503.46446  -3590144.57743  24814281.0234   24814273.6564
        37.7504         20.5004
  -8988598.30047  -6963728.52346  23732626.5784   23732619.6564
        43.5004         37.5004
 -12816651.16547  -9973274.11046  22922966.6724   22922962.6214
        45.2504         41.2504
 -12203776.99247  -9625918.47747  22451466.9534   22451462.7504
        43.0004         42.0004
  -1516185.99346  -1166613.38845  24813156.2034   24813153.7774
        37.0004         30.5004
  29798599.42955  23365168.31752  25567103.1644   25567097.9414
        35.0004         16.2504
 20  5  1  1 25 30.0000000  0 11G16G23G27G 9G 4G22G 7G 3G26G 8G31
 -22784648.22447 -18052491.38846  20512476.7584   20512468.7154
        47.0004         39.0004
 -18220396.53447 -14505701.40846  21299249.5234   21299239.8094
        47.7504         36.5004
  -7235517.62447  -5609519.60246  23634291.3594   23634286.9414
        42.0004         38.7504
 -21345967.71547 -16611784.32848  21321984.2274   21321979.2384
        47.0004         50.5004
 -27705817.60347 -21563909.89046  20232461.1174   20232454.8014
        47.0004         41.7504
  -4528371.15646  -3509002.66143  24834100.5474   24834089.5234
        41.5004         19.2504
  -9061527.90547  -7020556.77446  23718749.0394   23718742.4574
        43.2504         38.0004
 -12716020.00847  -9894860.26546  22942116.4694   22942112.2814
        44.2504         41.0004
 -12117753.71147  -9558887.37346  22467836.8984   22467832.1484
        43.0004         41.5004
  -1617053.52046  -1245211.45845  24793962.5554   24793959.3324
        38.5004         31.5004
  29889761.74346  23436204.15242  25584450.2664   25584443.7854
        38.2504         17.7504
 20  5  1  1 26  0.0000000  0 11G16G23G27G 9G 4G22G 7G 3G26G 8G31
 -22756188.84747 -18030315.25446  20517892.3524   20517884.8134
        47.2504         39.5004
 -18280771.90947 -14552747.15646  21287760.1094   21287750.4304
        47.5004         37.0004
  -7323438.25446  -5678029.12746  23617560.0634   23617556.3054
        40.7504         38.5004
 -21411570.37947 -16662903.28248  21309500.7664   21309495.1254
        47.5004         50.2504
 -27708620.74047 -21566094.16347  20231927.8364   20231921.8244
        46.7504         42.0004
  -4424259.24746  -3427876.54043  24853911.6804   24853901.6334
        40.5004         19.2504
  -9134351.72147  -7077302.60246  23704890.8834   23704883.9104
        43.5004         38.0004
 -12615173.87747  -9816278.89546  22961306.1334   22961302.2194
        43.5004         40.5004
 -12031415.67647  -9491611.00146  22484266.1334   22484261.7384
        43.2504         41.7504
  -1717974.54645  -1323851.23944  24774756.6954   24774753.9384
        35.5004         29.5004
  29980871.21745  23507198.22242  25601788.4924   25601782.3484
        33.7504         17.2504
 20  5  1  1 26 30.0000000  0 11G16G23G27G 9G 4G22G 7G 3G26G 8G31
 -22727104.00847 -18007651.73946  20523426.9144   20523419.0784
        47.0004         39.5004
 -18340866.98647 -14599574.48846  21276324.3674   21276315.3634
        47.5004         37.0004
  -7411124.34446  -5746355.94946  23600874.4224   23600869.1604
        41.5004         38.7504
 -21476872.24647 -16713787.84848  21297074.1804   21297068.6604
        47.0004         50.5004
 -27710989.94347 -21567940.30747  20231477.0784   20231470.6024
        46.7504         42.0004
  -4320172.46246  -3346769.95843  24873716.3674   24873709.4774
        39.0004         20.0004
  -9207071.89647  -7133967.66346  23691051.5234   23691044.9844
        43.2504         37.5004
 -12514117.82947  -9737533.96146  22980537.2734   22980532.8054
        44.5004         40.7504
 -11944767.67147  -9424093.10546  22500754.6644   22500750.6484
        43.0004         41.7504
  -1818947.74746  -1402531.60345  24755542.4844   24755538.5664
        38.2504         30.0004
  30071924.92546  23578149.09743  25619115.3444   25619108.9774
        41.5004         21.5004
 20  5  1  1 27  0.0000000  0 11G16G23G27G 9G 4G22G 7G 3G26G 8G31
 -22697394.76447 -17984501.68846  20529080.3754   20529072.6844
        47.0004         39.5004
 -18400678.84348 -14646181.13246  21264942.7344   21264933.6174
        48.0004         37.0004
  -7498571.40946  -5814496.48446  23584232.9774   23584230.2664
        41.0004         39.2504
 -21541870.25947 -16764435.64448  21284705.2734   21284700.0514
        47.0004         50.5004
 -27712923.12747 -21569446.69847  20231108.9844   20231102.7074
        46.7504         42.0004
  -4216112.30145  -3265684.16143  24893516.0634   24893511.1134
        34.2504         19.7504
  -9279687.34247  -7190551.13346  23677233.7114   23677226.7384
        43.0004         36.7504
 -12412853.78247  -9658626.94146  22999806.9454   22999802.0124
        44.2504         40.5004
 -11857811.29347  -9356334.91446  22517301.9774   22517297.7544
        43.0004         41.5004
  -1919969.30546  -1481249.66144  24736320.4454   24736315.8484
        40.0004         29.2504
  30162923.76845  23649057.37942  25636431.6884   25636425.2034
        32.5004         16.2504
 20  5  1  1 27 30.0000000  0 11G16G23G27G 9G 4G22G 7G 3G26G 8G31
 -22667063.44747 -17960866.90346  20534852.2344   20534844.3714
        47.2504         39.7504
 -18460206.20547 -14692566.09446  21253615.2274   21253605.3984
        47.7504         37.0004
  -7585777.01946  -5882448.85346  23567638.7734   23567635.3164
        41.0004         38.7504
 -21606563.28647 -16814845.78948  21272394.5004   21272389.4534
        47.0004         50.5004
 -27714420.36047 -21570613.38446  20230824.1804   20230818.0634
        47.0004         41.7504
  -4112082.41946  -3184622.15443  24913318.5944   24913307.4774
        41.0004         19.2504
  -9352199.08347  -7247053.78146  23663435.4224   23663428.3284
        43.5004         36.7504
 -12311385.67047  -9579560.90346  23019114.9774   23019111.2854
        44.0004         39.7504
 -11770550.05747  -9288339.16646  22533906.6094   22533903.0594
        42.5004         41.5004
  -2021037.21545  -1560003.89244  24717084.8444   24717083.5314
        34.7504         29.2504
  30253861.78556  23682801.85953  25653737.8984   25653730.3874
        38.0004         21.5004
 20  5  1  1 28  0.0000000  0 11G16G23G27G 9G 4G22G 7G 3G26G 8G31
 -22636109.61247 -17936747.03046  20540742.8444   20540735.2814
        47.0004         39.5004
 -18519445.31947 -14738726.44546  21242341.8834   21242332.8204
        47.5004         36.7504
  -7672735.80246  -5950208.94746  23551090.1884   23551086.3914
        41.0004         38.5004
 -21670947.34547 -16865015.18248  21260142.9224   21260137.1414
        47.2504         50.5004
 -27715478.66547 -21571438.05247  20230622.9384   20230616.6254
        46.7504         42.0004
  -4008083.48246  -3103583.95043  24933104.4144   24933098.5704
        38.0004         19.5004
  -9424604.82647  -7303473.83746  23649656.8984   23649650.0984
        43.0004         37.7504
 -12209714.48747  -9500336.63246  23038462.1334   23038458.8014
        44.0004         40.2504
 -11682984.63547  -9220106.38946  22550570.2034   22550566.4924
        43.0004         41.5004
  -2122146.48346  -1638790.31945  24697846.6804   24697842.1884
        39.0004         31.0004
  30344749.88447  23753623.61743  25671033.5944   25671027.3914
        42.0004         22.2504
 20  5  1  1 28 30.0000000  0 11G16G23G27G 9G 4G22G 7G 3G26G 8G31
 -22604535.99747 -17912144.21046  20546751.0164   20546743.3524
        47.5004         39.0004
 -18578394.78347 -14784661.09146  21231124.3364   21231115.1214
        47.7504         37.0004
  -7759445.09246  -6017774.58646  23534589.7814   23534586.7774
        40.7504         38.2504
 -21735021.14647 -16914942.81948  21247949.8594   21247944.1214
        47.2504         50.5004
 -27716097.92147 -21571920.60247  20230504.8914   20230498.6294
        46.5004         42.0004
  -3904117.38345  -3022571.45243  24952888.3984   24952882.2464
        35.5004         19.7504
  -9496905.29947  -7359811.85346  23635899.3444   23635892.1134
        43.5004         38.5004
 -12107844.01747  -9420957.08646  23057848.7194   23057844.4184
        44.0004         40.0004
 -11595118.43547  -9151639.24746  22567291.4304   22567287.0824
        42.7504         41.0004
  -2223295.30945  -1717607.62544  24678595.7114   24678595.4534
        32.5004         28.0004
  30435582.290 5                  25688318.508
        35.000
 20  5  1  1 29  0.0000000  0 11G16G23G27G 9G 4G22G 7G 3G26G 8G31
 -22572342.18447 -17887058.12346  20552877.3284   20552869.3134
        47.0004         39.0004
 -18637050.71348 -14830367.01846  21219962.2584   21219953.3054
        48.2504         37.0004
  -7845899.57547  -6085141.67046  23518139.7194   23518134.9774
        42.5004         39.0004
 -21798780.67847 -16964625.57848  21235816.7734   21235811.2234
        47.7504         50.5004
 -27716275.17447 -21572058.73347  20230471.3674   20230465.0084
        46.7504         42.0004
  -3800186.02046  -2941586.11143  24972669.0394   24972659.7384
        41.0004         19.5004
  -9569098.45347  -7416066.26046  23622160.7504   23622154.1914
        44.0004         38.7504
 -12005775.25147  -9341423.02146  23077271.3834   23077267.6604
        44.0004         40.5004
 -11506952.09947  -9082938.23046  22584068.3984   22584064.3914
        42.5004         41.5004
  -2324478.84346  -1796451.81845  24659344.2034   24659341.9184
        38.5004         31.0004
  30526360.58445  23781918.61353  25705592.7814   25705587.5634
        33.2504         19.5004
 20  5  1  1 29 30.0000000  0 11G16G23G27G 9G 4G22G 7G 3G26G 8G31
 -22539534.30047 -17861493.54246  20559120.1884   20559112.3754
        47.0004         39.0004
 -18695415.67148 -14875846.21246  21208856.3834   21208846.8284
        48.0004         37.2504
  -7932100.42946  -6152311.18246  23501735.1094   23501730.1094
        41.0004         37.0004
 -21862228.53447 -17014065.46748  21223743.1414   21223737.6024
        47.5004         50.5004
 -27716014.15147 -21571855.35347  20230520.7504   20230514.7934
        46.5004         42.0004
  -3696296.09947  -2860632.96643  24992440.7814   24992428.9064
        43.0004         19.0004
  -9641188.81147  -7472240.54746  23608443.0864   23608435.8324
        43.7504         39.0004
 -11903515.74047  -9261740.33246  23096731.0314   23096726.6914
        44.2504         40.7504
 -11418492.90447  -9014009.01146  22600901.7584   22600897.9614
        43.0004         41.5004
  -2425698.31646  -1875324.30145  24640082.8284   24640079.6804
        37.5004         31.5004
  30617079.83845  23852608.73843  25722856.4614   25722850.5124
        34.7504         21.0004
 20  5  1  1 30  0.0000000  0 11G16G23G27G 9G 4G22G 7G 3G26G 8G31
 -22506111.77647 -17835450.02446  20565480.3754   20565472.5904
        47.0004         39.0004
 -18753485.15648 -14921095.16246  21197805.7274   21197796.2734
        48.0004         37.0004
  -8018041.73646  -6219278.44946  23485380.7034   23485377.2464
        41.7504         38.5004
 -21925360.07447 -17063258.88548  21211729.5634   21211724.2704
        47.2504         50.5004
 -27715311.38447 -21571307.76547  20230654.9064   20230648.5274
        47.0004         42.0004
  -3592447.54646  -2779712.02743  25012200.0164   25012190.3244
        39.0004         19.0004
  -9713173.79447  -7528332.73146  23594744.8444   23594737.5434
        44.7504         39.2504
 -11801065.94847  -9181909.34146  23116225.8914   23116222.4774
        43.5004         40.0004
 -11329740.81047  -8944851.56046  22617790.4304   22617786.6454
        42.5004         41.5004
  -2526948.24346  -1954220.33445  24620814.7734   24620812.3324
        37.5004         30.5004
  30707742.46345  23923254.71643  25740108.4384   25740102.7074
        34.5004         19.7504
 20  5  1  1 30 30.0000000  0 11G16G23G27G 9G 4G22G 7G 3G26G 8G31
 -22472076.86847 -17808929.31946  20571957.0004   20571949.3054
        47.0004         38.7504
 -18811257.33447 -14966112.44446  21186811.8524   21186802.6334
        47.7504         37.0004
  -8103720.44346  -6286041.05346  23469076.3364   23469073.0474
        40.0004         37.7504
 -21988173.63947 -17112204.52648  21199776.6884   21199771.6524
        47.2504         50.7504
 -27714166.35347 -21570415.54347  20230872.7274   20230866.5864
        47.0004         42.0004
  -3488643.08946  -2698825.51142  25031954.9144   25031943.8834
        41.0004         17.2504
  -9785053.62947  -7584342.99746  23581065.9064   23581058.9264
        44.2504         39.0004
 -11698429.21947  -9101932.72546  23135757.1254   23135753.7424
        43.5004         39.7504
 -11240698.92547  -8875468.30046  22634734.0004   22634730.9064
        42.2504         40.7504
  -2628226.12845  -2033138.14544  24601541.0634   24601537.8324
        35.5004         28.7504
  30798347.70446  23993856.13043  25757350.4144   25757344.2814
        41.0004         21.5004
 20  5  1  1 31  0.0000000  0 11G16G23G27G 9G 4G22G 7G 3G26G 8G31
 -22437431.20747 -17781932.70346  20578549.7974   20578541.8204
        47.0004         38.7504
 -18868730.32447 -15010896.60246  21175875.4694   21175866.0514
        47.7504         37.0004
  -8189133.15446  -6352596.40646  23452823.0474   23452818.2274
        40.2504         38.0004
 -22050667.18047 -17160900.79948  21187884.5474   21187879.1414
        47.2504         51.0004
 -27712578.06047 -21569177.92047  20231174.9844   20231168.3794
        46.7504         42.0004
  -3384884.95246  -2617975.04242  25051697.0084   25051688.9924
        39.5004         17.7504
  -9856828.07547  -7640271.13146  23567408.1174   23567400.7114
        43.5004         39.0004
 -11595608.48347  -9021812.71046  23155323.4694   23155319.5864
        43.7504         39.2504
 -11151369.78147  -8805861.20146  22651733.0784   22651729.3054
        42.7504         41.0004
  -2729528.99846  -2112075.45645  24582265.6804   24582262.3134
        40.0004         31.7504
  30888894.83446  24064412.40443  25774581.3524   25774574.6414
        40.5004         20.7504
 20  5  1  1 31 30.0000000  0 11G16G23G27G 9G 4G22G 7G 3G26G 8G31
 -22402175.82047 -17754460.97746  20585258.7034   20585250.9224
        47.0004         39.0004
 -18925901.41048 -15055445.50846  21164996.2274   21164986.4264
        48.0004         37.0004
  -8274275.84046  -6418941.31446  23436620.9774   23436618.2544
        40.5004         41.0004
 -22112837.93047 -17209345.54948  21176053.8524   21176048.4104
        47.7504         51.0004
 -27710545.08147 -21567593.78746  20231561.6804   20231555.3984
        46.7504         41.7504
  -3281175.36446  -2537162.47943  25071433.8524   25071424.4804
        40.5004         19.2504
  -9928496.62047  -7696116.74946  23553769.6724   23553762.8524
        43.5004         38.7504
 -11492606.01847  -8941551.07846  23174924.2344   23174920.3554
        43.2504         39.7504
 -11061755.34747  -8736031.79246  22668786.3284   22668782.6374
        42.2504         40.5004
  -2830853.45646  -2191029.52945  24562983.2734   24562980.7814
        39.0004         31.7504
  30979384.43546  24134923.64343  25791800.0634   25791794.8484
        36.5004         20.5004
 20  5  1  1 32  0.0000000  0 11G16G23G27G 9G 4G22G 7G 3G26G 8G31
 -22366313.11747 -17726516.02246  20592082.9454   20592075.7664
        47.0004         38.7504
 -18982769.29747 -15099758.15146  21154174.7274   21154165.4414
        47.7504         37.2504
  -8359145.65846  -6485073.52446  23420471.1024   23420467.7734
        40.7504         40.5004
 -22174684.49347 -17257537.68348  21164284.7814   21164279.1214
        47.5004         51.0004
 -27708067.11447 -21565662.92247  20232033.0634   20232027.2074
        46.7504         42.0004
  -3177517.07046  -2456389.77043  25091157.6414   25091150.5044
        39.7504         20.0004
 -10000059.64647  -7751880.12246  23540151.7584   23540145.2934
        44.2504         39.0004
 -11389425.45247  -8861150.67146  23194558.4844   23194554.9964
        43.2504         39.5004
 -10971858.83947  -8665982.59246  22685893.0634   22685888.8324
        42.5004         40.2504
  -2932196.97446  -2269998.53745  24543698.2424   24543694.6844
        39.0004         32.5004
  31069815.82445  24205389.46942  25809008.2734   25809004.1604
        35.0004         16.2504
 20  5  1  1 32 30.0000000  0 11G16G23G27G 9G 4G22G 7G 3G26G 8G31
 -22329844.59847 -17698098.99646  20599023.0234   20599015.3444
        47.2504         38.7504
 -19039331.48647 -15143832.58346  21143411.0784   21143401.7624
        47.5004         37.2504
  -8443738.63147  -6550990.14946  23404374.5784   23404368.8834
        44.2504         41.2504
 -22236204.20148 -17305475.12648  21152577.9304   21152572.4224
        48.0004         51.0004
 -27705142.69147 -21563384.16247  20232589.5944   20232583.7344
        46.5004         42.0004
  -3073911.96646  -2375658.60843  25110873.8524   25110865.9534
        39.5004         19.7504
 -10071516.89347  -7807561.08346  23526553.6254   23526547.3404
        44.0004         39.5004
 -11286069.13347  -8780613.30746  23214227.2734   23214222.8244
        43.7504         40.0004
 -10881682.28547  -8595715.16246  22703052.7734   22703048.6374
        42.2504         40.5004
  -3033556.14546  -2348979.69145  24524410.7424   24524407.6994
        38.5004         33.0004
  31160189.12115                  25826205.797
        31.000
 20  5  1  1 33  0.0000000  0 11G16G23G27G 9G 4G22G 7G 3G26G 8G31
 -22292772.05247 -17669211.30046  20606077.4924   20606069.3134
        47.7504         39.0004
 -19095585.96547 -15187667.24046  21132706.0784   21132696.8554
        47.5004         37.0004
  -8528051.53046  -6616688.47946  23388328.4224   23388326.6844
        40.0004         40.5004
 -22297395.13347 -17353156.36448  21140934.0474   21140928.8404
        47.5004         51.2504
 -27701771.10847 -21560756.96347  20233231.7194   20233225.2344
        47.0004         42.5004
  -2970362.93346  -2294971.06943  25130577.9614   25130571.1954
        38.5004         20.2504
 -10142868.32947  -7863159.59246  23512975.9694   23512969.1454
        44.0004         39.0004
 -11182540.23047  -8699941.47246  23233928.2814   23233923.8984
        43.5004         39.0004
 -10791228.38447  -8525231.62546  22720265.9224   22720262.2034
        42.5004         40.7504
  -3134927.73346  -2427970.54245  24505119.4694   24505116.6484
        37.5004         32.5004
  31250503.94455  24171356.47053  25843392.6644   25843387.8714
        34.0004         19.5004
 20  5  1  1 33 30.0000000  0 11G16G23G27G 9G 4G22G 7G 3G26G 8G31
 -22255098.22647 -17639855.07046  20613246.8914   20613238.8244
        47.7504         38.7504
 -19151531.12048 -15231260.87546  21122060.0164   21122050.5664
        48.0004         37.0004
  -8612081.59047  -6682166.38946  23372339.0944   23372335.2974
        42.0004         40.5004
 -22358255.79348 -17400580.26448  21129352.2504   21129347.2894
        48.2504         51.5004
 -27697952.10947 -21557781.13247  20233958.2344   20233952.0204
        46.5004         42.0004
  -2866872.73446  -2214329.45643  25150271.8364   25150264.6484
        38.2504         19.7504
 -10214113.79747  -7918675.52946  23499418.5944   23499411.4264
        44.2504         39.0004
 -11078842.19647  -8619137.83946  23253660.8284   23253657.2854
        43.2504         39.0004
 -10700500.33647  -8454534.46846  22737530.6414   22737526.8324
        42.0004         40.2504
  -3236309.79846  -2506969.48645  24485827.7194   24485825.3134
        37.2504         32.0004
  31340759.10646  24241685.05643  25860567.6254   25860562.3284
        38.2504         20.7504
 20  5  1  1 34  0.0000000  0 11G16G23G27G 9G 4G22G 7G 3G26G 8G31
 -22216824.40147 -17610031.31446  20620529.9614   20620521.9304
        47.5004         38.7504
 -19207164.44248 -15274611.52346  21111473.8364   21111463.9844
        48.0004         37.2504
  -8695824.87146  -6747420.87845  23356401.9384   23356397.5634
        39.2504         35.2504
 -22418783.66547 -17447744.84448  21117834.0394   21117829.1564
        47.7504         51.2504
 -27693684.39647 -21554455.65047  20234770.1954   20234763.7734
        47.0004         42.2504
  -2763443.11646  -2133734.98343  25169953.3054   25169946.5274
        37.0004         20.2504
 -10285252.78647  -7974108.50246  23485881.5474   23485873.9454
        44.7504         39.5004
 -10974977.56947  -8538204.39846  23273425.8594   23273421.7894
        44.0004         38.7504
 -10609500.25947  -8383625.34846  22754848.0634   22754844.2624
        42.5004         40.5004
  -3337698.51146  -2585973.66945  24466534.5164   24466530.8954
        38.5004         31.0004
  31430954.80046  24311967.32943  25877731.7034   25877725.9024
        40.0004         23.7504
 20  5  1  1 34 30.0000000  0 11G16G23G27G 9G 4G22G 7G 3G26G 8G31
 -22177952.61148 -17579741.60846  20627926.9844   20627918.8524
        48.0004         38.5004
 -19262484.33947 -15317717.93646  21100946.2814   21100937.0554
        47.7504         37.0004
  -8779278.31747  -6812449.50346  23340523.6484   23340519.2034
        42.5004         39.7504
 -22478976.92948 -17494648.69448  21106379.7424   21106374.6804
        48.2504         51.2504
 -27688967.37947 -21550780.05847  20235667.6564   20235661.9304
        46.7504         42.0004
  -2660076.92846  -2053189.94543  25189624.6564   25189615.8364
        40.5004         19.2504
 -10356285.61747  -8029458.75746  23472364.4384   23472357.0124
        45.0004         39.0004
 -10870949.56147  -8457143.64046  23293221.7664   23293217.3984
        44.2504         39.0004
 -10518230.94447  -8312506.41846  22772215.7194   22772212.0394
        42.0004         40.5004
  -3439091.04846  -2664980.84044  24447239.4774   24447236.4264
        37.5004         29.0004
  31521091.12646  24382203.37143  25894883.9694   25894878.1134
        38.5004         22.7504
 20  5  1  1 35  0.0000000  0 11G16G23G27G 9G 4G22G 7G 3G26G 8G31
 -22138484.51348 -17548987.24546  20635437.7344   20635429.9454
        48.0004         39.0004
 -19317488.49448 -15360578.32646  21090479.6024   21090470.2974
        48.0004         37.5004
  -8862438.13846  -6877249.35145  23324695.9614   23324691.1994
        38.2504         35.5004
 -22538833.17048 -17541289.91848  21094989.9384   21094984.0394
        48.2504         51.5004
 -27683799.84647 -21546753.42346  20236651.4534   20236645.5044
        47.7504         41.7504
  -2556776.48446  -1972696.23143  25209282.2664   25209274.5434
        39.5004         18.2504
 -10427211.96847  -8084726.04746  23458868.1564   23458860.1454
        44.5004         39.5004
 -10766760.72547  -8375957.57046  23313048.2974   23313044.2664
        43.0004         38.5004
 -10426694.70947  -8241179.51246  22789634.8594   22789631.1374
        42.5004         40.5004
  -3540484.32946  -2743988.58244  24427945.6254   24427941.1094
        37.7504         29.5004
  31611167.96645  24452393.03843  25912025.5004   25912019.7074
        35.5004         19.0004
 20  5  1  1 35 30.0000000  0 10G16G23G27G 9G 4G22G 7G 3G26G 8
 -22098421.03348 -17517768.95346  20643061.1174   20643053.5514
        48.5004         39.0004
 -19372173.71348 -15403190.19346  21080073.2584   21080063.5164
        48.0004         37.5004
  -8945299.75047  -6941816.82246  23308930.2504   23308926.8714
        43.7504         41.5004
 -22598349.18248 -17587666.03948  21083664.0234   21083658.6484
        48.5004         51.2504
 -27678179.84747 -21542374.21547  20237720.7734   20237714.3324
        46.7504         42.2504
  -2453542.42546  -1892254.21143  25228927.4144   25228919.1804
        40.7504         18.5004
 -10498030.94247  -8139909.66246  23445391.1724   23445384.0824
        44.0004         39.5004
 -10662412.85347  -8294647.57246  23332904.8594   23332901.1524
        43.0004         38.5004
 -10334892.90046  -8169645.67046  22807103.6644   22807100.2504
        41.7504         40.0004
  -3641873.64346  -2822993.24045  24408651.5554   24408647.7424
        40.7504         30.5004
 20  5  1  1 36  0.0000000  0 10G16G23G27G 9G 4G22G 7G 3G26G 8
 -22057767.40048 -17486090.80146  20650797.8134   20650789.6254
        48.2504         38.7504
 -19426541.06048 -15445554.36046  21069727.5704   21069718.3754
        48.5004         37.5004
  -9027863.24047  -7006151.95946  23293218.1334   23293214.7974
        42.0004         41.0004
 -22657526.30648 -17633778.09248  21072403.0314   21072397.4964
        48.2504         51.2504
 -27672110.12747 -21537644.56847  20238875.8134   20238869.6644
        47.5004         42.0004
  -2350380.75246  -1811868.54543  25248559.2344   25248550.6054
        39.0004         18.5004
 -10568745.27147  -8195011.73846  23431934.3984   23431927.3404
        43.5004         39.2504
 -10557912.43247  -8213218.70246  23352790.9304   23352787.1334
        42.5004         38.7504
 -10242831.60247  -8097909.60846  22824622.1484   22824619.1024
        42.5004         40.5004
  -3743260.05546  -2901995.64745  24389358.7274   24389355.0234
        39.7504         31.7504
 20  5  1  1 36 30.0000000  0 10G16G23G27G 9G 4G22G 7G 3G26G 8
 -22016523.66548 -17453952.82946  20658645.9534   20658638.2624
        48.7504         38.7504
 -19480586.63848 -15487667.81046  21059443.1024   21059433.4734
        48.0004         37.7504
  -9110123.18047  -7070250.59846  23277565.0234   23277559.6764
        43.2504         41.0004
 -22716360.32947 -17679622.78748  21061207.1724   21061201.7344
        47.7504         51.2504
 -27665587.63848 -21532562.12247  20240116.9844   20240110.8014
        48.0004         42.2504
  24534848.17055  19137660.61952  25268173.5084   25268167.6054
        35.5004         17.2504
 -10639352.66347  -8250030.47646  23418497.9534   23418491.4694
        43.7504         39.5004
 -10453260.08347  -8131671.45546  23372705.3594   23372701.7384
        42.5004         38.7504
 -10150511.09447  -8025971.58746  22842190.4694   22842187.0394
        42.0004         39.5004
  -3844638.18646  -2980991.61445  24370066.7194   24370062.6724
        40.5004         32.5004
 20  5  1  1 37  0.0000000  0 10G16G23G27G 9G 4G22G 7G 3G26G 8
 -21974692.03348 -17421356.75546  20666606.3674   20666598.3164
        48.7504         39.0004
 -19534308.62048 -15529529.09146  21049220.2734   21049210.8014
        48.7504         37.7504
  -9192076.21946  -7134110.09947  23261969.2664   23261967.1254
        41.0004         42.0004
 -22774849.38947 -17725198.68448  21050077.0084   21050071.8484
        47.7504         51.2504
 -27658611.87747 -21527126.47146  20241444.1564   20241438.1884
        47.7504         41.7504
  24637862.05446  19217930.89643  25287779.1174   25287769.8634
        39.7504         18.5004
 -10709853.67147  -8304966.30746  23405083.1954   23405075.5984
        44.2504         40.5004
 -10348459.12647  -8050008.39546  23392648.7894   23392644.9734
        43.0004         38.5004
 -10057934.29547  -7953833.83546  22859807.6254   22859803.6524
        42.5004         39.5004
  -3946004.84746  -3059978.59745  24350776.8834   24350773.5904
        40.0004         32.5004
 20  5  1  1 37 30.0000000  0 10G16G23G27G 9G 4G22G 7G 3G26G 8
 -21932274.11548 -17388303.83246  20674678.1804   20674670.5824
        49.0004         39.0004
 -19587704.17648 -15571136.02346  21039059.2194   21039049.8484
        48.5004         37.7504
  -9273718.75847  -7197727.56846  23246433.8364   23246428.3714
        43.2504         40.2504
 -22832991.01948 -17770503.86148  21039013.3594   21039007.8404
        48.2504         51.5004
 -27651181.58547 -21521336.64847  20242858.1024   20242852.1054
        47.2504         42.2504
  24740798.52746  19298141.17443  25307365.1254   25307358.6054
        36.7504         19.0004
 -10780247.81947  -8359818.87946  23391686.6884   23391680.1054
        44.0004         40.5004
 -10243511.99046  -7968231.43946  23412619.1644   23412615.5314
        41.5004         38.2504
  -9965103.25846  -7881497.98746  22877472.5234   22877468.7974
        41.2504         39.5004
  -4047356.32046  -3138953.77845  24331490.5084   24331486.7974
        38.5004         31.5004
 20  5  1  1 38  0.0000000  0 10G16G23G27G 9G 4G22G 7G 3G26G 8
 -21889271.77248 -17354795.51146  20682860.9924   20682853.1054
        49.0004         38.5004
 -19640772.13548 -15612487.69146  21028960.9064   21028951.3834
        48.7504         37.5004
  -9355047.59546  -7261100.71846  23230955.5474   23230953.1604
        39.7504         38.7504
 -22890783.36848 -17815536.86448  21028015.7344   21028010.3094
        48.5004         51.5004
 -27643296.32448 -21515192.29447  20244359.0474   20244352.6564
        48.5004         42.0004
  24843655.22646  19378289.19343  25326939.8364   25326931.5514
        40.5004         19.0004
 -10850534.68347  -8414587.85146  23378312.0474   23378304.9654
        44.7504         40.5004
 -10138421.88646  -7886343.07546  23432616.7974   23432613.5634
        41.5004         38.5004
  -9872020.86547  -7808966.29046  22895185.7504   22895181.4694
        42.0004         40.0004
  -4148690.51046  -3217915.47645  24312207.1254   24312203.8204
        37.5004         31.5004
 20  5  1  1 38 30.0000000  0 10G16G23G27G 9G 4G22G 7G 3G26G 8
 -21845688.46748 -17320834.50046  20691154.7344   20691146.9104
        48.7504         39.0004
 -19693510.78148 -15653582.75246  21018924.9534   21018915.1134
        49.0004         37.7504
  -9436060.07547  -7324227.22146  23215540.5394   23215536.7194
        42.5004         39.0004
 -22948225.11548 -17860296.66948  21017084.8364   21017079.3134
        48.5004         51.5004
 -27634956.05547 -21508693.39946  20245945.7194   20245940.0164
        47.0004         41.7504
  24946428.95646  19458372.49043  25346494.5314   25346488.9654
        38.0004         19.7504
 -10920715.00847  -8469273.79446  23364956.8594   23364950.1764
        44.7504         40.5004
 -10033192.48946  -7804346.16946  23452641.3914   23452638.2974
        41.2504         38.5004
  -9778690.34846  -7736241.23946  22912946.2344   22912942.1134
        41.5004         39.5004
  -4250004.66046  -3296861.54045  24292926.7664   24292924.1994
        37.0004         31.7504
 20  5  1  1 39  0.0000000  0 10G16G23G27G 9G 4G22G 7G 3G26G 8
 -21801525.61048 -17286421.88246  20699558.6484   20699551.0124
        49.0004         38.5004
 -19745917.63448 -15694419.26046  21008952.1414   21008943.1214
        48.2504         37.5004
  -9516752.25547  -7387104.25146  23200186.0864   23200180.8244
        42.0004         38.7504
 -23005313.61248 -17904781.21148  21006221.4384   21006215.8594
        48.5004         51.7504
 -27626159.50047 -21501838.95147  20247620.0864   20247613.8554
        47.5004         42.2504
  25049118.20146  19538390.05443  25366038.9534   25366028.9184
        39.0004         18.5004
 -10990788.04047  -8523876.13846  23351622.3674   23351615.5434
        44.5004         40.5004
  -9927826.16247  -7722242.57246  23472691.8594   23472688.6134
        42.0004         38.0004
  -9685113.65946  -7663324.35846  22930752.6884   22930749.1884
        41.7504         39.2504
  -4351295.33546  -3375789.31445  24273652.6954   24273649.8164
        39.0004         32.5004
 20  5  1  1 39 30.0000000  0 10G16G23G27G 9G 4G22G 7G 3G26G 8
 -21756785.16248 -17251559.19946  20708072.7114   20708064.5984
        48.7504         38.5004
 -19797990.63748 -15734995.62846  20999043.0554   20999033.8244
        48.5004         37.2504
  -9597120.81247  -7449729.06646  23184892.5784   23184887.7194
        43.7504         40.0004
 -23062046.78348 -17948988.88348  20995425.4774   20995419.9924
        48.0004         52.0004
 -27616905.93247 -21494628.38447  20249380.6094   20249374.7854
        47.0004         42.2504
  25151720.34646  19618339.67143  25385562.3984   25385554.8554
        37.2504         19.0004
 -11060753.91947  -8578394.98846  23338308.5084   23338301.3524
        45.5004         40.5004
  -9822325.76347  -7640034.52246  23492768.8054   23492764.5474
        43.0004         38.0004
  -9591293.38846  -7590217.69246  22948606.6484   22948602.9264
        41.5004         40.0004
  -4452559.01146  -3454696.05445  24254383.0394   24254379.3674
        38.2504         32.5004
 20  5  1  1 40  0.0000000  0 10G16G23G27G 9G 4G22G 7G 3G26G 8
 -21711466.30748 -17216245.81646  20716696.3284   20716688.6994
        49.0004         38.0004
 -19849724.79748 -15775307.95946  20989198.3444   20989188.9804
        48.2504         37.5004
  -9677159.49347  -7512096.87546  23169662.0634   23169656.6024
        43.5004         41.0004
 -23118419.71948 -17992915.84548  20984697.7504   20984692.7854
        49.0004         51.7504
 -27607191.77347 -21487058.91846  20251229.4614   20251223.4184
        47.7504         41.7504
                                  25405072.1484   25405063.8164
        38.5004         18.5004
 -11130609.45347  -8632827.86646  23325015.4454   23325007.9844
        44.2504         40.5004
  -9716691.46247  -7557722.10246  23512868.8594   23512866.1684
        42.0004         37.7504
  -9497229.09647  -7516920.86346  22966506.1254   22966502.3874
        42.2504         40.0004
  -4553790.16146  -3533577.46745  24235118.9694   24235115.9694
        39.0004         33.0004
 20  5  1  1 40 30.0000000  0 10G16G23G27G 9G 4G22G 7G 3G26G 8
 -21665580.16448 -17180490.38946  20725428.3204   20725420.5554
        49.2504         38.2504
 -19901127.15448 -15815361.74446  20979417.2894   20979407.6094
        48.5004         37.5004
  -9756873.92347  -7574212.01346  23154491.5554   23154487.4574
        42.5004         40.5004
 -23174439.26348 -18036567.44548  20974037.6884   20974032.3524
        49.0004         52.0004
 -27597025.26848 -21479136.97846  20253164.1414   20253157.8794
        48.0004         41.7504
  25356654.639 6                  25424561.547
        39.000
 -11200363.75247  -8687181.85546  23311740.8134   23311733.9534
        44.7504         40.2504
  -9610935.07846  -7475314.55546  23532993.3054   23532990.7814
        41.7504         38.0004
  -9402932.41247  -7443442.95946  22984450.1564   22984446.0434
        42.2504         39.2504
  -4654994.44246  -3612437.94845  24215860.6804   24215857.5124
        38.7504         33.5004
 20  5  1  1 41  0.0000000  0 10G16G23G27G 9G 4G22G 7G 3G26G 8
 -21619119.49448 -17144287.26946  20734269.5164   20734261.5084
        49.2504         38.7504
 -19952186.39048 -15855148.15846  20969700.4534   20969690.8404
        48.5004         37.7504
  -9836251.58347  -7636064.68647  23139387.3914   23139383.6994
        43.2504         42.0004
 -23230094.17148 -18079934.90148  20963447.1884   20963442.2464
        48.5004         52.0004
 -27586396.55348 -21470854.87346  20255186.2734   20255180.3164
        48.0004         41.7504
  25458982.16645  19838984.19352  25444031.2584   25444026.4924
        35.0004         16.2504
 -11270007.25247  -8741449.50446  23298488.6724   23298481.4384
        44.0004         40.5004
  -9505050.32447  -7392807.00546  23553144.2734   23553140.4574
        42.5004         38.0004
  -9308396.56747  -7369778.68446  23002440.6094   23002435.9304
        42.0004         39.0004
  -4756159.64646  -3691267.95345  24196610.1724   24196605.6024
        39.0004         33.0004
 20  5  1  1 41 30.0000000  0 10G16G23G27G 9G 4G22G 7G 3G26G 8
 -21572089.98348 -17107640.89646  20743218.8204   20743210.8714
        49.0004         38.7504
 -20002903.62548 -15894668.08746  20960049.4844   20960040.1604
        49.2504         37.7504
  -9915292.37247  -7697654.89446  23124344.8754   23124341.4884
        42.5004         41.2504
 -23285385.70348 -18123019.19648  20952925.0704   20952920.1174
        49.2504         52.0004
 -27575308.21248 -21462214.62046  20257296.7114   20257290.5514
        48.0004         41.7504
  25561213.20556  19897714.82552  25463485.1564   25463478.3594
        36.0004         15.5004
 -11339543.01647  -8795633.20546  23285256.2424   23285249.3284
        43.0004         40.5004
  -9399043.41647  -7310204.25546  23573316.6564   23573313.0084
        42.2504         38.2504
  -9213627.39046  -7295932.59646  23020474.5234   23020469.9104
        41.5004         39.0004
  -4857285.76346  -3770067.54845  24177365.7664   24177361.9104
        38.5004         32.0004
 20  5  1  1 42  0.0000000  0 10G16G23G27G 9G 4G22G 7G 3G26G 8
 -21524493.86148 -17070553.01446  20752276.1644   20752268.5904
        48.5004         38.2504
 -20053277.22748 -15933920.24446  20950463.6724   20950454.1564
        48.5004         37.7504
  -9993992.94147  -7758979.97046  23109369.6804   23109366.2424
        42.5004         41.5004
 -23340311.62748 -18165818.61748  20942473.5084   20942467.9734
        49.5004         52.2504
 -27563759.54547 -21453215.67946  20259493.8364   20259487.7074
        47.7504         41.5004
  25663346.11245  19977298.80042  25482917.5474   25482915.0044
        31.0004         16.7504
 -11408971.10747  -8849733.00846  23272044.6484   23272037.8134
        43.7504         40.5004
  -9292917.16046  -7227508.51846  23593511.1414   23593508.0124
        41.7504         38.0004
  -9118627.32547  -7221906.61246  23038552.6804   23038547.8484
        43.0004         38.7504
  -4958369.61446  -3848834.17645  24158129.2894   24158127.4184
        37.2504         32.5004
 20  5  1  1 42 30.0000000  0 10G16G23G27G 9G 4G22G 7G 3G26G 8
 -21476333.08348 -17033025.13746  20761440.8444   20761432.9264
        48.2504         38.5004
 -20103304.99948 -15972902.92346  20940943.7584   20940934.5554
        48.5004         38.0004
 -10072350.02046  -7820037.40246  23094458.4844   23094454.1914
        41.7504         40.5004
 -23394870.05648 -18208331.67448  20932091.3674   20932086.1454
        49.5004         52.2504
 -27551749.95248 -21443857.56646  20261779.2664   20261773.4064
        48.0004         41.5004
  25765378.10856  20032307.03653  25502340.3524   25502332.4304
        39.5004         19.2504
 -11478291.26947  -8903748.71046  23258853.2584   23258846.2504
        43.2504         41.0004
  -9186674.59246  -7144722.14946  23613728.6644   23613725.7384
        40.5004         37.5004
  -9023398.97547  -7147702.72446  23056672.7034   23056669.3634
        42.5004         38.7504
  -5059408.21146  -3927565.51045  24138902.6094   24138899.8054
        37.2504         32.0004
 20  5  1  1 43  0.0000000  0 10G16G23G27G 9G 4G22G 7G 3G26G 8
 -21427609.83648 -16995058.96946  20770712.3674   20770705.0944
        48.5004         38.7504
 -20152984.49248 -16011614.22446  20931490.1954   20931480.9344
        48.2504         38.0004
 -10150359.99647  -7880824.38746  23079613.7894   23079609.5864
        43.0004         40.7504
 -23449058.65348 -18250556.55548  20921779.5554   20921774.2774
        50.2504         52.2504
 -27539278.54347 -21434139.60246  20264152.6804   20264146.8914
        47.0004         41.7504
  25867307.00146  20090136.07253  25521735.0474   25521727.3054
        39.0004         19.2504
 -11547503.52947  -8957680.34146  23245683.0474   23245675.9534
        43.2504         40.7504
  -9080318.42346  -7061847.26046  23633968.9384   23633964.3324
        41.5004         37.0004
  -8927944.57147  -7073322.70046  23074837.5944   23074833.8244
        42.0004         38.5004
  -5160397.92346  -4006258.73945  24119685.3834   24119682.2154
        37.5004         32.5004
 20  5  1  1 43 30.0000000  0 10G16G23G27G 9G 4G22G 7G 3G26G 8
 -21378326.95348 -16956656.72846  20780090.7114   20780083.2344
        48.5004         38.2504
 -20202314.36448 -16050053.09546  20922102.7894   20922093.9574
        48.0004         38.0004
 -10228020.28147  -7941338.87346  23064835.7584   23064830.9344
        43.5004         39.7504
 -23502876.01748 -18292492.16348  20911538.3984   20911533.0514
        50.2504         52.2504
 -27526345.38547 -21424061.83246  20266613.7584   20266607.8364
        46.5004         41.5004
  25969129.97416                  25541112.453
        41.000
 -11616607.99447  -9011527.96846  23232532.9224   23232525.8524
        43.5004         40.5004
  -8973852.09246  -6978886.52046  23654228.8594   23654224.1804
        41.0004         36.7504
  -8832267.28647  -6998768.99646  23093044.2974   23093040.8134
        42.5004         38.5004
  -5261336.35546  -4084912.04345  24100477.5864   24100474.1024
        39.0004         34.2504
 20  5  1  1 44  0.0000000  0 10G16G23G27G 9G 4G22G 7G 3G26G 8
 -21328486.52248 -16917820.03446  20789575.4454   20789567.4264
        48.0004         38.0004
 -20251292.42748 -16088217.82646  20912783.0164   20912773.2034
        48.5004         38.2504
 -10305327.24847  -8001578.06746  23050125.3444   23050120.2504
        44.0004         40.5004
 -23556319.82148 -18334136.69048  20901368.3674   20901363.2774
        50.5004         52.0004
 -27512949.58147 -21413623.55246  20269163.1724   20269157.2504
        47.7504         41.5004
  26070845.12746  20207019.31052  25560465.9534   25560460.1214
        36.7504         16.7504
 -11685603.99047  -9065291.07046  23219402.8914   23219396.1994
        44.0004         41.0004
  -8867278.24146  -6895841.98446  23674508.5864   23674504.5004
        40.5004         36.7504
  -8736369.34346  -6924043.35646  23111292.9224   23111289.2774
        41.5004         38.7504
  -5362220.30246  -4163522.84445  24081280.3054   24081276.3164
        40.0004         34.2504
 20  5  1  1 44 30.0000000  0 10G16G23G27G 9G 4G22G 7G 3G26G 8
 -21278090.61848 -16878550.49646  20799164.8754   20799157.3794
        48.5004         38.2504
 -20299916.33748 -16126106.58946  20903530.0394   20903520.3594
        49.5004         38.0004
 -10382277.37647  -8061539.21846  23035481.4304   23035477.2464
        42.7504         40.5004
 -23609387.77748 -18375488.34648  20891270.0474   20891264.4454
        49.5004         52.0004
 -27499090.30947 -21402824.13546  20271800.1954   20271794.5274
        47.7504         41.5004
  26172450.68245  20286192.36742  25579800.3914   25579794.2234
        32.2504         15.5004
 -11754491.43247  -9118969.59046  23206294.4144   23206287.1994
        44.5004         41.2504
  -8760599.62446  -6812715.81246  23694808.8204   23694804.7344
        40.7504         36.5004
  -8640253.01547  -6849147.56146  23129583.4454   23129579.6094
        42.5004         38.7504
  -5463045.69946  -4242088.06045  24062094.0084   24062090.4494
        40.5004         35.0004
 20  5  1  1 45  0.0000000  0  9G16G23G27G 9G 4G 7G 3G26G 8
 -21227136.44048 -16838845.93846  20808861.0864   20808853.6334
        48.0004         38.0004
 -20348179.35248 -16163714.14046  20894345.7114   20894336.3794
        49.0004         38.0004
 -10458862.65947  -8121216.04446  23020907.3754   23020903.7584
        42.7504         40.5004
 -23662073.10848 -18416541.85348  20881244.1644   20881238.8444
        49.5004         52.2504
 -27484762.25448 -21391659.44047  20274527.1644   20274521.0314
        48.0004         42.2504
 -11823265.49447  -9172559.75146  23193207.1334   23193199.9844
        44.2504         41.0004
  -8653814.37146  -6729506.56246  23715129.1254   23715125.2304
        40.7504         37.0004
  -8543916.04546  -6774079.81946  23147915.7424   23147912.1954
        41.7504         38.7504
  -5563805.68946  -4320602.31945  24042920.4064   24042916.2344
        40.7504         35.0004
 20  5  1  1 45 30.0000000  0  9G16G23G27G 9G 4G 7G 3G26G 8
 -21175636.28948 -16798715.95646  20818661.4144   20818653.9534
        48.5004         38.0004
 -20396089.07848 -16201046.40246  20885228.5394   20885219.1724
        48.2504         38.0004
 -10535089.44747  -8180613.52446  23006402.1254   23006397.9144
        42.0004         40.5004
 -23714383.45648 -18457303.17048  20871289.9774   20871284.3554
        49.0004         52.2504
 -27469974.51447 -21380136.53446  20277340.5864   20277334.7384
        46.7504         41.2504
 -11891936.04847  -9226069.26346  23180139.6414   23180132.5314
        45.0004         41.5004
  -8546934.99246  -6646223.98946  23735467.9144   23735463.7344
        41.0004         37.0004
  -8447370.55647  -6698849.60546  23166287.7664   23166284.1254
        42.0004         38.5004
  -5664506.11446  -4399070.15945  24023756.8834   24023753.1174
        39.0004         33.5004
 20  5  1  1 46  0.0000000  0  9G16G23G27G 9G 4G 7G 3G26G 8
 -21123588.22548 -16758159.02846  20828565.7424   20828557.9734
        48.0004         38.0004
 -20443639.25648 -16238098.48946  20876180.2424   20876171.1604
        49.0004         38.5004
 -10610950.07747  -8239725.69146  22991966.4534   22991962.4884
        42.5004         41.0004
 -23766312.33748 -18497767.24148  20861408.1564   20861402.7854
        49.5004         52.2504
 -27454722.09747 -21368251.55846  20280243.5864   20280237.3954
        47.7504         41.5004
 -11960497.76947  -9279493.97346  23167092.4844   23167085.5904
        44.0004         41.2504
  -8439960.06946  -6562866.95646  23755824.8914   23755820.8524
        41.7504         37.0004
  -8350614.66646  -6623455.43946  23184699.4694   23184696.4104
        41.5004         38.5004
  -5765139.40746  -4477485.65745  24004606.0784   24004603.2894
        37.5004         32.7504
 20  5  1  1 46 30.0000000  0  9G16G23G27G 9G 4G 7G 3G26G 8
 -21070993.85948 -16717176.41646  20838574.2734   20838566.6884
        48.0004         38.2504
 -20490827.12948 -16274868.26346  20867201.0944   20867191.8134
        48.5004         38.2504
 -10686440.75747  -8298549.57246  22977601.6644   22977597.1844
        43.5004         41.5004
 -23817857.22648 -18537932.09248  20851599.1644   20851593.7624
        49.2504         52.2504
 -27439003.99447 -21356003.69346  20283234.2894   20283228.0124
        47.0004         41.0004
 -12028950.40947  -9332833.67846  23154066.6724   23154059.5124
        43.5004         40.7504
  -8332891.89346  -6479437.23946  23776199.1094   23776195.0434
        41.0004         37.0004
  -8253650.31646  -6547898.84646  23203151.8674   23203147.8794
        41.5004         38.2504
  -5865701.79846  -4555845.95645  23985470.7584   23985467.2034
        38.2504         33.0004
 20  5  1  1 47  0.0000000  0  9G16G23G27G 9G 4G 7G 3G26G 8
 -21017855.59948 -16675769.97946  20848686.0554   20848678.1214
        48.5004         38.0004
 -20537651.19448 -16311354.54946  20858290.6644   20858281.0984
        48.5004         38.2504
 -10761558.44947  -8357082.84446  22963306.0864   22963302.8754
        42.0004         41.5004
 -23869016.33748 -18577796.33048  20841864.3674   20841859.1334
        49.5004         52.2504
 -27422819.86647 -21343392.70046  20286314.3364   20286308.2344
        47.0004         41.5004
 -12097294.21047  -9386088.58446  23141060.5944   23141054.0084
        43.5004         41.0004
  -8225733.60046  -6395937.32346  23796590.2584   23796586.6564
        40.7504         36.2504
  -8156480.18946  -6472181.89946  23221642.6804   23221639.0594
        41.2504         38.0004
  -5966190.77546  -4634149.02545  23966347.4844   23966344.9184
        37.5004         33.5004
 20  5  1  1 47 30.0000000  0  9G16G23G27G 9G 4G 7G 3G26G 8
 -20964176.02148 -16633941.74046  20858900.8674   20858893.4064
        48.0004         37.7504
 -20584109.19948 -16347555.60346  20849449.5784   20849440.3094
        48.5004         38.2504
 -10836300.02847  -8415323.00947  22949083.8754   22949079.8364
        43.0004         42.0004
 -23919787.65848 -18617358.40348  20832202.9774   20832197.3984
        49.0004         52.2504
 -27406169.29347 -21330418.23746  20289482.7814   20289476.6564
        47.0004         41.7504
 -12165528.65047  -9439258.27046  23128076.4844   23128069.2504
        43.5004         41.2504
  -8118488.18246  -6312369.49645  23816997.5554   23816994.6604
        40.2504         35.2504
  -8059106.78746  -6396306.55246  23240171.8284   23240168.1054
        41.5004         37.5004
  -6066602.93546  -4712392.22645  23947239.8204   23947236.8284
        38.2504         34.0004
 20  5  1  1 48  0.0000000  0  9G16G23G27G 9G 4G 7G 3G26G 8
 -20909957.71347 -16591693.71546  20869218.5704   20869210.5664
        47.5004         38.0004
 -20630199.68548 -16383470.26646  20840678.9384   20840669.4494
        48.5004         38.0004
 -10910662.46147  -8473267.71346  22934934.6414   22934929.1294
        44.0004         41.7504
 -23970169.45748 -18656616.94748  20822615.3674   20822609.9654
        49.5004         52.5004
 -27389051.99347 -21317080.10046  20292740.2664   20292733.7894
        46.5004         41.0004
 -12233654.18547  -9492343.10346  23115112.8754   23115105.3404
        43.7504         41.0004
  -8011158.72046  -6228736.19645  23837422.7894   23837418.4654
        40.5004         35.2504
  -7961532.87046  -6320274.97046  23258740.2274   23258735.9454
        41.5004         37.5004
  -6166935.30346  -4790573.24745  23928148.1174   23928145.2854
        38.5004         34.7504
 20  5  1  1 48 30.0000000  0  9G16G23G27G 9G 4G 7G 3G26G 8
 -20855202.90347 -16549027.62746  20879638.0084   20879629.8524
        47.5004         38.2504
 -20675920.04148 -16419096.51846  20831978.8204   20831969.4064
        49.2504         38.2504
 -10984642.16047  -8530914.28346  22920854.4694   22920851.1954
        42.2504         41.0004
 -24020159.42248 -18695570.17148  20813102.5704   20813097.4104
        50.0004         52.5004
 -27371467.23147 -21303377.69846  20296086.1094   20296080.3014
        47.0004         41.2504
 -12301670.50947  -9545342.82846  23102169.7194   23102162.4844
        44.2504         41.0004
  -7903747.79846  -6145039.41945  23857861.9694   23857858.0234
        40.7504         35.2504
  -7863760.60547  -6244088.82946  23277345.9844   23277341.3524
        42.0004         37.2504
  -6267184.40146  -4868689.39645  23909070.9064   23909068.2774
        39.2504         35.7504
 20  5  1  1 49  0.0000000  0  9G16G23G27G 9G 4G 7G 3G26G 8
 -20799913.87747 -16505945.27346  20890159.4224   20890151.2504
        47.7504         37.2504
 -20721268.85847 -16454433.26646  20823349.0784   20823339.5704
        47.7504         38.2504
 -11058236.27247  -8588260.33746  22906850.3444   22906845.9304
        42.5004         41.0004
 -24069755.79648 -18734216.69948  20803664.7664   20803659.4184
        48.7504         52.5004
 -27353414.77247 -21289310.85446  20299521.6644   20299515.8364
        46.7504         41.2504
 -12369577.41447  -9598257.29846  23089246.9384   23089240.3834
        44.5004         41.2504
  -7796258.62946  -6061281.64745  23878316.2814   23878313.0044
        39.7504         35.5004
  -7765792.64846  -6167750.18146  23295987.7504   23295984.3134
        41.2504         36.5004
  -6367347.36346  -4946738.43346  23890010.2734   23890007.6454
        39.2504         36.2504
 20  5  1  1 49 30.0000000  0  9G16G23G27G 9G 4G 7G 3G26G 8
 -20744093.85748 -16462449.15646  20900780.9844   20900772.9844
        48.2504         37.7504
 -20766244.23048 -16489479.01446  20814790.4694   20814781.4024
        49.0004         38.2504
 -11131441.85447  -8645303.63446  22892920.1884   22892915.8594
        43.2504         41.0004
 -24118956.86448 -18772555.18848  20794302.1174   20794296.4694
        49.7504         52.7504
 -27334894.49147 -21274879.47846  20303046.4064   20303040.1764
        46.5004         41.5004
 -12437374.93847  -9651086.52346  23076346.0234   23076338.8404
        44.0004         41.5004
  -7688694.30746  -5977465.35545  23898785.7504   23898782.0984
        40.7504         35.7504
  -7667631.79546  -6091261.23946  23314667.4774   23314663.3834
        41.5004         37.2504
  -6467420.93146  -5024717.80645  23870967.4304   23870963.8674
        39.0004         35.5004
 20  5  1  1 50  0.0000000  0  9G16G23G27G 9G 4G 7G 3G26G 8
 -20687744.14947 -16418540.29646  20911504.1254   20911496.5664
        47.7504         38.2504
 -20810843.51748 -16524231.71046  20806303.8364   20806293.9924
        48.7504         38.0004
 -11204254.80347  -8702040.98346  22879064.6484   22879060.3914
        42.5004         41.5004
 -24167759.72848 -18810583.39048  20785015.2034   20785009.7704
        50.0004         52.7504
 -27315905.04947 -21260082.52346  20306659.3444   20306653.6024
        47.0004         41.2504
 -12505062.45847  -9703830.04347  23063465.6724   23063458.4654
        44.0004         42.0004
  -7581056.92446  -5893592.10646  23919267.8674   23919265.1254
        39.7504         36.0004
  -7569279.56247  -6014623.17146  23333383.3134   23333379.3834
        42.0004         36.5004
  -6567401.22746  -5102624.50545  23851941.3914   23851937.1454
        38.0004         33.5004
 20  5  1  1 50 30.0000000  0 10G16G23G30G27G 9G 4G 7G 3G26G 8
 -20630867.96148 -16374221.19146  20922327.2504   20922319.6454
        48.2504         37.5004
 -20855065.01647 -16558690.02846  20797888.4534   20797878.9144
        47.7504         38.0004
    374174.33155    307987.66154  25666841.4924   25666836.5984
        33.5004         26.5004
 -11276672.47747  -8758470.33947  22865283.3524   22865279.9414
        42.7504         42.0004
 -24216163.01648 -18848300.23948  20775804.3364   20775799.2234
        49.2504         52.7504
 -27296446.60247 -21244920.11246  20310362.3444   20310356.4694
        47.0004         40.7504
 -12572640.19647  -9756488.00247  23050605.7734   23050598.9694
        44.2504         42.0004
  -7473349.72946  -5809664.45845  23939762.8984   23939760.9534
        38.7504         35.7504
  -7470738.97646  -5937838.32846  23352134.8914   23352131.1334
        40.7504         36.7504
  -6667285.73146  -5180456.53245  23832934.2734   23832931.6334
        39.0004         35.5004
 20  5  1  1 51  0.0000000  0 10G16G23G30G27G 9G 4G 7G 3G26G 8
 -20573471.92947 -16329497.01646  20933249.5944   20933241.9224
        47.5004         37.5004
 -20898911.09648 -16592855.80846  20789545.1564   20789535.9534
        49.0004         38.0004
    287798.34245    240681.69344  25650404.2814   25650400.4574
        35.2504         26.7504
 -11348695.92647  -8814592.50346  22851578.1414   22851574.1214
        43.5004         41.7504
 -24264168.89248 -18885707.42048  20766669.2274   20766664.0204
        49.5004         52.7504
 -27276522.93047 -21229395.18646  20314153.7274   20314147.5824
        46.5004         41.0004
 -12640112.13647  -9809063.51847  23037766.1644   23037759.4964
        44.0004         42.0004
  -7365579.99446  -5725688.11345  23960272.8364   23960269.1174
        41.0004         35.7504
  -7372016.67946  -5860911.89946  23370921.1644   23370917.7234
        41.0004         36.7504
  -6767075.27846  -5258214.60545  23813944.6024   23813940.9614
        39.0004         35.2504
 20  5  1  1 51 30.0000000  0 10G16G23G30G27G 9G 4G 7G 3G26G 8
 -20515549.64447 -16284362.77446  20944271.9384   20944264.0084
        47.7504         37.2504
 -20942371.22448 -16626720.85346  20781274.7814   20781265.4144
        48.0004         38.2504
    201450.38645    173397.46144  25633974.1334   25633968.8014
        33.2504         25.5004
 -11420313.42847  -8870398.31946  22837949.7974   22837945.4384
        43.5004         41.7504
 -24311766.80148 -18922796.70248  20757611.6334   20757606.1764
        48.7504         52.7504
 -27256125.04447 -21213500.74446  20318035.7194   20318029.2894
        46.5004         41.0004
 -12707469.46147  -9861549.73246  23024948.3834   23024941.3834
        44.0004         41.7504
  -7257741.83446  -5641658.43645  23980793.2814   23980789.6094
        39.0004         34.7504
  -7273106.48846  -5783839.05646  23389742.8984   23389739.4844
        41.2504         37.2504
  -6866758.22246  -5335889.63645  23794976.1484   23794972.3444
        40.0004         34.5004
 20  5  1  1 52  0.0000000  0 10G16G23G30G27G 9G 4G 7G 3G26G 8
 -20457107.89347 -16238823.74846  20955392.9844   20955385.5904
        47.5004         37.5004
 -20985447.97348 -16660287.15446  20773077.8984   20773068.3674
        49.0004         38.5004
    115126.21945    106131.78044  25617546.3834   25617541.7734
        35.2504         28.0004
 -11491526.34047  -8925888.88247  22824398.3284   22824394.2274
        42.7504         42.0004
 -24358959.30448 -18959570.08748  20748631.1414   20748625.8324
        50.2504         52.7504
 -27235257.12747 -21197240.04146  20322006.3834   20322000.4144
        46.2504         40.7504
 -12774716.96947  -9913950.37346  23012151.8674   23012144.8244
        44.2504         41.7504
  -7149842.76146  -5557581.31945  24001326.7274   24001322.6804
        40.5004         35.0004
  -7174015.39547  -5706625.26646  23408599.9144   23408596.3594
        42.0004         37.2504
  -6966335.86046  -5413482.54745  23776026.6484   23776022.2664
        38.7504         34.0004
 20  5  1  1 52 30.0000000  0 10G16G23G30G27G 9G 4G 7G 3G26G 8
 -20398149.73147 -16192882.33346  20966611.6334   20966604.6254
        47.0004         37.5004
 -21028139.21048 -16693553.05746  20764953.4614   20764944.1994
        49.0004         39.0004
     28826.15745     38885.02044  25601123.6484   25601119.6914
        32.0004         25.2504
 -11562331.22047  -8981061.49947  22810924.2034   22810920.2584
        42.7504         42.0004
 -24405744.18848 -18996025.84548  20739728.2974   20739723.1094
        49.7504         52.7504
 -27213918.53847 -21180612.58646  20326066.9774   20326061.1254
        46.5004         40.7504
 -12841853.83247  -9966264.80646  22999376.0704   22999369.3204
        43.7504         41.7504
  -7041885.30946  -5473458.65045  24021869.0394   24021866.1094
        40.0004         34.5004
  -7074745.51346  -5629272.13746  23427489.7344   23427486.4064
        41.5004         36.2504
  -7065804.49146  -5490990.55045  23757098.3364   23757094.9414
        39.0004         34.7504
 20  5  1  1 53  0.0000000  0 10G16G23G30G27G 9G 4G 7G 3G26G 8
 -20338677.83047 -16146540.59746  20977929.5554   20977921.8834
        47.7504         37.5004
 -21070443.12948 -16726517.16346  20756903.6094   20756894.0164
        49.0004         38.7504
    -57449.63446    -28342.92844  25584706.2034   25584702.5744
        36.0004         27.7504
 -11632725.41547  -9035914.10647  22797528.8594   22797524.4924
        43.2504         42.0004
 -24452119.84548 -19032162.72348  20730903.2664   20730897.6764
        49.2504         52.7504
 -27192109.34147 -21163618.42746  20330216.8524   20330211.0944
        46.2504         41.2504
 -12908880.31647 -10018493.21547  22986621.5864   22986614.3054
        44.2504         42.0004
  -6933872.79746  -5389293.10145  24042423.4614   24042419.9344
        40.0004         34.5004
  -6975299.66846  -5551781.91546  23446414.9844   23446410.6054
        41.5004         37.0004
  -7165161.36346  -5568411.43646  23738191.7344   23738188.9574
        39.2504         36.2504
 20  5  1  1 53 30.0000000  0 10G16G23G30G27G 9G 4G 7G 3G26G 8
 -20278693.94248 -16099799.91846  20989343.9844   20989336.2424
        48.0004         38.0004
 -21112357.56248 -16759177.76146  20748927.4454   20748918.4104
        49.5004         38.5004
   -143700.48745    -95551.44544  25568292.5944   25568289.6414
        35.0004         24.5004
 -11702705.04947  -9090443.68246  22784211.7974   22784208.0274
        43.0004         41.7504
 -24498083.70748 -19067978.71848  20722156.3914   20722151.2934
        50.0004         52.7504
 -27169828.54147 -21146256.77146  20334456.9844   20334451.1334
        46.5004         40.7504
 -12975795.75947 -10070635.10847  22973888.1414   22973880.8554
        45.2504         42.0004
  -6825807.31246  -5305086.27945  24062987.0394   24062984.2464
        40.2504         35.0004
  -6875679.62347  -5474155.94246  23465371.3984   23465367.3874
        42.0004         36.2504
  -7264402.75846  -5645742.39546  23719306.5084   23719303.7584
        39.5004         37.0004
 20  5  1  1 54  0.0000000  0 10G16G23G30G27G 9G 4G 7G 3G26G 8
 -20218201.11148 -16052662.65446  21000855.4384   21000847.6524
        48.0004         37.5004
 -21153880.56048 -16791533.34746  20741025.7194   20741016.5824
        49.5004         38.5004
   -229926.65545   -162740.75344  25551885.1564   25551881.0394
        35.2504         26.5004
 -11772267.54247  -9144648.20746  22770974.8594   22770970.5394
        43.0004         41.2504
 -24543634.28648 -19103472.68548  20713488.7664   20713483.4654
        50.5004         52.7504
 -27147076.31047 -21128527.76846  20338786.6884   20338780.5944
        47.0004         40.7504
 -13042600.53847 -10122690.76047  22961175.0944   22961167.9344
        45.0004         42.5004
  -6717692.33346  -5220840.89145  24083561.7274   24083557.6994
        40.5004         34.5004
  -6775888.18346  -5396396.42246  23484361.0164   23484357.5164
        41.0004         36.0004
  -7363525.69446  -5722981.00446  23700444.0864   23700440.8674
        39.0004         36.2504
 20  5  1  1 54 30.0000000  0 10G16G23G30G27G 9G 4G 7G 3G26G 8
 -20157201.91647 -16005130.82146  21012463.1954   21012455.6174
        47.5004         37.0004
 -21195010.36248 -16823582.55646  20733199.0004   20733189.6764
        49.0004         38.7504
   -316127.85845   -229910.54344  25535482.1644   25535478.0704
        35.2504         27.7504
 -11841409.78347  -9198525.26947  22757817.5784   22757813.5124
        43.2504         42.0004
 -24588769.62648 -19138643.07648  20704899.8914   20704894.0664
        50.5004         52.7504
 -27123852.28847 -21110431.15046  20343206.3134   20343200.1174
        46.2504         41.0004
 -13109294.24247 -10174659.87047  22948483.6414   22948476.7664
        44.2504         42.0004
  -6609530.42446  -5136558.93145  24104143.6724   24104140.2854
        38.5004         34.5004
  -6675927.80046  -5318505.25345  23503382.7034   23503378.7074
        41.0004         35.2504
  -7462526.82546  -5800124.75946  23681604.1644   23681600.8674
        38.7504         36.0004
 20  5  1  1 55  0.0000000  0 10G16G23G30G27G 9G 4G 7G 3G26G 8
 -20095698.65947 -15957206.21746  21024167.1954   21024159.7114
        47.7504         37.5004
 -21235745.13748 -16855323.94346  20725447.5234   20725438.2624
        48.5004         38.7504
   -402303.70746   -297060.62944  25519083.3054   25519079.0164
        37.0004         29.2504
 -11910128.62747  -9252072.41147  22744741.2114   22744736.8164
        43.0004         42.0004
 -24633487.72148 -19173488.35748  20696390.3134   20696384.6374
        50.2504         53.0004
 -27100156.23647 -21091966.71346  20347715.2274   20347709.0434
        46.0004         40.7504
 -13175876.89247 -10226542.44447  22935813.7274   22935806.3634
        44.7504         42.2504
  -6501324.71646  -5052242.88845  24124736.4064   24124731.4064
        40.5004         34.7504
  -6575800.82946  -5240484.27345  23522436.0474   23522432.7384
        41.2504         35.5004
  -7561403.02046  -5877171.06445  23662788.7194   23662784.3594
        39.2504         35.5004
 20  5  1  1 55 30.0000000  0 10G16G23G30G27G 9G 4G 7G 3G26G 8
 -20033694.65847 -15908891.41346  21035965.9534   21035957.9534
        47.2504         37.5004
 -21276083.07447 -16886756.09946  20717771.5944   20717762.1484
        47.7504         38.7504
   -488454.54646   -364191.19944  25502688.9924   25502684.7544
        37.0004         29.0004
 -11978421.37947  -9305287.51447  22731745.4924   22731741.0514
        43.5004         42.5004
 -24677787.04448 -19208007.30848  20687960.2344   20687954.9534
        48.5004         53.0004
 -27075988.18647 -21073134.47846  20352314.0394   20352308.5314
        46.2504         41.0004
 -13242348.57947 -10278338.55847  22923164.3594   22923157.1334
        45.0004         42.5004
  -6393078.20246  -4967895.00845  24145334.0474   24145330.4144
        39.5004         34.2504
  -6475509.98146  -5162335.59445  23541520.2974   23541517.3794
        41.5004         35.2504
  -7660151.50646  -5954117.89646  23643997.8054   23643995.8284
        40.2504         37.0004
 20  5  1  1 56  0.0000000  0 10G16G23G30G27G 9G 4G 7G 3G26G 8
 -19971191.69347 -15860187.81246  21047859.6954   21047852.0554
        47.7504         37.0004
 -21316021.82248 -16917877.20546  20710171.7584   20710161.8444
        48.0004         38.7504
   -574579.56445   -431301.65344  25486299.5704   25486296.3754
        34.2504         27.2504
 -12046284.47747  -9358167.81647  22718831.3134   22718827.0744
        43.7504         42.0004
 -24721665.10848 -19242198.01448  20679610.5864   20679605.1564
        48.7504         53.0004
 -27051347.33747 -21053933.83446  20357003.2974   20356997.4574
        46.2504         41.0004
 -13308708.77047 -10330047.77747  22910536.6484   22910529.4454
        44.5004         42.2504
  -6284793.22146  -4883517.11445  24165939.3204   24165935.8364
        39.7504         34.0004
  -6375057.08546  -5084060.64245  23560637.0394   23560633.0984
        41.2504         35.5004
  -7758768.57746  -6030962.38846  23625231.5944   23625228.1644
        40.2504         36.2504
 20  5  1  1 56 30.0000000  0 10G16G23G30G27G 9G 4G 7G 3G26G 8
 -19908192.41047 -15811097.46746  21059847.9384   21059840.5864
        47.2504         36.5004
 -21355559.58348 -16948685.85646  20702647.6174   20702638.3364
        48.0004         38.7504
   -660678.60046   -498391.81744  25469915.8364   25469912.1094
        37.5004         28.0004
 -12113714.91247  -9410711.00747  22706000.0004   22705995.9224
        44.0004         42.7504
 -24765120.14148 -19276059.08548  20671341.4454   20671336.1214
        50.5004         53.2504
 -27026233.57147 -21034364.68446  20361782.4694   20361776.1254
        46.5004         41.0004
 -13374957.09147 -10381669.83547  22897929.6884   22897922.5554
        44.5004         42.2504
  -6176472.69646  -4799111.57445  24186552.4694   24186548.6374
        39.2504         33.7504
  -6274444.55846  -5005661.31045  23579782.3444   23579778.9534
        41.2504         35.5004
  -7857251.02046  -6107701.97346  23606491.3284   23606488.2934
        40.2504         37.0004
 20  5  1  1 57  0.0000000  0 10G16G23G30G27G 9G 4G 7G 3G26G 8
 -19844699.86248 -15761622.76046  21071930.2034   21071922.0744
        48.0004         37.2504
 -21394694.96348 -16979180.94946  20695200.2894   20695190.7814
        48.0004         38.7504
   -746751.79345   -565461.95444  25453535.7274   25453533.7664
        35.0004         29.5004
 -12180710.11447  -9462915.05147  22693250.8524   22693246.4384
        43.5004         43.0004
 -24808150.61848 -19309589.33348  20663152.7274   20663147.5704
        50.2504         53.2504
 -27000647.12747 -21014427.21546  20366651.0704   20366645.3164
        46.0004         40.2504
 -13441093.77747 -10433204.90547  22885344.0164   22885337.7074
        43.7504         42.2504
  -6068119.89146  -4714680.88345  24207171.3524   24207167.4454
        39.0004         34.0004
  -6173675.33346  -4927139.88145  23598958.9224   23598954.2154
        41.5004         35.7504
  -7955595.62646  -6184334.14546  23587776.7664   23587772.9344
        40.0004         36.2504
 20  5  1  1 57 30.0000000  0 10G16G23G30G27G 9G 4G 7G 3G26G 8
 -19780716.23348 -15711765.39146  21084105.8754   21084098.0944
        48.5004         37.5004
 -21433425.32448 -17009360.45946  20687830.4774   20687820.7424
        48.0004         38.7504
   -832798.39245   -632511.23544  25437161.8674   25437158.8324
        32.5004         26.5004
 -12247266.43447  -9514777.10447  22680585.5234   22680581.7304
        43.2504         42.7504
 -24850754.03348 -19342786.79848  20655045.7504   20655040.4264
        50.2504         53.2504
 -26974587.12247 -20994120.73246  20371610.2584   20371604.3284
        46.5004         40.5004
 -13507118.39847 -10484652.64747  22872780.3984   22872773.5234
        44.0004         42.5004
  -5959736.99846  -4630226.72645  24227794.9454   24227792.2544
        38.7504         34.2504
  -6072751.09047  -4848497.64246  23618165.1174   23618160.3014
        42.5004         36.2504
  -8053798.90546  -6260856.12546  23569089.5864   23569085.2344
        40.5004         36.5004
 20  5  1  1 58  0.0000000  0 10G16G23G30G27G 9G 4G 7G 3G26G 8
 -19716244.99648 -15661528.06746  21096374.5164   21096366.8914
        48.5004         36.7504
 -21471749.85848 -17039223.73246  20680537.2894   20680527.8794
        48.7504         38.7504
   -918819.08146   -699540.35544  25420794.2814   25420789.2894
        37.5004         26.2504
 -12313381.89247  -9566295.61047  22668004.4304   22668000.3094
        43.7504         42.5004
 -24892929.56248 -19375650.85148  20647020.2974   20647014.6954
        50.0004         53.2504
 -26948054.40647 -20973445.90846  20376659.3524   20376653.5984
        46.0004         40.2504
 -13573031.61447 -10536013.57547  22860237.4064   22860230.4574
        44.2504         42.7504
  -5851327.86146  -4545752.13545  24248425.0704   24248421.8594
        39.7504         33.5004
  -5971675.12246  -4769737.18045  23637396.9774   23637394.5554
        40.7504         35.0004
  -8151858.40846  -6337266.11946  23550428.7664   23550426.0164
        40.2504         37.5004
 20  5  1  1 58 30.0000000  0 10G16G23G30G27G 9G 4G 7G 3G26G 8
 -19651287.70648 -15610912.00646  21108735.1174   21108727.9064
        49.0004         36.7504
 -21509665.42247 -17068768.32746  20673322.4454   20673312.9734
        47.7504         38.7504
  -1004812.30845   -766548.10544  25404429.9774   25404425.8794
        35.0004         29.0004
 -12379052.11747  -9617467.18247  22655507.5314   22655503.4024
        43.7504         42.7504
 -24934673.87848 -19408178.89048  20639076.2194   20639070.9804
        49.7504         53.0004
 -26921047.45847 -20952401.55346  20381798.4924   20381793.0554
        46.2504         40.7504
 -13638831.95147 -10587286.55447  22847716.3914   22847709.0044
        44.0004         42.5004
  -5742894.01546  -4461258.26045  24269059.3054   24269056.1294
        39.2504         33.5004
  -5870448.45846  -4690859.30946  23656659.8524   23656657.6054
        41.5004         36.0004
  -8249769.73046  -6413560.64246  23531796.8134   23531794.6844
        40.5004         37.7504
 20  5  1  1 59  0.0000000  0 10G16G23G30G27G 9G 4G 7G 3G26G 8
 -19585847.95548 -15559919.98846  21121188.3674   21121180.3444
        48.5004         36.7504
 -21547170.98647 -17097993.44646  20666185.2814   20666176.0394
        47.7504         38.7504
  -1090778.82145   -833534.99344  25388070.5474   25388066.6604
        33.7504         27.7504
 -12444275.01147  -9668290.19747  22643096.1094   22643091.9574
        43.5004         42.5004
 -24975985.94548 -19440370.10948  20631214.9304   20631209.5944
        48.7504         53.2504
 -26893566.94447 -20930988.17946  20387028.0394   20387022.1484
        46.7504         40.7504
 -13704520.06147 -10638472.08647  22835216.4534   22835208.9064
        44.5004         42.7504
  -5634438.94846  -4376747.89345  24289699.5864   24289695.2774
        40.5004         33.0004
  -5769074.33347  -4611866.53245  23675952.2194   23675948.0164
        42.5004         35.5004
  -8347530.11946  -6489737.55646  23513194.3444   23513190.5234
        40.7504         37.0004
 20  5  1  1 59 30.0000000  0 10G16G23G30G27G 9G 4G 7G 3G26G 8
 -19519928.17648 -15508553.94146  21133732.4694   21133724.8204
        48.5004         37.2504
 -21584264.80347 -17126897.72746  20659126.6094   20659117.5164
        47.7504         39.0004
  -1176718.37045   -900500.89544  25371716.8134   25371713.2894
        35.5004         29.2504
 -12509047.65047  -9718762.36147  22630770.1174   22630765.9654
        43.5004         42.7504
 -25016864.04648 -19472223.17348  20623436.3594   20623431.1134
        49.0004         53.2504
 -26865612.80447 -20909205.74546  20392347.2424   20392341.6604
        46.0004         40.5004
 -13770095.79247 -10689570.04947  22822738.0314   22822730.1294
        45.0004         43.0004
  -5525965.63146  -4292223.25945  24310339.6094   24310336.7934
        40.2504         32.5004
  -5667555.06347  -4532760.65246  23695270.9454   23695266.5944
        42.5004         36.2504
  -8445136.87146  -6565794.71446  23494620.1094   23494616.3324
        40.2504         37.0004
 20  5  1  2  0  0.0000000  0 10G16G23G30G27G 9G 4G 7G 3G26G 8
 -19453530.40548 -15456815.42746  21146367.6024   21146359.5864
        48.2504         36.5004
 -21620944.12747 -17155479.02946  20652146.7194   20652137.5314
        47.7504         38.7504
  -1262630.11345   -967445.17444  25355368.6174   25355364.8874
        35.7504         28.7504
 -12573366.56247  -9768880.96647  22618530.8054   22618526.6684
        43.5004         43.0004
 -25057305.73648 -19503736.17748  20615740.0314   20615735.2234
        49.5004         53.2504
 -26837184.34647 -20887053.71846  20397757.4924   20397751.5004
        46.5004         40.0004
 -13835558.23847 -10740579.74147  22810280.3984   22810273.2664
        45.2504         43.2504
  -5417476.34146  -4207686.20645  24330984.1094   24330982.1844
        38.0004         33.0004
  -5565892.47347  -4453543.10745  23714616.5704   23714612.5594
        42.2504         34.7504
  -8542585.86946  -6641729.00046  23476076.2034   23476072.4964
        40.7504         37.2504
 20  5  1  2  0 30.0000000  0 10G16G23G30G27G 9G 4G 7G 3G26G 8
 -19386657.29448 -15404706.51746  21159093.1484   21159085.5274
        48.2504         36.7504
 -21657207.18248 -17183735.96446  20645245.9774   20645236.7234
        48.0004         39.0004
  -1348513.63245  -1034367.42944  25339025.6564   25339021.2344
        35.7504         28.0004
 -12637228.58447  -9818643.56547  22606378.2894   22606373.7894
        44.2504         42.7504
 -25097308.95548 -19534907.52348  20608128.0944   20608122.8754
        49.0004         53.2504
 -26808281.27747 -20864531.85946  20403257.5474   20403251.8134
        46.5004         40.0004
 -13900907.20947 -10791501.00747  22797844.9924   22797837.5274
        44.5004         43.0004
  -5308973.61146  -4123138.69245  24351631.3984   24351628.7304
        38.0004         33.0004
  -5464088.66246  -4374215.49845  23733988.0704   23733984.5514
        40.7504         35.0004
  -8639873.75946  -6717537.69146  23457563.0474   23457560.6294
        40.2504         37.5004
 20  5  1  2  1  0.0000000  0 10G16G23G30G27G 9G 4G 7G 3G26G 8
 -19319313.13348 -15352230.55146  21171907.9844   21171900.0744
        48.5004         36.5004
 -21693053.58748 -17211668.22846  20638424.6334   20638415.2664
        48.0004         39.0004
  -1434370.39845  -1101268.82044  25322686.7194   25322683.6524
        35.2504         27.5004
 -12700632.39647  -9868049.11947  22594312.5554   22594308.2584
        43.5004         42.5004
 -25136873.48748 -19565737.03248  20600598.9774   20600593.8134
        49.0004         53.2504
 -26778905.05247 -20841641.31046  20408847.4924   20408841.5634
        46.7504         39.5004
 -13966144.11547 -10842334.95647  22785430.5314   22785423.4064
        44.2504         42.7504
  -5200461.88746  -4038584.19245  24372282.0394   24372278.3954
        39.5004         33.2504
  -5362147.58646  -4294780.92345  23753386.7734   23753383.9774
        40.7504         35.0004
  -8736998.46346  -6793219.27546  23439080.3364   23439076.1724
        40.2504         37.0004
 20  5  1  2  1 30.0000000  0 10G16G23G30G27G 9G 4G 7G 3G26G 8
 -19251499.13948 -15299388.48845  21184813.0314   21184805.2624
        48.7504         35.7504
 -21728480.24048 -17239273.41946  20631683.4144   20631674.2894
        48.2504         39.0004
  -1520198.66845  -1168148.04444  25306354.2584   25306350.7344
        35.5004         26.2504
 -12763573.68747  -9917094.25647  22582335.6334   22582330.9454
        43.7504         42.5004
 -25175996.05348 -19596222.14748  20593154.3134   20593149.2624
        48.5004         53.2504
 -26749054.24047 -20818380.94246  20414528.0084   20414521.9884
        45.7504         39.7504
 -14031267.39547 -10893080.35047  22773038.5394   22773031.0124
        44.0004         43.0004
  -5091942.51346  -3954023.70045  24392931.5634   24392929.0084
        38.7504         33.5004
  -5260070.10346  -4215240.08745  23772812.9144   23772808.9104
        41.2504         35.5004
  -8833955.95446  -6868770.55646  23420629.4304   23420626.2814
        40.2504         37.5004
 20  5  1  2  2  0.0000000  0 10G16G23G30G27G 9G 4G 7G 3G26G 8
 -19183218.23948 -15246182.59646  21197806.2504   21197798.6134
        48.5004         36.7504
 -21763485.34248 -17266550.13446  20625021.9774   20625012.5984
        48.2504         39.2504
  -1605998.44646  -1235005.07344  25290027.9304   25290023.4774
        36.2504         28.5004
 -12826049.81547  -9965776.93247  22570446.5314   22570442.4844
        43.2504         42.5004
 -25214675.11948 -19626361.68848  20585793.6724   20585788.8794
        48.7504         53.2504
 -26718728.95547 -20794750.87046  20420298.3754   20420292.9024
        45.7504         40.0004
 -14096277.22747 -10943737.33547  22760667.1484   22760660.4454
        44.5004         43.0004
  -4983418.47346  -3869459.58545  24413582.7814   24413580.2344
        38.7504         33.2504
  -5157858.70746  -4135594.88845  23792261.9844   23792258.4694
        40.5004         35.2504
  -8930743.20146  -6944189.12546  23402211.9694   23402209.2974
        39.5004         36.7504
 20  5  1  2  2 30.0000000  0 10G16G23G30G27G 9G 4G 7G 3G26G 8
 -19114474.02448 -15192615.68346  21210887.7034   21210880.0004
        48.2504         36.7504
 -21798067.78147 -17293497.49846  20618441.3984   20618431.7424
        47.7504         39.2504
  -1691770.12045  -1301840.17444  25273705.9694   25273702.3014
        35.7504         28.0004
 -12888058.47447 -10014095.35247  22558646.7974   22558642.4534
        43.2504         42.7504
 -25252909.39648 -19656154.64448  20578518.3134   20578512.8634
        48.5004         53.2504
 -26687929.76547 -20770751.51946  20426159.1484   20426153.8204
        45.5004         39.7504
 -14161173.56847 -10994305.91147  22748317.5474   22748310.4534
        44.5004         43.2504
  -4874893.20846  -3784894.51445  24434235.1094   24434231.8404
        39.0004         33.2504
  -5055516.40746  -4055847.68445  23811737.9614   23811734.2774
        40.5004         34.7504
  -9027356.74546  -7019472.35746  23383826.6414   23383822.1254
        40.0004         37.0004
 20  5  1  2  3  0.0000000  0 10G16G23G30G27G 9G 4G 7G 3G26G 8
 -19045268.36448 -15138689.20146  21224057.4224   21224049.6174
        48.0004         36.2504
 -21832225.15947 -17320113.64146  20611941.6724   20611932.0394
        47.7504         39.5004
  -1777512.72646  -1368652.60644  25257389.9144   25257385.7774
        36.5004         26.7504
 -12949596.08447 -10062046.71047  22546936.3834   22546931.8754
        43.5004         42.5004
 -25290696.37148 -19685599.04348  20571327.3754   20571321.8164
        48.5004         53.2504
 -26656655.92747 -20746382.29846  20432110.7664   20432104.7114
        45.5004         39.7504
 -14225956.19147 -11044785.86047  22735989.6804   22735982.7734
        44.0004         43.5004
  -4766368.69046  -3700330.03245  24454886.9384   24454883.3284
        39.0004         31.5004
  -4953044.55346  -3975999.52845  23831236.7034   23831233.6334
        39.5004         34.2504
  -9123793.18646  -7094617.59146  23365475.6174   23365473.3404
        40.7504         38.0004
 20  5  1  2  3 30.0000000  0 10G16G23G30G27G 9G 4G 7G 3G26G 8
 -18975603.99348 -15084405.28546  21237313.7344   21237306.2814
        48.2504         36.5004
 -21865955.78347 -17346397.24946  20605522.7194   20605513.3094
        47.7504         39.5004
  -1863226.29345  -1435442.41744  25241078.1804   25241075.2974
        35.0004         28.0004
 -13010659.97847 -10109628.94447  22535316.1254   22535312.2384
        43.5004         43.0004
 -25328034.42748 -19714693.63048  20564222.6804   20564216.8524
        48.5004         53.2504
 -26624907.52747 -20721643.29946  20438152.0164   20438146.2664
        45.5004         40.2504
 -14290624.38647 -11095176.66247  22723684.1564   22723676.9064
        44.7504         43.5004
  -4657847.91246  -3615768.45645  24475537.4534   24475533.7704
        40.0004         32.0004
  -4850445.78546  -3896052.49045  23850761.1884   23850758.1644
        40.2504         34.5004
  -9220049.52946  -7169622.49346  23347158.8754   23347155.6484
        41.2504         38.2504
 20  5  1  2  4  0.0000000  0 10G16G23G30G27G 9G 4G 7G 3G26G 8
 -18905483.96148 -15029766.30446  21250657.3134   21250649.4224
        48.0004         36.2504
 -21899257.94848 -17372346.98746  20599185.6254   20599176.6094
        48.2504         39.5004
  -1948910.65646  -1502209.49944  25224773.8914   25224769.8634
        36.0004         28.0004
 -13071247.50047 -10156839.98347  22523786.9534   22523782.6374
        44.2504         43.0004
 -25364921.94648 -19743437.15148  20557202.9384   20557197.4804
        49.2504         53.2504
 -26592684.83647 -20696534.72446  20444283.5474   20444278.0354
        45.7504         39.5004
 -14355178.38047 -11145478.46947  22711399.9534   22711392.6094
        45.0004         43.7504
  -4549333.75746  -3531212.03845  24496186.6484   24496183.3554
        38.0004         30.2504
  -4747722.42246  -3816008.34045  23870308.3134   23870305.2384
        40.0004         34.7504
  -9316122.50046  -7244484.52546  23328876.2584   23328872.6644
        40.5004         37.5004
 20  5  1  2  4 30.0000000  0 10G16G23G30G27G 9G 4G 7G 3G26G 8
 -18834911.04548 -14974774.42846  21264086.8834   21264079.1724
        48.7504         36.0004
 -21932130.06747 -17397961.63446  20592930.1024   20592920.8054
        47.7504         39.5004
  -2034565.75046  -1568953.70244  25208474.8134   25208470.5274
        36.5004         29.0004
 -13131355.93147 -10203677.70547  22512348.5084   22512344.4064
        43.7504         43.0004
 -25401357.28948 -19771828.33148  20550269.6024   20550264.3164
        49.2504         53.5004
 -26559987.95847 -20671056.65246  20450505.8674   20450500.1604
        45.5004         39.7504
 -14419618.33547 -11195691.40847  22699137.2894   22699130.4774
        44.7504         44.0004
  -4440829.19046  -3446663.12045  24516837.0004   24516831.9964
        40.2504         30.2504
  -4644876.90446  -3735869.04545  23889879.5394   23889875.9494
        40.0004         34.0004
  -9412008.45146  -7319200.79146  23310629.9064   23310626.8134
        40.7504         37.5004
 20  5  1  2  5  0.0000000  0 10G16G23G30G27G 9G 4G 7G 3G26G 8
 -18763887.87748 -14919431.71045  21277602.1724   21277594.3524
        48.7504         35.7504
 -21964570.29547 -17423239.73746  20586756.7734   20586747.4534
        47.7504         39.2504
  -2120191.15856  -1635674.85354  25192180.6414   25192176.2424
        37.0004         29.5004
 -13190982.45047 -10250139.90947  22501001.5944   22500997.9144
        43.7504         43.0004
 -25437338.56448 -19799865.69048  20543422.3054   20543417.2344
        48.5004         53.5004
 -26526816.76447 -20645208.98446  20456818.3834   20456812.4384
        46.0004         40.0004
 -14483943.64047 -11245815.01447  22686896.8364   22686889.7704
        45.0004         44.2504
  -4332336.79946  -3362123.63945  24537480.4534   24537477.3164
        40.0004         31.5004
  -4541911.38046  -3655636.21845  23909473.1954   23909470.0864
        40.2504         34.5004
  -9507704.67446  -7393769.28246  23292419.0864   23292415.6054
        40.0004         37.5004
 20  5  1  2  5 30.0000000  0 10G16G23G30G27G 9G 4G 7G 3G26G 8
 -18692417.38348 -14863740.41646  21291202.6174   21291194.5004
        48.0004         36.0004
 -21996576.65548 -17448179.76346  20580666.2194   20580656.6484
        48.5004         39.5004
  -2205786.71445  -1702372.72844  25175891.8134   25175887.9924
        35.2504         29.7504
 -13250124.12347 -10296224.31147  22489747.6414   22489743.2814
        43.7504         43.0004
 -25472863.94548 -19827547.80748  20536662.4844   20536657.1684
        48.7504         53.5004
 -26493171.27147 -20618991.72346  20463220.4844   20463214.8634
        45.7504         39.5004
 -14548154.25647 -11295849.25847  22674677.6334   22674670.8164
        44.7504         43.7504
  -4223859.23247  -3277595.76045  24558124.6094   24558119.8984
        42.2504         31.7504
  -4438827.98346  -3575311.54545  23929089.7194   23929086.0434
        41.5004         35.0004
  -9603207.66846  -7468187.13146  23274246.7194   23274242.3634
        40.5004         38.0004
 20  5  1  2  6  0.0000000  0 10G16G23G30G27G 9G 4G 7G 3G26G 8
 -18620501.83648 -14807702.33845  21304887.5084   21304879.7424
        48.2504         35.5004
 -22028147.43148 -17472780.37046  20574658.5864   20574649.1844
        48.0004         39.5004
  -2291351.95246  -1769046.88045  25159609.8364   25159606.4534
        37.0004         30.7504
 -13308778.05647 -10341928.65547  22478586.2274   22478581.8554
        44.0004         43.0004
 -25507931.54048 -19854873.20948  20529989.1954   20529983.8524
        49.0004         53.5004
 -26459051.39847 -20592404.82146  20469713.4454   20469707.8754
        47.0004         39.7504
 -14612249.84347 -11345793.85347  22662480.5394   22662473.5824
        45.0004         43.7504
  -4115399.03946  -3193081.37345  24578761.1024   24578759.6914
        37.7504         33.0004
  -4335628.79646  -3494896.61645  23948727.8594   23948723.2194
        41.2504         34.2504
  -9698513.94246  -7542451.75946  23256109.2584   23256106.6374
        40.0004         37.7504
 20  5  1  2  6 30.0000000  0 10G16G23G30G27G 9G 4G 7G 3G26G 8
 -18548144.47048 -14751319.98246  21318656.7344   21318649.0634
        48.0004         36.5004
 -22059280.98848 -17497040.30346  20568733.8914   20568724.5904
        48.0004         39.5004
  -2376886.94946  -1835697.55845  25143332.2114   25143329.4844
        37.0004         31.7504
 -13366941.80647 -10387251.03847  22467518.0474   22467513.8874
        43.7504         43.0004
 -25542539.88548 -19881840.75748  20523403.1954   20523398.0354
        48.7504         53.5004
 -26424457.50247 -20565448.54646  20476296.4844   20476290.5904
        46.2504         39.5004
 -14676229.95147 -11395648.47447  22650305.4924   22650298.5824
        44.5004         43.5004
  -4006959.36746  -3108583.01745  24599398.9534   24599395.1564
        40.0004         32.0004
  -4232316.42646  -3414393.48845  23968386.4534   23968383.6684
        39.7504         33.5004
  -9793620.76146  -7616560.90646  23238011.1174   23238008.0864
        40.2504         38.2504
 20  5  1  2  7  0.0000000  0 10G16G23G30G27G 9G 4G 7G 3G26G 8
 -18475347.82748 -14694595.33645  21332509.5554   21332501.5824
        49.0004         35.5004
 -22089975.28948 -17520957.93746  20562893.1094   20562883.9224
        48.5004         39.5004
  -2462391.10646  -1902324.22445  25127062.1954   25127058.3484
        37.7504         31.5004
 -13424612.36147 -10432189.11347  22456544.0004   22456539.2384
        43.7504         43.2504
 -25576687.02248 -19908448.91348  20516905.5474   20516900.1374
        48.7504         53.5004
 -26389389.40447 -20538122.76346  20482969.9694   20482964.2664
        46.2504         39.2504
 -14740094.50447 -11445413.04847  22638152.3674   22638145.3554
        45.0004         43.2504
  -3898542.61146  -3024102.51345  24620030.0474   24620026.1294
        40.0004         31.5004
  -4128892.71546  -3333803.65845  23988068.6644   23988064.5204
        41.7504         34.0004
  -9888524.19346  -7690511.63446  23219951.2504   23219948.8324
        40.7504         38.5004
 20  5  1  2  7 30.0000000  0 10G16G23G30G27G 9G 4G 7G 3G26G 8
 -18402114.67148 -14637530.55345  21346445.2584   21346437.4924
        48.5004         35.7504
 -22120228.69848 -17544532.02546  20557136.5784   20557127.2154
        48.5004         39.7504
  -2547864.41446  -1968926.78145  25110797.4384   25110792.7934
        38.5004         30.5004
 -13481787.04147 -10476740.79247  22445663.8054   22445659.4454
        43.7504         43.5004
 -25610371.26248 -19934696.38248  20510495.5314   20510490.3244
        48.5004         53.5004
 -26353847.25147 -20510427.60046  20489733.1024   20489727.6054
        47.0004         39.0004
 -14803843.24947 -11495087.38347  22626021.5554   22626014.5904
        44.5004         43.5004
  -3790151.51846  -2939642.00745  24640655.7114   24640652.6524
        39.0004         32.5004
  -4025360.01846  -3253128.88345  24007770.0704   24007766.8554
        40.2504         34.0004
  -9983220.81646  -7764301.18446  23201931.8204   23201929.0394
        41.2504         39.7504
 20  5  1  2  8  0.0000000  0 10G16G23G30G27G 9G 4G 7G 3G26G 8
 -18328448.25448 -14580128.14945  21360463.8524   21360456.0944
        48.0004         35.5004
 -22150039.96348 -17567761.59046  20551463.3524   20551453.8554
        48.2504         39.5004
  -2633306.75545  -2035505.28245  25094537.8204   25094533.7814
        35.5004         30.7504
 -13538463.52047 -10520904.25346  22434878.9064   22434874.4264
        42.2504         41.5004
 -25643591.17148 -19960582.02148  20504174.0004   20504168.3364
        48.7504         53.2504
 -26317831.52847 -20482363.40046  20496587.2424   20496581.1484
        46.5004         39.0004
 -14867476.20847 -11544671.51947  22613912.7274   22613906.0744
        46.0004         44.7504
  -3681789.12246  -2855203.85845  24661275.4224   24661273.0984
        37.5004         31.2504
  -3921720.74146  -3172371.03245  24027491.7664   24027488.2814
        40.0004         32.7504
 -10077708.54247  -7837927.94946  23183951.3754   23183947.9224
        42.2504         39.7504
 20  5  1  2  8 30.0000000  0 10G16G23G30G27G 9G 4G 7G 3G26G 8
 -18254350.93947 -14522389.97045  21374563.6334   21374556.1214
        47.5004         32.2504
 -22179406.93547 -17590644.95146  20545875.0394   20545865.5554
        47.5004         37.7504
  -2718717.73046  -2102059.29345  25078285.0944   25078280.7974
        37.7504         30.0004
 -13594638.72046 -10564677.09546  22424188.2424   22424184.3014
        40.2504         36.5004
 -25676344.67748 -19986104.23948  20497940.9924   20497936.1334
        48.0004         51.0004
 -26281341.86347 -20453929.91246  20503530.8364   20503524.8324
        46.0004         37.7504
 -14930993.10447 -11594165.15946  22601826.2974   22601819.0354
        44.0004         40.2504
  -3573457.77746  -2770789.86943  24681891.1564   24681887.9384
        38.5004         22.7504
  -3817976.98446  -3091531.79645  24047233.3134   24047230.4964
        39.7504         30.5004
 -10171982.93245  -7911388.45244  23166010.6644   23166008.0474
        34.2504         29.0004
 20  5  1  2  9  0.0000000  0 10G16G23G30G27G 9G 4G 7G 3G26G 8
 -18179825.58847 -14464318.28345  21388745.2894   21388737.7304
        46.2504         31.5004
 -22208327.96247 -17613180.82246  20540371.1724   20540362.2544
        47.2504         38.0004
  -2804097.06046  -2168588.65944  25062037.5164   25062033.3914
        36.7504         28.2504
 -13650309.97946 -10608057.28846  22413595.1334   22413590.8014
        41.5004         38.7504
 -25708630.34447 -20011261.90148  20491797.6024   20491792.0234
        47.7504         50.7504
 -26244378.73047 -20425127.47846  20510564.7664   20510558.4344
        47.0004         38.5004
 -14994393.86047 -11643568.32846  22589761.0474   22589754.2624
        44.2504         40.0004
  -3465160.35145  -2686402.35143  24702499.0314   24702496.2894
        34.2504         22.5004
  -3714130.60246  -3010612.60745  24066995.6334   24066991.8404
        40.2504         32.0004
 -10266041.24946  -7984680.63045  23148112.2194   23148109.3404
        38.2504         32.5004
 20  5  1  2  9 30.0000000  0 10G16G23G30G27G 9G 4G 7G 3G26G 8
 -18104874.81647 -14405915.09745  21403008.3284   21403000.5824
        46.2504         31.7504
 -22236801.26348 -17635367.80846  20534953.3984   20534944.7704
        49.0004         39.0004
  -2889444.39645  -2235093.05444  25045795.8674   25045792.9774
        33.7504         26.0004
 -13705474.85247 -10651042.91246  22403096.6954   22403092.7934
        43.0004         39.0004
 -25740446.24548 -20036053.52648  20485743.3284   20485737.7464
        48.0004         52.5004
 -26206942.11347 -20395956.08546  20517688.7504   20517682.6524
        45.7504         37.0004
 -15057677.77747 -11692880.46947  22577718.2894   22577711.5554
        44.0004         42.5004
  -3356899.50045  -2602043.33243  24723101.2114   24723097.6134
        35.5004         22.7504
  -3610184.06246  -2929615.38945  24086775.9454   24086773.0474
        40.0004         33.5004
 -10359879.96546  -8057801.67345  23130255.2114   23130252.0904
        36.7504         31.5004
 20  5  1  2 10  0.0000000  0 10G16G23G30G27G 9G 4G 7G 3G26G 8
 -18029501.80048 -14347182.92045  21417351.3754   21417343.8874
        48.2504         35.7504
 -22264825.69448 -17657205.04246  20529620.1804   20529611.1564
        48.0004         40.2504
  -2974759.92646  -2301572.70545  25029561.3594   25029557.2274
        36.5004         30.2504
 -13760130.71247 -10693631.90447  22392697.1024   22392692.1844
        44.7504         43.5004
 -25771791.13348 -20060478.12548  20479778.5704   20479773.0204
        48.7504         53.5004
 -26169032.52147 -20366416.16546  20524902.5554   20524896.5234
        47.0004         39.2504
 -15120844.85447 -11742101.56847  22565698.5474   22565691.4104
        45.0004         44.2504
  -3248677.98946  -2517715.03345  24743694.8674   24743691.7114
        39.0004         30.0004
  -3506139.69146  -2848541.84845  24106574.2814   24106572.0124
        40.7504         34.2504
 -10453496.28546  -8130749.50246  23112440.9534   23112437.1914
        40.5004         37.7504
 20  5  1  2 10 30.0000000  0 10G16G23G30G27G 9G 4G 7G 3G26G 8
 -17953709.38448 -14288123.90446  21431774.0394   21431766.4064
        48.0004         36.0004
 -22292399.07047 -17678690.80446  20524373.1884   20524363.9804
        47.7504         40.0004
  -3060043.10745  -2368027.13944  25013332.3984   25013328.9804
        35.5004         29.2504
 -13814274.89847 -10735822.16347  22382393.3914   22382389.0904
        44.7504         43.2504
 -25802663.01548 -20084534.13948  20473903.6884   20473898.3244
        49.0004         53.7504
 -26130649.86947 -20336507.62246  20532206.6094   20532200.7074
        47.0004         39.5004
 -15183895.01147 -11791231.55247  22553700.2114   22553692.9144
        45.0004         44.2504
  -3140498.44546  -2433419.34145  24764280.2194   24764277.5274
        37.7504         30.5004
  -3401999.42246  -2767393.66345  24126392.7974   24126388.0634
        40.0004         33.5004
 -10546886.38546  -8203521.00146  23094670.1174   23094665.7304
        41.7504         38.7504
 20  5  1  2 11  0.0000000  0 10G16G23G30G27G 9G 4G 7G 3G26G 8
 -17877500.23748 -14228740.16745  21446275.9534   21446268.5004
        48.5004         35.5004
 -22319520.33547 -17699824.27046  20519211.8594   20519202.6804
        47.7504         39.7504
  -3145294.14046  -2434456.50844  24997110.2034   24997105.4924
        37.7504         29.0004
 -13867905.20047 -10777612.00547  22372188.1884   22372183.4224
        45.0004         43.5004
 -25833060.76748 -20108220.70548  20468119.4384   20468113.6604
        48.5004         53.5004
 -26091794.85747 -20306231.00946  20539600.3674   20539594.0784
        47.5004         39.0004
 -15246828.15647 -11840270.35347  22541724.3754   22541717.2154
        44.7504         44.2504
  -3032363.92446  -2349158.74544  24784858.0164   24784854.7424
        37.7504         29.5004
  -3297765.92946  -2686172.77845  24146228.3444   24146222.7114
        41.7504         33.5004
 -10640047.40946  -8276114.00646  23076941.6564   23076937.6954
        41.5004         38.7504
 20  5  1  2 11 30.0000000  0 10G16G23G30G27G 9G 4G 7G 3G26G 8
 -17800876.73848 -14169033.55745  21460857.2974   21460849.0044
        48.2504         35.5004
 -22346186.73748 -17720603.28946  20514137.6804   20514128.5274
        48.0004         39.7504
  -3230511.72046  -2500859.84144  24980892.6334   24980889.3054
        36.0004         28.0004
 -13921018.04547 -10818998.62747  22362081.3134   22362076.0004
        45.0004         43.5004
 -25862981.70748 -20131535.72348  20462425.6414   20462420.1684
        48.5004         53.5004
 -26052466.71947 -20275585.72046  20547084.2194   20547078.0554
        46.7504         38.7504
 -15309643.26647 -11889217.17747  22529771.2114   22529763.9024
        44.5004         44.0004
  -2924276.13146  -2264934.60545  24805426.7034   24805424.0824
        38.7504         30.0004
  -3193440.26546  -2604880.11045  24166080.8204   24166075.7194
        39.7504         32.0004
 -10732975.17346  -8348525.21646  23059258.6884   23059254.6254
        41.7504         39.7504
 20  5  1  2 12  0.0000000  0 10G16G23G30G27G 9G 4G 7G 3G26G 8
 -17723842.52648 -14109006.91945  21475516.0004   21475508.7814
        48.0004         35.0004
 -22372397.50047 -17741027.26846  20509149.7814   20509140.6684
        47.7504         40.0004
  -3315696.71246  -2567237.75544  24964682.5314   24964679.5204
        36.0004         29.5004
 -13973611.80247 -10859980.78347  22352072.2424   22352068.1764
        44.7504         43.7504
 -25892425.18448 -20154478.69748  20456822.3754   20456816.7584
        48.5004         53.7504
 -26012666.63947 -20244572.68246  20554658.1724   20554652.2344
        46.7504         39.0004
 -15372340.86347 -11938072.43047  22517839.8754   22517833.1484
        44.7504         44.0004
  -2816238.63346  -2180749.60145  24825985.3914   24825982.8554
        39.2504         30.2504
  -3089025.56446  -2523518.05145  24185950.3364   24185945.4414
        40.7504         33.2504
 -10825667.41246  -8420752.92146  23041619.2424   23041615.9534
        41.5004         39.0004
 20  5  1  2 12 30.0000000  0 10G16G23G30G27G 9G 4G 7G 3G26G 8
 -17646400.01548 -14048662.11045  21490253.0474   21490245.3954
        48.2504         34.7504
 -22398150.55048 -17761094.58946  20504249.2114   20504239.7934
        48.7504         40.0004
  -3400848.21146  -2633589.57744  24948479.3444   24948475.3094
        37.7504         29.0004
 -14025683.52147 -10900556.13147  22342163.4534   22342159.1884
        44.0004         43.7504
 -25921389.14348 -20177048.01948  20451310.6254   20451305.2424
        49.5004         53.7504
 -25972394.43047 -20213191.75946  20562321.6644   20562315.8284
        47.2504         39.5004
 -15434920.34947 -11986835.65347  22505931.4144   22505924.5164
        44.7504         44.0004
  -2708253.72846  -2096605.63445  24846535.2114   24846532.0204
        39.5004         31.0004
  -2984523.42046  -2442087.87245  24205835.3754   24205831.4734
        38.2504         32.2504
 -10918120.50846  -8492794.25746  23024025.7974   23024022.5204
        40.5004         39.2504
 20  5  1  2 13  0.0000000  0 10G16G23G30G27G 9G 4G 7G 3G26G 8
 -17568552.20047 -13988001.49045  21505067.1094   21505059.6134
        47.0004         35.0004
 -22423444.85848 -17780804.45746  20499436.0864   20499426.9494
        48.0004         40.0004
  -3485966.27846  -2699915.33945  24932281.0164   24932278.2624
        37.5004         31.5004
 -14077230.91647 -10940722.91547  22332354.3364   22332350.1174
        44.7504         43.7504
 -25949872.20048 -20199242.61248  20445890.5864   20445885.2234
        48.5004         53.7504
 -25931650.56647 -20181443.30746  20570074.7734   20570069.3524
        46.7504         38.7504
 -15497382.06347 -12035507.10947  22494045.5314   22494038.4654
        45.5004         44.2504
  -2600324.10446  -2012504.74845  24867073.5004   24867070.1884
        38.0004         30.2504
  -2879936.30146  -2360591.44145  24225737.7504   24225734.8554
        39.2504         33.5004
 -11010331.52746  -8564646.96646  23006479.1174   23006476.2114
        41.0004         39.7504
 20  5  1  2 13 30.0000000  0 10G16G23G30G27G 9G 4G 7G 3G26G 8
 -17490302.10348 -13927027.40945  21519957.6094   21519949.8634
        48.0004         34.5004
 -22448278.55348 -17800155.38846  20494710.3444   20494701.0594
        49.5004         40.0004
  -3571050.87946  -2766215.03445  24916091.3134   24916087.0634
        37.7504         31.0004
 -14128251.69047 -10980479.35447  22322645.4694   22322641.5634
        44.7504         44.0004
 -25977872.99548 -20221061.42848  20440562.1884   20440556.7114
        48.7504         53.5004
 -25890435.61647 -20149327.77646  20577917.9064   20577912.1994
        47.0004         39.0004
 -15559725.28847 -12084086.23647  22482182.3054   22482174.5084
        45.7504         44.2504
  -2492452.84946  -1928449.27945  24887599.8284   24887597.8834
        37.2504         32.2504
  -2775266.49446  -2279030.55745  24245653.7504   24245652.6954
        36.7504         31.5004
 -11102297.33846  -8636308.65446  22988978.4304   22988975.2034
        40.7504         39.2504
 20  5  1  2 14  0.0000000  0 10G16G23G30G27G 9G 4G 7G 3G26G 8
 -17411651.91147 -13865741.55345  21534924.0944   21534916.2974
        47.2504         35.0004
 -22472649.93348 -17819146.08346  20490072.4534   20490063.4844
        49.2504         40.0004
  -3656101.32046  -2832488.10445  24899905.4614   24899902.8094
        36.5004         31.0004
 -14178742.83847 -11019823.10047  22313037.4144   22313032.9844
        45.0004         44.2504
 -26005389.43648 -20242502.82048  20435325.8834   20435320.6334
        48.5004         53.5004
 -25848749.37947 -20116845.00946  20585850.4144   20585844.7034
        46.2504         39.0004
 -15621949.68847 -12132572.77347  22470341.2194   22470333.9024
        46.0004         44.5004
  -2384641.94446  -1844440.88845  24908116.2194   24908112.7624
        39.5004         30.7504
  -2670515.50346  -2197406.53245  24265589.4614   24265586.2934
        40.0004         32.5004
 -11194014.02046  -8707776.20646  22971525.3204   22971521.4384
        41.5004         38.7504
 20  5  1  2 14 30.0000000  0 10G16G23G30G27G 9G 4G 7G 3G26G 8
 -17332605.08747 -13804146.64645  21549966.5164   21549958.4924
        47.7504         35.5004
 -22496557.88148 -17837775.66046  20485523.1414   20485514.3094
        49.0004         40.0004
  -3741117.76246  -2898734.70445  24883728.8134   24883724.3634
        37.5004         31.5004
 -14228702.47747 -11058752.67347  22303530.7114   22303526.1804
        45.0004         44.2504
 -26032420.53148 -20263566.00848  20430182.1174   20430176.9614
        49.2504         53.7504
 -25806592.69747 -20083995.66346  20593872.6414   20593866.9184
        46.7504         39.0004
 -15684055.14047 -12180966.61847  22458523.1024   22458515.6254
        45.2504         44.7504
  -2276894.57646  -1760482.05544  24928620.9844   24928616.4694
        38.5004         28.5004
  -2565686.08647  -2115721.34245  24285539.7194   24285533.5124
        42.5004         32.5004
 -11285478.88946  -8779047.53346  22954120.5944   22954115.9774
        41.7504         39.5004
 20  5  1  2 15  0.0000000  0 10G16G23G30G27G 9G 4G 7G 3G26G 8
 -17253163.92447 -13742244.45645  21565083.6334   21565075.8094
        47.0004         34.0004
 -22519999.88048 -17856042.16546  20481062.2974   20481052.7154
        50.0004         40.0004
  -3826099.33846  -2964954.09745  24867556.1884   24867553.1214
        37.2504         31.2504
 -14278127.46147 -11097265.63647  22294125.3984   22294120.5234
        46.2504         44.0004
 -26058963.98548 -20284249.22348  20425131.3524   20425126.0664
        50.0004         53.7504
 -25763965.21547 -20050779.45746  20601983.6644   20601978.5394
        46.5004         39.0004
 -15746040.87447 -12229267.18447  22446727.4384   22446720.2974
        46.2504         44.7504
  -2169212.82646  -1676574.21444  24949111.1484   24949108.1564
        38.5004         29.0004
  -2460779.48846  -2033975.99545  24305500.2504   24305495.7464
        37.5004         31.2504
 -11376688.10046  -8850119.64946  22936763.4304   22936760.0944
        41.5004         39.2504
 20  5  1  2 15 30.0000000  0 10G16G23G30G27G 9G 4G 7G 3G26G 8
 -17173331.59747 -13680037.45745  21580274.8754   21580267.3404
        47.7504         35.0004
 -22542975.13348 -17873944.96446  20476690.2894   20476680.9494
        48.0004         40.0004
  -3911046.38446  -3031146.58845  24851392.7664   24851388.6454
        37.2504         32.0004
 -14327015.97347 -11135360.57947  22284822.1174   22284817.6764
        45.0004         44.2504
 -26085018.87348 -20304551.74248  20420173.1564   20420167.6724
        48.5004         53.7504
 -25720867.89747 -20017197.14946  20610185.4694   20610179.5824
        46.2504         38.5004
 -15807907.20347 -12277474.70447  22434954.7584   22434947.3954
        45.7504         45.0004
  -2061599.62546  -1592719.87345  24969589.1564   24969586.2504
        38.0004         30.0004
  -2355798.55146  -1952172.66845  24325477.8594   24325474.1724
        39.0004         32.7504
 -11467638.78446  -8920990.29346  22919456.5864   22919452.2894
        41.2504         39.5004
 20  5  1  2 16  0.0000000  0 10G16G23G30G27G 9G 4G 7G 3G26G 8
 -17093110.90847 -13617527.84045  21595540.5234   21595532.8244
        47.5004         34.5004
 -22565481.65648 -17891482.52246  20472407.2114   20472397.9804
        48.0004         40.0004
  -3995958.26346  -3097311.69144  24835233.6804   24835229.7384
        37.5004         29.5004
 -14375365.28347 -11173035.35647  22275621.1954   22275616.8674
        44.2504         44.0004
 -26110583.37648 -20324472.13848  20415308.2814   20415302.6684
        48.5004         53.7504
 -25677300.79147 -19983248.77346  20618475.8754   20618469.8874
        47.0004         38.0004
 -15869653.60847 -12325588.77447  22423204.2424   22423197.7034
        45.0004         45.0004
  -1954057.44846  -1508920.82144  24990054.9614   24990049.8674
        38.0004         28.7504
  -2250744.93546  -1870312.73145  24345468.9694   24345465.4104
        39.5004         31.7504
 -11558327.60647  -8991656.89246  22902199.0084   22902194.5784
        42.0004         39.7504
 20  5  1  2 16 30.0000000  0 10G16G23G30G27G 9G 4G 7G 3G26G 8
 -17012504.74248 -13554717.85345  21610879.7344   21610872.2854
        48.0004         34.5004
 -22587518.12948 -17908653.80446  20468213.9454   20468204.9774
        49.5004         40.2504
  -4080834.78046  -3163449.19844  24819082.0554   24819078.6804
        36.5004         29.7504
 -14423173.07247 -11210288.17447  22266523.6024   22266519.6914
        45.7504         44.0004
 -26135656.00348 -20344009.25448  20410536.8594   20410531.7464
        49.5004         53.7504
 -25633264.31047 -19948934.64046  20626856.1564   20626849.6454
        47.0004         38.5004
 -15931279.89947 -12373609.25147  22411477.5554   22411470.4104
        45.2504         45.0004
  -1846588.86646  -1425179.18844  25010506.1174   25010500.5164
        38.2504         26.5004
  -2145620.60946  -1788397.79145  24365474.1254   24365469.4104
        39.0004         31.0004
 -11648751.04147  -9062116.68446  22884991.5944   22884988.3634
        42.2504         40.5004
 20  5  1  2 17  0.0000000  0 10G16G23G30G27G 9G 4G 7G 3G26G 8
 -16931516.01247 -13491609.77545  21626291.0864   21626283.5744
        47.5004         34.5004
 -22609083.22948 -17925457.78846  20464110.3914   20464100.9574
        50.0004         40.2504
  -4165675.93246  -3229559.22045  24802938.0394   24802933.7584
        37.5004         30.0004
 -14470437.25047 -11247117.38447  22257529.6334   22257525.6954
        45.0004         44.2504
 -26160235.57048 -20363162.16949  20405859.8204   20405854.6294
        50.0004         54.0004
 -25588759.20247 -19914255.36246  20635325.2664   20635319.1684
        46.5004         38.7504
 -15992785.82747 -12421535.93147  22399773.2194   22399766.4654
        45.5004         44.7504
  -1739196.90146  -1341497.22244  25030942.2034   25030938.2664
        39.0004         28.5004
  -2040428.25546  -1706429.71045  24385492.0234   24385487.3134
        40.0004         34.0004
 -11738906.06946  -9132367.35446  22867835.7424   22867832.7194
        41.7504         41.0004
 20  5  1  2 17 30.0000000  0 10G16G23G30G27G 9G 4G 7G 3G26G 8
 -16850147.28447 -13428205.57145  21641775.2194   21641768.0204
        47.0004         34.7504
 -22630175.25548 -17941893.14146  20460096.5004   20460087.4614
        48.5004         40.2504
  -4250481.21546  -3295641.23744  24786799.8134   24786795.5394
        37.0004         29.5004
 -14517155.15747 -11283520.92547  22248639.6724   22248635.0514
        45.0004         44.0004
 -26184320.16648 -20381929.39649  20401276.5554   20401271.1724
        49.0004         54.0004
 -25543785.51847 -19879210.94946  20643883.4924   20643877.3444
        46.5004         39.2504
 -16054171.01847 -12469368.53947  22388092.0164   22388085.1134
        45.2504         45.0004
  -1631883.53946  -1257876.47944  25051361.1024   25051358.3874
        36.5004         27.2504
  -1935169.26646  -1624409.79945  24405521.2814   24405517.3014
        39.5004         32.7504
 -11828789.46647  -9202406.33946  22850731.9924   22850728.7344
        42.0004         40.5004
 20  5  1  2 18  0.0000000  0 10G16G23G30G27G 9G 4G 7G 3G26G 8
 -16768401.51847 -13364507.59345  21657330.7664   21657323.2034
        47.2504         34.2504
 -22650792.74148 -17957958.72246  20456173.3834   20456164.2274
        50.0004         40.2504
  -4335250.45846  -3361695.18045  24770668.8444   24770665.1804
        37.5004         30.5004
 -14563324.61147 -11319497.10647  22239853.7734   22239849.4104
        45.2504         44.2504
 -26207908.57948 -20400309.98249  20396788.1024   20396782.8984
        49.7504         54.0004
 -25498343.84347 -19843801.86846  20652530.3834   20652524.6484
        46.5004         38.0004
 -16115435.33947 -12517106.96547  22376433.8674   22376427.1644
        45.2504         44.7504
  -1524651.76546  -1174319.32945  25071767.4774   25071765.2424
        37.5004         31.0004
  -1829845.87646  -1542339.67445  24425563.4534   24425560.5474
        38.7504         33.0004
 -11918398.04046  -9272231.19946  22833679.1954   22833676.0824
        41.0004         40.5004
 20  5  1  2 18 30.0000000  0 10G16G23G30G27G 9G 4G 7G 3G26G 8
 -16686281.59047 -13300518.05345  21672957.6174   21672950.2774
        46.5004         34.2504
 -22670934.16648 -17973653.34946  20452340.6484   20452331.2154
        49.5004         40.2504
  -4419983.34846  -3427720.81145  24754545.6644   24754540.0434
        38.5004         30.0004
 -14608943.34547 -11355044.15947  22231172.9454   22231168.6374
        45.0004         44.0004
 -26230999.30448 -20418302.75949  20392393.9614   20392388.4494
        50.5004         54.0004
 -25452434.61547 -19808028.45146  20661266.5234   20661260.6844
        46.5004         38.2504
 -16176578.34847 -12564750.85947  22364798.8054   22364791.7154
        46.0004         44.7504
  -1417504.06146  -1090827.82144  25092157.9304   25092153.8094
        39.0004         29.5004
  -1724460.14646  -1460221.00745  24445618.3364   24445614.4844
        40.0004         33.5004
 -12007728.41047  -9341839.27046  22816680.4924   22816677.1094
        42.0004         39.7504
 20  5  1  2 19  0.0000000  0 10G16G23G30G27G 9G 4G 7G 3G26G 8
 -16603790.82647 -13236239.54345  21688655.5704   21688647.4734
        47.5004         33.7504
 -22690598.19948 -17988975.98346  20448598.5554   20448589.5204
        49.5004         40.0004
  -4504679.88146  -3493718.13845  24738426.7584   24738423.1644
        37.5004         30.0004
 -14654009.34347 -11390160.50047  22222597.2344   22222592.7734
        45.5004         44.5004
 -26253591.14048 -20435906.79348  20388094.7114   20388089.2854
        50.0004         53.7504
 -25406058.56647 -19771891.29146  20670091.6094   20670085.6954
        46.2504         38.0004
 -16237600.14847 -12612300.30847  22353186.8834   22353179.4414
        45.7504         45.0004
  -1310443.22746  -1007403.88045  25112530.3754   25112528.8914
        38.2504         32.2504
  -1619014.36446  -1378055.48445  24465683.8204   24465681.0474
        38.7504         33.2504
 -12096777.74746  -9411228.36146  22799735.0234   22799731.7894
        41.2504         39.5004
 20  5  1  2 19 30.0000000  0 10G16G23G30G27G 9G 4G 7G 3G26G 8
 -16520931.83347 -13171674.10445  21704422.8914   21704414.9614
        47.2504         34.5004
 -22709783.30148 -18003925.42546  20444947.8524   20444938.9774
        50.0004         40.2504
  -4589339.62546  -3559686.77745  24722317.8754   24722313.2274
        39.7504         32.0004
 -14698520.20747 -11424844.27047  22214126.8364   22214122.4574
        45.7504         44.5004
 -26275682.47848 -20453120.83548  20383891.1094   20383885.4534
        49.7504         53.7504
 -25359216.03947 -19735390.63946  20679005.4304   20678999.5984
        47.0004         38.7504
 -16298500.17847 -12659754.87447  22341597.8754   22341590.3284
        46.2504         45.0004
  -1203471.63645   -924049.38445  25132884.1804   25132883.2344
        35.5004         30.0004
  -1513510.35146  -1295844.61445  24485759.5704   24485755.9304
        37.5004         30.5004
 -12185542.77546  -9480395.90046  22782843.4924   22782839.9494
        41.7504         40.5004
 20  5  1  2 20  0.0000000  0 10G16G23G30G27G 9G 4G 7G 3G26G 8
 -16437707.03747 -13106823.62045  21720260.1564   21720252.3914
        46.2504         33.7504
 -22728488.06748 -18018500.57346  20441388.6024   20441379.1604
        50.0004         40.2504
  -4673962.22546  -3625626.50945  24706213.9774   24706209.9344
        38.7504         31.5004
 -14742473.50047 -11459093.56247  22205763.1174   22205758.4964
        45.5004         44.5004
 -26297271.80248 -20469943.68849  20379782.5234   20379777.4414
        50.0004         54.0004
 -25311907.36347 -19698526.75946  20688008.3674   20688001.9224
        47.0004         38.2504
 -16359277.92347 -12707114.15447  22330032.3364   22330024.8594
        46.0004         45.0004
  -1096591.78346   -840766.57145  25153226.7734   25153221.8914
        39.7504         30.7504
  -1407949.86246  -1213589.79444  24505848.2344   24505843.5164
        37.2504         29.5004
 -12274019.59247  -9549338.86846  22766006.5864   22766003.4104
        42.0004         40.7504
 20  5  1  2 20 30.0000000  0 10G16G23G30G27G 9G 4G 7G 3G26G 8
 -16354119.28447 -13041690.31545  21736165.7734   21736158.5824
        46.2504         33.7504
 -22746710.63648 -18032699.99346  20437920.5944   20437911.6214
        49.5004         40.0004
  -4758547.26546  -3691536.89645  24690118.5164   24690114.3484
        39.0004         32.2504
 -14785866.99047 -11492906.64947  22197505.8284   22197500.3204
        46.0004         44.5004
 -26318357.61848 -20486374.20749  20375770.2424   20375764.5704
        50.2504         54.0004
 -25264132.99047 -19661299.99946  20697099.2894   20697093.8134
        46.0004         38.5004
 -16419933.08547 -12754377.90547  22318489.8984   22318482.5824
        45.7504         45.0004
   -989805.99546   -757556.92944  25173547.6414   25173541.4024
        40.0004         27.5004
  -1302335.01246  -1131292.55045  24525946.2974   24525942.5234
        38.7504         33.2504
 -12362205.36447  -9618055.01946  22749225.2274   22749222.7814
        42.0004         41.7504
 20  5  1  2 21  0.0000000  0 10G16G23G30G27G 9G 4G 7G 3G26G 8
 -16270172.10947 -12976276.93745  21752140.7584   21752133.2114
        46.5004         33.2504
 -22764450.41748 -18046523.20846  20434545.0704   20434535.7974
        49.5004         40.0004
  -4843095.01146  -3757418.27845  24674028.6804   24674025.5314
        38.0004         32.0004
 -14828699.05247 -11526282.26547  22189354.7734   22189350.2584
        46.7504         44.5004
 -26338939.09348 -20502411.73249  20371853.8834   20371848.4844
        50.5004         54.0004
 -25215894.01747 -19623711.19746  20706279.1954   20706273.4184
        46.5004         38.2504
 -16480465.78847 -12801546.24547  22306971.0474   22306963.5904
        45.5004         45.2504
   -883117.41446   -674423.09844  25193846.8984   25193846.8714
        36.7504         27.0004
  -1196668.19746  -1048954.76245  24546053.4844   24546049.4614
        38.7504         32.2504
 -12450097.15847  -9686542.10546  22732501.0314   22732497.3634
        42.5004         41.7504
 20  5  1  2 21 30.0000000  0 10G16G23G30G27G 9G 4G 7G 3G26G 8
 -16185867.41347 -12910584.98945  21768183.9384   21768176.2544
        46.0004         34.0004
 -22781705.05748 -18059968.39546  20431261.4224   20431252.1024
        49.5004         40.2504
  -4927604.28446  -3823269.64445  24657947.3204   24657943.8914
        37.7504         31.5004
 -14870966.55947 -11559217.95947  22181311.5164   22181307.0554
        45.7504         45.0004
 -26359013.89948 -20518054.44448  20368033.6094   20368028.1054
        50.0004         53.7504
 -25167190.03247 -19585760.06246  20715547.3524   20715541.1914
        47.0004         38.2504
 -16540874.71047 -12848618.11947  22295475.1024   22295468.1564
        46.0004         45.2504
   -776527.64945   -591366.10743  25214130.2194   25214127.9964
        33.2504         23.7504
  -1090950.42346   -966577.32645  24566170.3914   24566167.2704
        37.2504         31.2504
 -12537691.06447  -9754797.07346  22715832.1884   22715828.6764
        43.5004         41.7504
