     2.11           OBSERVATION DATA    G (GPS)             RINEX VERSION / TYPE
teqc  2019Feb25     Salamtina Y.M.      20200909 02:44:21UTCPGM / RUN BY / DATE
Linux 2.6.32-573.12.1.x86_64|x86_64|gcc|Linux 64|=+         COMMENT
BIT 2 OF LLI FLAGS DATA COLLECTED UNDER A/S CONDITION       COMMENT
Kazarman                                                    MARKER NAME
kaza                                                        MARKER NUMBER
Matix A.I.          RS_RAS                                  OBSERVER / AGENCY
4752143407          TRIMBLE NETRS       1.3-2               REC # / TYPE / VERS
30895097            TRM55971.00                             ANT # / TYPE
  1325807.7297  4606496.6895  4195524.6396                  APPROX POSITION XYZ
        0.0890        0.0000        0.0000                  ANTENNA: DELTA H/E/N
     1     1                                                WAVELENGTH FACT L1/2
     7    L1    L2    C1    P1    P2    S1    S2            # / TYPES OF OBSERV
    30.0000                                                 INTERVAL
    18                                                      LEAP SECONDS
TIME: 2020.05.22                                            COMMENT
TOUR: cont                                                  COMMENT
RSET: RAS03                                                 COMMENT
ASET: RAS03                                                 COMMENT
OPER: matx (Matix A.I.)                                     COMMENT
SOUR: KAZA202005220000A.dat                                 COMMENT
SUPP: KAZA202005220000A.eph                                 COMMENT
SUPP: KAZA202005220000A.ion                                 COMMENT
SUPP: KAZA202005220000A.mes                                 COMMENT
Forced Modulo Decimation to 30 seconds                      COMMENT
 SNR is mapped to RINEX snr flag value [0-9]                COMMENT
  L1 & L2: min(max(int(snr_dBHz/6), 0), 9)                  COMMENT
  2020     5    22     0     0    0.0000000     GPS         TIME OF FIRST OBS
                                                            END OF HEADER
 20  5 22  0  0  0.0000000  0 10G16G22G04G09G27G08G31G07G03G26
 -24355567.60247 -18728928.48146  20489638.1094                   20489630.1644
        47.0004         39.2504
  -3216127.77946  -2493144.94843  24978850.9144                   24978838.4534
        40.5004         19.7504
 -28437274.35447 -22126811.96547  20234650.9534                   20234644.4804
        47.5004         42.0004
 -22119896.05247 -17222636.60648  21352862.6094                   21352857.1804
        47.5004         50.5004
  -8148672.92646  -6335853.74946  23627124.5234                   23627121.4924
        39.7504         38.5004
  -1027918.30245   -783304.16744  24778125.8444                   24778121.4224
        35.2504         29.0004
  30449102.563 5                  25697027.648
        33.250
  -9991307.11947  -7717240.20446  23710226.6334                   23710218.7814
        44.0004         37.5004
 -11117137.25347  -8649092.98646  23036366.3984                   23036362.1994
        43.5004         40.2504
 -12402409.51047  -9794559.56046  22529196.9694                   22529193.3954
        43.2504         41.5004
 20  5 22  0  0 30.0000000  0 10G16G22G04G09G27G08G31G07G03G26
 -24328708.96047 -18707999.68246  20494749.2344                   20494741.2934
        47.0004         39.0004
  -3111895.23346  -2411924.78543  24998684.9844                   24998672.9774
        40.5004         19.5004
 -28439989.54147 -22128927.71747  20234134.1804                   20234127.7274
        47.7504         42.0004
 -22186130.94247 -17274248.21748  21340258.8204                   21340253.3364
        47.5004         50.5004
  -8236429.77946  -6404235.69046  23610425.6804                   23610421.1644
        41.0004         38.0004
  -1128888.03846   -861981.85644  24758912.2584                   24758908.0164
        36.7504         28.5004
  30540143.18146  23420601.56553  25714353.6564                   25714347.5004
        37.7504         20.0004
 -10063923.21547  -7773824.19946  23696408.0634                   23696400.2774
        43.5004         37.5004
 -11015060.65247  -8569552.79246  23055791.1564                   23055786.3244
        44.0004         40.5004
 -12315049.47147  -9726486.82747  22545821.4224                   22545818.0204
        43.0004         42.2504
 20  5 22  0  1  0.0000000  0 10G16G22G04G09G27G08G31G07G03G26
 -24301221.64247 -18686580.99446  20499979.9534                   20499971.9734
        47.0004         39.2504
  -3007703.12146  -2330736.10542  25018511.1334                   25018500.8874
        39.2504         17.7504
 -28442269.24447 -22130704.12247  20233700.4924                   20233693.7734
        46.7504         42.0004
 -22252066.52847 -17325626.60048  21327711.8364                   21327706.0354
        47.7504         50.5004
  -8323948.49546  -6472432.10246  23593771.1334                   23593767.6604
        39.5004         38.7504
  -1229906.20546   -940697.25845  24739690.1564                   24739686.5314
        39.0004         30.0004
  30631125.48945  23491496.84343  25731666.9534                   25731660.8554
        35.5004         21.7504
 -10136434.56947  -7830326.57246  23682609.5234                   23682601.9264
        43.0004         37.5004
 -10912787.20147  -8489859.21746  23075253.8594                   23075248.5274
        44.5004         41.0004
 -12227386.19847  -9658177.81146  22562503.2734                   22562499.3754
        43.2504         41.5004
 20  5 22  0  1 30.0000000  0  9G16G22G04G09G27G08G07G03G26
 -24273103.73947 -18664670.94446  20505330.6804                   20505322.8524
        47.2504         38.7504
  -2903550.65646  -2249578.30143  25038330.2504                   25038321.0234
        39.0004         18.2504
 -28444109.05047 -22132137.75947  20233349.9614                   20233343.7424
        47.0004         42.0004
 -22317697.33847 -17376767.50748  21315222.3984                   21315216.7424
        47.2504         50.2504
  -8411222.17846  -6540437.50846  23577163.3284                   23577160.5274
        39.5004         39.7504
  -1330967.01846  -1019446.10045  24720457.8364                   24720454.0084
        38.2504         30.7504
 -10208837.74947  -7886744.65646  23668830.7504                   23668823.7384
        43.2504         37.0004
 -10810316.33647  -8410011.79546  23094752.9774                   23094748.1094
        43.7504         40.0004
 -12139418.90347  -9589631.89546  22579243.5554                   22579239.4264
        43.2504         41.5004
 20  5 22  0  2  0.0000000  0 10G16G22G04G09G27G08G31G07G03G26
 -24244367.66447 -18642279.20246  20510798.8134                   20510790.6334
        47.0004         39.2504
  -2799450.55046  -2168461.36142  25058139.5784                   25058129.1764
        39.2504         17.7504
 -28445518.81647 -22133236.29947  20233082.1254                   20233075.7234
        46.7504         42.0004
 -22383032.17147 -17427677.76748  21302789.7504                   21302783.8874
        47.5004         50.5004
  -8498258.25546  -6608257.80446  23560601.9144                   23560596.4734
        41.2504         38.5004
  -1432078.13946  -1098234.04344  24701217.1644                   24701212.3834
        38.5004         29.5004
   -302592.82056  23542718.24653  25766260.8594                   25766254.1684
        41.0004         20.2504
 -10281143.50347  -7943086.79646  23655072.0864                   23655064.6844
        43.2504         37.7504
 -10707661.93347  -8330021.35946  23114287.4454                   23114282.6524
        44.5004         40.0004
 -12051161.02247  -9520859.55646  22596038.0554                   22596034.0984
        43.5004         41.5004
 20  5 22  0  2 30.0000000  0 10G16G22G04G09G27G08G31G07G03G26
 -24215003.83847 -18619398.30546  20516386.5554                   20516378.4964
        47.0004         39.0004
  -2695394.64446  -2087378.82943  25077939.3524                   25077931.1804
        36.2504         19.0004
 -28446486.43748 -22133990.30047  20232897.8444                   20232891.0164
        48.0004         42.2504
 -22448057.78947 -17478347.08948  21290415.4924                   21290410.0394
        47.5004         50.2504
  -8585042.12946  -6675881.61746  23544086.9534                   23544082.8524
        41.5004         39.0004
  -1533225.48946  -1177050.22344  24681969.3134                   24681966.7234
        37.2504         29.7504
   -211787.19546  23613475.92643  25783540.0084                   25783534.3364
        40.5004         22.7504
 -10353340.64947  -7999344.31646  23641334.1884                   23641326.3834
        44.2504         38.5004
 -10604815.75347  -8249881.50546  23133858.4454                   23133853.5434
        43.7504         40.0004
 -11962604.03147  -9451854.14846  22612890.2344                   22612886.1524
        43.0004         41.5004
 20  5 22  0  3  0.0000000  0 10G16G22G04G09G27G08G31G07G03G26
 -24185017.13647 -18596032.04246  20522092.6804                   20522084.8094
        47.5004         38.7504
  -2591389.06746  -2006335.53843  25097731.7034                   25097722.8014
        38.7504         19.7504
 -28447014.67148 -22134401.93647  20232797.2894                   20232791.1294
        48.0004         42.2504
 -22512775.86447 -17528776.76148  21278099.8914                   21278094.9964
        47.2504         50.5004
  -8671574.15247  -6743309.15146  23527621.5784                   23527616.5784
        42.0004         39.0004
  -1634410.27545  -1255895.44745  24662714.7664                   24662711.7814
        35.5004         30.0004
   -121040.87846  23684187.31943  25800808.0784                   25800802.7074
        39.0004         22.2504
 -10425432.54047  -8055519.82246  23627614.5234                   23627607.8134
        44.5004         39.2504
 -10501784.44347  -8169597.38146  23153464.9534                   23153460.0084
        44.2504         40.2504
 -11873754.25147  -9382620.57446  22629797.3134                   22629793.2194
        42.7504         41.0004
 20  5 22  0  3 30.0000000  0 10G16G22G04G09G27G08G31G07G03G26
 -24154410.01247 -18572182.33946  20527917.3054                   20527909.4414
        47.0004         38.5004
  -2487436.31146  -1925333.39443  25117512.6414                   25117505.0514
        37.2504         19.5004
 -28447102.72647 -22134470.56747  20232780.5864                   20232774.3094
        47.0004         42.0004
 -22577184.45547 -17578965.28048  21265843.5784                   21265837.9184
        47.2504         50.5004
  -8757850.99547  -6810537.89446  23511202.8134                   23511198.0044
        42.0004         38.0004
  -1735629.36046  -1334767.58945  24643453.9304                   24643448.8914
        38.5004         30.0004
    -30354.39446  23754852.07943  25818065.1644                   25818060.1214
        38.7504         19.0004
 -10497419.38247  -8111613.46546  23613916.2584                   23613909.0084
        44.5004         39.7504
 -10398571.13547  -8089171.44246  23173104.7114                   23173100.6804
        43.5004         40.0004
 -11784614.37447  -9313160.97246  22646760.7344                   22646756.1954
        43.0004         41.0004
 20  5 22  0  4  0.0000000  0 10G16G22G04G09G27G08G31G07G03G26
 -24123180.09947 -18547847.33546  20533859.7734                   20533852.1414
        47.5004         39.0004
  -2383535.06746  -1844371.49543  25137286.3054                   25137276.7074
        39.2504         20.0004
 -28446745.80848 -22134192.46547  20232848.7894                   20232842.0634
        48.7504         42.2504
 -22641277.63648 -17628908.02848  21253646.7034                   21253641.5004
        48.0004         50.5004
  -8843865.50646  -6877562.20246  23494835.0864                   23494829.9414
        41.5004         38.5004
  -1836875.87546  -1413661.01144  24624186.6484                   24624182.6254
        38.0004         29.7504
                                  25835312.008
        31.250
 -10569297.32947  -8167622.26246  23600239.0004                   23600231.6484
        45.0004         39.2504
 -10295174.91647  -8008602.97646  23192780.5164                   23192776.2664
        43.5004         39.7504
 -11695183.22447  -9243474.39146  22663778.6094                   22663774.0864
        42.5004         41.0004
 20  5 22  0  4 30.0000000  0  9G16G22G04G09G27G08G07G03G26
 -24091336.17047 -18523033.88346  20539920.0164                   20539911.9574
        47.0004         39.5004
  -2279694.61446  -1763456.89043  25157047.1954                   25157037.0394
        40.5004         19.2504
 -28445950.23048 -22133572.55047  20233000.0634                   20232993.3204
        48.5004         42.2504
 -22705060.64147 -17678609.07148  21241509.5634                   21241503.8444
        47.7504         50.5004
  -8929621.41946  -6944385.00646  23478516.0944                   23478511.9774
        40.7504         38.5004
  -1938153.74645  -1492578.85844  24604912.3754                   24604910.0514
        35.5004         29.2504
 -10641073.84347  -8223552.02446  23586579.5234                   23586571.9844
        44.0004         39.0004
 -10191606.01847  -7927899.95046  23212489.9224                   23212484.9224
        44.0004         39.7504
 -11605470.61747  -9173568.49446  22680850.5164                   22680846.1414
        43.0004         41.0004
 20  5 22  0  5  0.0000000  0 10G16G22G04G09G27G08G31G07G03G26
 -24058879.16747 -18497742.72246  20546096.2894                   20546088.0474
        47.2504         39.0004
  -2175916.82946  -1682591.05543  25176795.9844                   25176784.1684
        40.5004         19.5004
 -28444714.33547 -22132609.52746  20233235.2504                   20233228.7074
        46.0004         40.5004
 -22768530.60047 -17728066.16347  21229432.1094                   21229425.9804
        45.0004         45.0004
  -9015114.66646  -7011003.09645  23462246.1024                   23462242.0234
        36.7504         30.7504
  -2039460.14946  -1571518.93845  24585636.8444                   24585632.1134
        40.7504         33.5004
    241350.89655  23792786.97652  25869767.8984                   25869763.0234
        33.0004         17.2504
 -10712747.58447  -8279401.70145  23572940.6644                   23572933.0044
        44.5004         33.5004
 -10087866.62547  -7847064.06546  23232229.7664                   23232226.0824
        43.0004         37.2504
 -11515478.36246  -9103444.66846  22697975.3444                   22697970.7504
        40.7504         37.2504
 20  5 22  0  5 30.0000000  0 10G16G22G04G09G27G08G31G07G03G26
 -24025805.41647 -18471970.97646  20552389.6024                   20552382.1024
        47.5004         40.2504
  -2072198.29046  -1601771.38243  25196529.6804                   25196522.0164
        37.2504         19.2504
 -28443031.79947 -22131298.47047  20233555.4924                   20233549.0664
        47.0004         42.0004
 -22831679.96147 -17777273.48748  21217414.5864                   21217408.8554
        47.5004         50.5004
  -9100336.27947  -7077409.54846  23446030.5634                   23446025.8634
        42.5004         39.7504
  -2140785.96646  -1650474.09044  24566355.5004                   24566351.2234
        37.0004         29.2504
    331795.647 6                  25886979.109
        36.500
 -10784312.82947  -8335166.83346  23559321.9144                   23559315.2274
        42.7504         38.5004
  -9983954.15347  -7766093.33246  23252004.0394                   23251999.7584
        43.7504         40.2504
 -11425203.66947  -9033100.80546  22715154.1094                   22715149.3554
        42.5004         41.5004
 20  5 22  0  6  0.0000000  0 10G16G22G04G09G27G08G31G07G03G26
 -23992119.50247 -18445722.20446  20558800.1804                   20558792.2074
        47.0004         38.7504
  -1968544.49946  -1521002.20843  25216256.6254                   25216246.3054
        40.5004         19.2504
 -28440904.44847 -22129640.81646  20233960.3754                   20233953.7464
        46.7504         41.7504
 -22894509.45147 -17826231.54348  21205458.4304                   21205453.5124
        47.7504         51.0004
  -9185285.61147  -7143603.81346  23429865.2424                   23429861.4104
        42.0004         41.0004
  -2242131.21846  -1729444.49345  24547069.9694                   24547065.5594
        38.0004         31.7504
    422179.13946  23915805.10453  25904178.0234                   25904172.5164
        37.7504         21.5004
 -10855772.36947  -8390849.59646  23545724.1884                   23545717.4494
        43.5004         39.5004
  -9879874.44047  -7684992.27646  23271810.2664                   23271805.7034
        43.2504         39.5004
 -11334651.86847  -8962540.97446  22732385.6564                   22732380.9494
        43.2504         40.5004
 20  5 22  0  6 30.0000000  0 10G16G22G04G09G27G08G31G07G03G26
 -23957820.80147 -18418995.94946  20565327.0784                   20565319.0314
        47.0004         39.2504
  -1864955.50146  -1440283.57942  25235968.8364                   25235959.4964
        37.5004         16.7504
 -28438329.18847 -22127634.13447  20234450.1334                   20234444.2344
        47.0004         42.2504
 -22957014.77647 -17874936.98848  21193564.3914                   21193558.6884
        47.2504         51.0004
  -9269957.13047  -7209581.62846  23413752.6334                   23413747.1804
        43.0004         41.0004
  -2343490.40746  -1808425.71645  24527780.8284                   24527777.2934
        37.7504         32.5004
                                  25921366.9304                   25921361.3554
        29.5004         17.2504
 -10927124.10647  -8446448.35746  23532146.4614                   23532139.6134
        43.5004         39.2504
  -9775628.13347  -7603761.40246  23291647.6644                   23291643.2074
        43.0004         39.5004
 -11243823.31547  -8891765.51046  22749669.5314                   22749665.5984
        42.5004         41.0004
 20  5 22  0  7  0.0000000  0  9G16G22G04G09G27G08G07G03G26
 -23922915.78747 -18391797.24446  20571969.1094                   20571961.1454
        47.5004         38.5004
  -1761438.40746  -1378615.77853  25255667.1414                   25255658.1214
        38.5004         19.0004
 -28435309.85147 -22125281.42147  20235024.8834                   20235018.4774
        46.7504         42.0004
 -23019198.58147 -17923391.90348  21181731.1174                   21181725.6644
        47.5004         50.7504
  -9354352.03346  -7275343.94746  23397692.2274                   23397689.0274
        41.0004         41.0004
  -2444865.91746  -1887419.65245  24508490.5314                   24508486.0864
        38.0004         32.5004
 -10998372.35547  -8501966.48746  23518587.9844                   23518580.7624
        43.5004         39.5004
  -9671222.92347  -7522406.71746  23311514.9924                   23311510.4534
        43.5004         38.2504
 -11152725.32147  -8820780.08546  22767004.6884                   22767000.9224
        42.2504         40.5004
 20  5 22  0  7 30.0000000  0  9G16G22G04G09G27G08G07G03G26
 -23887403.74947 -18364125.53246  20578726.6254                   20578718.8094
        47.0004         38.7504
  -1657992.83946  -1298008.82142  25275351.4534                   25275343.2384
        38.0004         16.7504
 -28431842.82747 -22122579.85247  20235684.5474                   20235678.5004
        46.7504         42.0004
 -23081056.03347 -17971592.52048  21169960.0164                   21169954.5124
        47.5004         51.0004
  -9438464.26747  -7340885.84746  23381687.5634                   23381682.4734
        44.0004         41.0004
  -2546251.22346  -1966421.22745  24489196.4224                   24489193.9414
        36.5004         32.2504
 -11069514.97547  -8557402.29146  23505050.1954                   23505042.7624
        44.2504         39.0004
  -9566659.00047  -7440928.35246  23331412.8914                   23331408.6954
        43.0004         39.0004
 -11061357.68347  -8749584.56946  22784391.6484                   22784387.5514
        42.5004         40.5004
 20  5 22  0  8  0.0000000  0  9G16G22G04G09G27G08G07G03G26
 -23851286.60647 -18335982.30046  20585599.6884                   20585591.7234
        47.7504         39.0004
  -1554621.74346  -1217460.06343  25295024.5004                   25295014.5984
        39.7504         18.5004
 -28427927.43047 -22119528.91147  20236429.6174                   20236423.2664
        47.0004         42.0004
 -23142585.16647 -18019537.29748  21158251.4064                   21158245.9924
        47.5004         51.0004
  -9522290.49546  -7406205.09546  23365734.6414                   23365729.3364
        40.7504         36.2504
  -2647643.94046  -2045428.53645  24469903.1254                   24469899.5664
        36.2504         31.5004
 -11140551.34647  -8612755.31046  23491532.2194                   23491524.8594
        44.5004         39.5004
  -9461939.41347  -7359328.70946  23351340.6954                   23351336.3794
        42.2504         39.2504
 -10969723.17947  -8678181.08046  22801828.9534                   22801825.6484
        42.0004         40.7504
 20  5 22  0  8 30.0000000  0  9G16G22G04G09G27G08G07G03G26
 -23814566.85447 -18307369.51446  20592586.9694                   20592579.6684
        47.5004         39.0004
  -1451327.48746  -1136970.88143  25314676.8134                   25314671.2854
        36.0004         18.2504
 -28423563.49047 -22116128.44847  20237260.0004                   20237253.6764
        46.7504         42.0004
 -23203784.62447 -18067225.18648  21146605.3984                   21146599.7974
        47.7504         51.2504
  -9605828.18146  -7471299.39946  23349837.9924                   23349834.4144
        41.2504         39.0004
  -2749041.49546  -2124439.62144  24450607.9614                   24450603.9534
        36.2504         29.7504
 -11211481.82747  -8668025.82646  23478035.3524                   23478027.2974
        45.0004         39.5004
  -9357067.82047  -7277610.61146  23371296.9384                   23371292.2504
        42.5004         38.5004
 -10877825.03047  -8606572.17446  22819317.0784                   22819312.6024
        42.7504         40.5004
 20  5 22  0  9  0.0000000  0  9G16G22G04G09G27G08G07G03G26
 -23777245.66448 -18278288.07946  20599689.3594                   20599681.1024
        48.0004         38.7504
  -1348111.90846  -1056543.12043  25334319.0784                   25334313.0124
        36.0004         19.0004
 -28418749.64047 -22112377.40647  20238176.3054                   20238169.5744
        46.7504         42.0004
 -23264651.80047 -18114654.15948  21135022.9224                   21135017.4304
        47.7504         51.2504
  -9689073.19546  -7536165.63546  23333996.4144                   23333991.4184
        40.5004         36.0004
  -2850440.49646  -2203451.90945  24431311.7974                   24431307.3364
        36.0004         30.5004
 -11282306.07947  -8723213.55746  23464557.7894                   23464549.9804
        45.0004         40.0004
  -9252046.61447  -7195775.92246  23391281.7274                   23391277.1484
        42.7504         38.5004
 -10785665.27447  -8534759.40546  22836853.8984                   22836850.2734
        42.0004         40.2504
 20  5 22  0  9 30.0000000  0  9G16G22G04G09G27G08G07G03G26
 -23739324.84447 -18248739.38746  20606905.1954                   20606897.8134
        47.7504         38.0004
  -1244978.00145   -976179.14843  25353944.9694                   25353937.6804
        35.0004         18.5004
 -28413484.93847 -22108275.05747  20239178.0314                   20239171.3014
        47.5004         42.0004
 -23325184.45647 -18161822.47048  21123504.1884                   21123498.1024
        47.5004         51.5004
  -9772022.12247  -7600801.22946  23318213.0004                   23318208.3634
        43.0004         39.5004
  -2951837.31646  -2282462.41745  24412016.7504                   24412013.0394
        37.5004         32.0004
 -11353024.08847  -8778318.52946  23451100.8594                   23451092.5704
        44.5004         40.0004
  -9146878.61447  -7113826.84446  23411294.1174                   23411290.3054
        42.2504         38.5004
 -10693246.35947  -8462744.69246  22854441.0314                   22854437.0704
        42.5004         40.0004
 20  5 22  0 10  0.0000000  0  9G16G22G04G09G27G08G07G03G26
 -23700806.61047 -18218725.19546  20614234.9614                   20614227.2074
        47.7504         38.5004
  -1141927.50146   -895880.19143  25373555.9064                   25373547.1134
        37.7504         19.2504
 -28407768.75947 -22103820.90747  20240265.9534                   20240259.4264
        47.0004         42.0004
 -23385380.70348 -18208728.63748  21112048.8674                   21112043.5594
        48.2504         51.5004
  -9854671.61647  -7665203.42547  23302486.0704                   23302482.0594
        43.5004         42.2504
  -3053229.64246  -2361469.51245  24392722.6414                   24392718.3634
        37.5004         31.0004
 -11423635.72747  -8833340.59046  23437663.0234                   23437655.7934
        43.0004         39.5004
  -9041566.92747  -7031765.81446  23431334.4534                   23431330.1134
        42.7504         37.7504
 -10600571.07947  -8390530.21046  22872076.3134                   22872072.5514
        42.0004         39.7504
 20  5 22  0 10 30.0000000  0  9G16G22G04G09G27G08G07G03G26
 -23661692.57148 -18188246.72646  20621678.1414                   20621670.2734
        48.0004         38.7504
  -1038962.57246   -837477.76653  25393150.0084                   25393141.1294
        38.2504         19.2504
 -28401599.98747 -22099014.08247  20241439.4694                   20241433.2194
        47.7504         42.0004
 -23445238.09847 -18255370.76548  21100658.7194                   21100653.0274
        47.7504         51.5004
  -9937018.13047  -7729369.52846  23286815.1174                   23286809.2034
        43.0004         39.7504
  -3154613.87846  -2440470.19845  24373429.9304                   24373425.9344
        38.7504         32.7504
 -11494140.36647  -8888279.27446  23424246.8754                   23424239.5234
        44.5004         39.5004
  -8936114.10447  -6949594.80146  23451401.9064                   23451397.2734
        43.0004         38.0004
 -10507641.55647  -8318117.63846  22889760.7274                   22889756.2664
        42.2504         39.5004
 20  5 22  0 11  0.0000000  0  9G16G22G04G09G27G08G07G03G26
 -23621985.52748 -18157306.18146  20629234.3364                   20629226.4264
        48.5004         38.2504
   -936086.28445   -757314.42442  25412724.8914                   25412717.7544
        34.2504         17.2504
 -28394978.55748 -22093854.54446  20242699.6884                   20242693.3204
        48.2504         41.7504
 -23504755.36448 -18301747.86948  21089332.7504                   21089327.2344
        48.2504         51.5004
 -10019058.89447  -7793297.46247  23271203.8444                   23271200.2424
        43.5004         43.5004
  -3255987.33446  -2519462.53245  24354139.5474                   24354134.7854
        39.2504         32.5004
 -11564538.89647  -8943135.26946  23410850.7894                   23410843.0944
        43.2504         40.2504
  -8830523.88747  -6867316.74346  23471494.6174                   23471490.2734
        42.0004         38.0004
 -10414461.16246  -8245509.56246  22907491.6174                   22907488.0474
        41.5004         39.2504
 20  5 22  0 11 30.0000000  0  9G16G22G04G09G27G08G07G03G26
 -23581686.39247 -18125904.26546  20636902.8054                   20636894.7464
        47.7504         38.7504
   -833300.22946   -677221.44442  25432287.0864                   25432277.3984
        38.5004         16.7504
 -28387902.94647 -22088341.08947  20244046.1484                   20244039.7854
        47.2504         42.0004
 -23563929.66748 -18347857.71548  21078072.3054                   21078066.5084
        48.0004         51.5004
 -10100789.93346  -7856983.88346  23255650.2194                   23255646.1844
        41.5004         40.0004
  -3357346.78846  -2598443.96045  24334850.5784                   24334847.1564
        37.0004         32.2504
 -11634830.61547  -8997908.03846  23397473.8284                   23397466.7664
        44.0004         40.0004
  -8724798.43346  -6784933.29546  23491613.6484                   23491609.3754
        41.0004         37.0004
 -10321031.70047  -8172707.41946  22925271.4534                   22925267.4454
        42.5004         39.5004
 20  5 22  0 12  0.0000000  0  9G16G22G04G09G27G08G07G03G26
 -23540797.59848 -18094042.87046  20644683.9844                   20644675.7504
        48.0004         38.7504
   -730607.03646   -617537.64052  25451829.0234                   25451818.6024
        38.0004         17.7504
 -28380372.68948 -22082473.37447  20245479.0864                   20245472.6484
        48.0004         42.0004
 -23622759.13748 -18393698.86748  21066877.1174                   21066871.5394
        48.0004         51.2504
 -10182207.97546  -7920426.62446  23240156.6724                   23240152.7854
        41.2504         39.0004
  -3458689.40246  -2677412.23445  24315565.9454                   24315562.4454
        36.5004         31.7504
 -11705015.57247  -9052597.61446  23384118.7114                   23384111.3444
        43.7504         41.2504
  -8618940.93646  -6702446.95146  23511757.8284                   23511753.3524
        41.5004         37.5004
 -10227355.99447  -8099713.38846  22943097.5944                   22943093.2034
        42.0004         40.0004
 20  5 22  0 12 30.0000000  0  9G16G22G04G09G27G08G07G03G26
 -23499321.11947 -18061723.54946  20652576.7344                   20652568.5394
        47.7504         39.2504
  27729550.63356  21559208.50052  25471351.8594                   25471342.3834
        39.0004         16.2504
 -28372387.18947 -22076250.92447  20246998.8594                   20246992.5864
        47.0004         42.0004
 -23681241.94247 -18439269.89548  21055748.4144                   21055742.6094
        47.7504         51.2504
 -10263310.06346  -7983622.98246  23224723.2584                   23224720.0864
        41.0004         39.5004
  -3560011.82746  -2756364.77045  24296285.1804                   24296281.0784
        36.5004         32.0004
 -11775093.43547  -9107203.73346  23370783.1024                   23370775.8834
        43.5004         41.0004
  -8512954.46946  -6619860.11946  23531926.0784                   23531921.8984
        41.5004         37.5004
 -10133436.73047  -8026529.58046  22960969.2424                   22960965.2424
        42.2504         40.0004
 20  5 22  0 13  0.0000000  0  9G16G22G04G09G27G08G07G03G26
 -23457258.73848 -18028947.67446  20660580.5704                   20660572.9884
        48.0004         38.5004
  27832050.82145  21618044.93352  25490855.6804                   25490848.1454
        34.7504         17.7504
 -28363945.69247 -22069673.15846  20248604.6564                   20248598.7154
        47.2504         41.5004
 -23739375.95848 -18484569.13848  21044686.1564                   21044680.5704
        48.5004         51.5004
 -10344092.56547  -8046570.46546  23209351.6024                   23209345.8754
        42.2504         38.5004
  -3661311.35146  -2835299.47145  24277009.2894                   24277005.2384
        37.5004         33.5004
 -11845064.52147  -9161726.65846  23357468.0394                   23357461.2114
        44.2504         41.0004
  -8406841.94846  -6537175.06146  23552118.4694                   23552114.3244
        41.2504         37.2504
 -10039276.48847  -7953157.99146  22978887.6334                   22978883.4534
        42.2504         39.2504
 20  5 22  0 13 30.0000000  0  9G16G22G04G09G27G08G07G03G26
 -23414613.49347 -17995717.62546  20668695.7274                   20668687.6844
        47.7504         39.0004
  27934451.148 5                  25510341.258
        33.000
 -28355047.74247 -22062739.71147  20250298.1804                   20250292.0164
        47.5004         42.0004
 -23797159.37648 -18529595.18548  21033690.1094                   21033684.5824
        48.0004         51.5004
 -10424552.50547  -8109266.52146  23194040.4614                   23194035.7114
        43.2504         40.2504
  -3762584.88046  -2914213.93745  24257736.8834                   24257733.2664
        37.2504         32.7504
 -11914928.53747  -9216166.15146  23344173.3524                   23344166.4024
        44.0004         40.5004
  -8300606.60346  -6454394.30246  23572334.7974                   23572330.6254
        41.5004         38.5004
  -9944878.00947  -7879600.76746  22996851.0634                   22996847.0514
        42.0004         39.5004
 20  5 22  0 14  0.0000000  0  9G16G22G04G09G27G08G07G03G26
 -23371387.00948 -17962034.66846  20676921.4534                   20676913.9804
        48.0004         39.0004
  28036749.34346  21739882.02253  25529810.5084                   25529800.8714
        39.0004         19.0004
 -28345692.41847 -22055449.87646  20252078.4694                   20252072.0124
        47.5004         41.7504
 -23854589.93948 -18574346.28848  21022761.5394                   21022755.7814
        48.5004         51.7504
 -10504686.30847  -8171708.49446  23178792.2194                   23178786.7504
        43.7504         40.7504
  -3863829.21346  -2993105.63645  24238470.6094                   24238466.1294
        38.7504         33.5004
 -11984685.43647  -9270522.17946  23330899.4844                   23330891.7114
        43.5004         40.0004
  -8194251.10346  -6371519.90646  23592573.7424                   23592569.6334
        41.0004         38.5004
  -9850243.67847  -7805859.76246  23014858.9384                   23014855.2074
        42.0004         39.0004
 20  5 22  0 14 30.0000000  0  9G16G22G04G09G27G08G07G03G26
 -23327581.17248 -17927900.25846  20685257.8674                   20685249.7934
        48.0004         38.5004
  28138943.17146  21819513.67442  25549256.8054                   25549248.2544
        37.7504         17.2504
 -28335879.02448 -22047803.10346  20253945.9614                   20253939.7934
        48.0004         41.7504
 -23911665.51648 -18618820.76748  21011900.2894                   21011894.5514
        48.0004         51.7504
 -10584490.68047  -8233893.72146  23163604.8984                   23163600.0944
        43.5004         40.2504
  -3965040.86646  -3071971.89545  24219211.4304                   24219207.1054
        38.7504         34.0004
 -12054334.81847  -9324794.43546  23317644.8444                   23317637.8714
        43.5004         40.7504
  -8087778.35046  -6288554.15146  23612834.6024                   23612830.3794
        40.7504         38.0004
  -9755375.97146  -7731936.92546  23032911.5784                   23032907.9384
        41.5004         38.7504
 20  5 22  0 15  0.0000000  0  9G16G22G04G09G27G08G07G03G26
 -23283198.01947 -17893315.99946  20693703.1644                   20693695.5824
        47.2504         38.5004
  28241030.43446  21899062.16243  25568681.8364                   25568673.7664
        36.5004         18.5004
 -28325606.66048 -22039798.68946  20255900.9774                   20255894.6724
        48.5004         41.7504
 -23968383.87548 -18663016.90148  21001107.5314                   21001101.5984
        48.0004         51.7504
 -10663961.96747  -8295819.42446  23148482.5784                   23148478.4344
        43.5004         41.5004
  -4066217.15346  -3150810.59845  24199957.3754                   24199953.5594
        38.2504         33.0004
 -12123876.74947  -9378982.96646  23304412.5784                   23304404.5984
        44.7504         40.7504
  -7981191.06946  -6205499.16946  23633117.8914                   23633113.0234
        40.5004         37.0004
  -9660277.25747  -7657834.05946  23051008.5784                   23051004.3404
        42.0004         38.5004
 20  5 22  0 15 30.0000000  0  9G16G22G04G09G27G08G07G03G26
 -23238239.49848 -17858283.38946  20702258.5314                   20702250.6334
        48.2504         38.0004
  28343009.27645  21978526.12942  25588088.5704                   25588080.1954
        33.0004         17.2504
 -28314874.31848 -22031435.83846  20257943.1884                   20257936.8284
        48.2504         41.5004
 -24024742.61748 -18706932.81048  20990382.4924                   20990377.1254
        48.5004         52.0004
 -10743096.60647  -8357482.75246  23133423.2034                   23133418.9694
        43.0004         41.2504
  -4167354.49546  -3229618.95145  24180712.1884                   24180707.0044
        38.7504         32.2504
 -12193310.66847  -9433087.30846  23291198.7504                   23291191.5904
        43.0004         40.5004
  -7874491.79046  -6122356.89546  23653422.2894                   23653416.8714
        41.7504         36.7504
  -9564949.67247  -7583552.86646  23069149.0864                   23069144.9844
        42.0004         38.5004
 20  5 22  0 16  0.0000000  0  8G16G04G09G27G08G07G03G26
 -23192704.57747 -17822801.64846  20710923.7114                   20710915.9224
        47.5004         38.2504
 -28303678.36848 -22022711.75846  20260073.7274                   20260067.4064
        48.5004         41.7504
 -24080736.67748 -18750564.55648  20979727.1804                   20979721.9534
        48.7504         52.0004
 -10821888.19947  -8418878.83346  23118428.9224                   23118425.7114
        43.0004         41.5004
  -4268446.25446  -3308391.75545  24161474.4064                   24161470.8284
        38.2504         33.0004
 -12262633.88647  -9487105.40546  23278007.5474                   23277999.6684
        43.7504         40.2504
  -7767680.59346  -6039127.40046  23673747.4454                   23673742.9964
        40.7504         36.2504
  -9469392.79647  -7509093.00046  23087332.6094                   23087328.7734
        42.0004         38.7504
 20  5 22  0 16 30.0000000  0  8G16G04G09G27G08G07G03G26
 -23146602.03648 -17786877.60346  20719696.6884                   20719689.0634
        48.0004         38.5004
 -28292025.22548 -22013631.41846  20262291.2584                   20262284.9024
        48.0004         41.5004
 -24136371.08348 -18793916.03848  20969140.2584                   20969134.8364
        48.5004         52.0004
 -10900340.62747  -8480010.54446  23103500.1174                   23103496.8054
        43.0004         41.0004
  -4369497.07446  -3387132.65545  24142245.6724                   24142241.3324
        37.7504         32.2504
 -12331852.76747  -9541042.19646  23264834.9384                   23264827.8914
        44.0004         41.5004
  -7660767.27346  -5955818.34146  23694092.5864                   23694087.5664
        41.2504         36.7504
  -9373616.21647  -7434461.94046  23105558.3284                   23105554.4494
        43.0004         38.5004
 20  5 22  0 17  0.0000000  0  8G16G04G09G27G08G07G03G26
 -23099930.88447 -17750510.48446  20728577.9774                   20728570.1604
        47.7504         38.5004
 -28279910.81547 -22004191.64046  20264596.6174                   20264590.4144
        47.7504         41.5004
 -24191640.31548 -18836982.97448  20958622.7194                   20958617.5274
        49.0004         52.0004
 -10978447.03747  -8540872.69646  23088637.0704                   23088633.0164
        43.5004         40.5004
  -4470499.90846  -3465836.18545  24123024.1644                   24123020.5664
        36.0004         32.5004
 -12400963.72147  -9594894.88246  23251684.3054                   23251676.5394
        43.7504         40.7504
  -7553751.41346  -5872429.39246  23714456.9304                   23714452.6844
        41.5004         36.2504
  -9277618.98147  -7359658.94746  23123826.2194                   23123822.1604
        42.2504         38.7504
 20  5 22  0 17 30.0000000  0  8G16G04G09G27G08G07G03G26
 -23052693.87748 -17713702.44146  20737567.2424                   20737558.8714
        48.5004         38.5004
 -28267334.74648 -21994392.13846  20266989.3134                   20266983.3874
        48.2504         41.5004
 -24246542.58448 -18879763.97048  20948175.2894                   20948169.9144
        49.2504         52.0004
 -11056204.39047  -8601462.82846  23073841.1094                   23073836.1094
        44.5004         40.5004
  -4571452.02146  -3544500.17045  24103814.3054                   24103810.9964
        38.2504         33.7504
 -12469966.84847  -9648663.54346  23238553.5084                   23238545.8554
        43.5004         41.0004
  -7446636.09346  -5788962.94146  23734840.6644                   23734835.8134
        41.2504         37.2504
  -9181403.84246  -7284686.15246  23142135.1644                   23142131.6604
        41.5004         39.2504
 20  5 22  0 18  0.0000000  0  8G16G04G09G27G08G07G03G26
 -23004892.37047 -17676454.52146  20746663.0784                   20746655.4694
        47.7504         38.7504
 -28254296.08648 -21984232.16546  20269471.0784                   20269464.4614
        48.2504         41.5004
 -24301075.45748 -18922257.11648  20937798.0634                   20937792.8714
        48.7504         52.2504
 -11133608.98147  -8661778.11746  23059111.4774                   23059106.4494
        45.0004         40.5004
  -4672349.80646  -3623121.79845  24084614.4774                   24084610.6294
        39.5004         34.2504
 -12538861.84247  -9702347.95646  23225443.4534                   23225435.6994
        43.5004         41.2504
  -7339423.86746  -5705420.96146  23755240.6804                   23755237.7854
        39.7504         37.7504
  -9084972.94147  -7209545.22946  23160485.3284                   23160481.8674
        42.0004         38.5004
 20  5 22  0 18 30.0000000  0  8G16G04G09G27G08G07G03G26
 -22956529.64848 -17638769.28946  20755866.5474                   20755858.6334
        48.0004         38.2504
 -28240794.50847 -21973711.47046  20272039.9774                   20272034.2194
        47.7504         41.5004
 -24355237.19148 -18964461.07648  20927491.5864                   20927486.4024
        49.2504         52.2504
 -11210657.89347  -8721816.25146  23044449.8444                   23044444.2934
        45.0004         40.7504
  -4773190.50346  -3701698.96645  24065425.2734                   24065421.5004
        40.2504         35.5004
 -12607648.86947  -9755948.23846  23212352.6954                   23212345.5824
        43.5004         41.5004
  -7232117.99446  -5621806.04146  23775662.7814                   23775657.8914
        40.7504         37.0004
  -8988329.10847  -7134238.40146  23178876.3284                   23178872.2584
        42.5004         38.0004
 20  5 22  0 19  0.0000000  0  8G16G04G09G27G08G07G03G26
 -22907607.30847 -17600647.99646  20765175.8984                   20765168.4654
        47.5004         38.0004
 -28226829.30147 -21962829.52347  20274697.6564                   20274691.4454
        47.5004         42.0004
 -24409025.57348 -19006374.10048  20917255.7974                   20917250.4614
        49.5004         52.2504
 -11287347.67547  -8781574.53146  23029855.9614                   23029851.0124
        43.7504         41.2504
  -4873970.73046  -3780229.02745  24046247.6334                   24046243.6254
        39.2504         35.0004
 -12676327.54847  -9809464.08347  23199284.1804                   23199277.0514
        43.7504         42.0004
  -7124721.09446  -5538120.18646  23796098.3054                   23796094.0234
        40.0004         36.2504
  -8891474.59047  -7058767.40046  23197306.4774                   23197303.3984
        42.2504         38.0004
 20  5 22  0 19 30.0000000  0  8G16G04G09G27G08G07G03G26
 -22858127.36347 -17562092.19846  20774591.7584                   20774583.6094
        47.7504         38.5004
 -28212399.80247 -21951585.78146  20277443.4774                   20277437.0944
        47.7504         41.7504
 -24462438.49048 -19047994.55648  20907092.0004                   20907086.0944
        49.2504         52.2504
 -11363674.93947  -8841050.30646  23015331.2034                   23015326.5124
        43.2504         40.7504
  -4974687.46746  -3858709.61945  24027081.3754                   24027077.0084
        39.5004         33.5004
 -12744897.82247  -9862895.46046  23186235.4924                   23186228.4454
        43.7504         41.5004
  -7017236.05446  -5454365.63846  23816553.0004                   23816547.8364
        40.5004         36.0004
  -8794411.91347  -6983134.19046  23215777.6024                   23215773.8094
        42.5004         39.0004
 20  5 22  0 20  0.0000000  0  8G16G04G09G27G08G07G03G26
 -22808091.95048 -17523103.56346  20784112.9924                   20784105.3404
        49.0004         37.0004
 -28197505.11247 -21939979.54746  20280277.7034                   20280271.7194
        47.2504         38.7504
 -24515473.49448 -19089320.53948  20896999.9924                   20896994.1484
        48.2504         50.5004
 -11439636.02047  -8900240.75346  23000876.1954                   23000871.7114
        43.7504         40.2504
  -5075337.04346  -3937137.88645  24007928.1174                   24007924.5084
        38.0004         30.5004
 -12813359.12447  -9916241.92246  23173207.8914                   23173200.5594
        43.7504         40.5004
  -6909665.40546  -5370544.32144  23837024.3134                   23837017.3874
        37.7504         29.7504
  -8697143.08547  -6907340.37946  23234287.3754                   23234283.6294
        43.5004         39.2504
 20  5 22  0 20 30.0000000  0  8G16G04G09G27G08G07G03G26
 -22757503.29547 -17483683.83746  20793740.1174                   20793731.7464
        47.5004         37.0004
 -28182144.82147 -21928010.51246  20283200.8674                   20283194.7624
        46.5004         40.5004
 -24568128.81248 -19130350.68348  20886980.0394                   20886974.3134
        50.5004         52.7504
 -11515227.87147  -8959143.46147  22986491.5864                   22986487.3674
        44.5004         43.0004
  -5175916.01146  -4015511.14145  23988789.2274                   23988785.0594
        37.2504         32.5004
 -12881711.79547  -9969503.76346  23160200.5164                   23160193.1564
        44.0004         41.5004
  -6802012.12646  -5286658.70745  23857508.4924                   23857503.2704
        41.0004         35.0004
  -8599670.80546  -6831387.94645  23252835.4064                   23252831.5594
        41.0004         34.2504
 20  5 22  0 21  0.0000000  0  8G16G04G09G27G08G07G03G26
 -22706364.76348 -17443835.65346  20803471.1724                   20803463.1804
        48.5004         38.5004
 -28166319.06048 -21915678.77446  20286212.2974                   20286206.3794
        48.0004         41.7504
 -24620402.96048 -19171083.78048  20877032.3134                   20877026.7274
        49.7504         52.5004
 -11590447.96347  -9017756.52247  22972177.3524                   22972173.7624
        43.5004         42.0004
  -5276422.47646  -4093827.86745  23969663.4774                   23969659.2154
        38.0004         33.2504
 -12949955.92647 -10022680.99746  23147214.1334                   23147206.5944
        44.0004         41.2504
  -6694279.77546  -5202711.47445  23878009.8914                   23878003.9454
        41.5004         34.7504
  -8501998.11846  -6755279.42246  23271422.0634                   23271417.9734
        41.5004         37.2504
 20  5 22  0 21 30.0000000  0  8G16G04G09G27G08G07G03G26
 -22654677.84247 -17403560.13546  20813306.7344                   20813299.1134
        47.7504         38.0004
 -28150026.86348 -21902983.57646  20289312.9844                   20289306.7034
        48.0004         41.7504
 -24672293.45348 -19211517.92948  20867157.7584                   20867152.4614
        49.5004         52.2504
 -11665292.43947  -9076076.87546  22957935.6334                   22957931.1684
        43.5004         41.7504
  -5376852.42346  -4172084.98045  23950551.8204                   23950548.8014
        38.2504         33.7504
 -13018090.97747 -10075773.23046  23134248.5944                   23134241.0084
        44.7504         41.2504
  -6586470.77346  -5118704.47945  23898525.1644                   23898519.9224
        40.5004         35.5004
  -8404127.09646  -6679016.34346  23290046.5554                   23290042.5434
        41.2504         37.0004
 20  5 22  0 22  0.0000000  0  8G16G04G09G27G08G07G03G26
 -22602445.19847 -17362859.38246  20823246.6564                   20823238.5514
        47.5004         38.0004
 -28133267.75848 -21889924.56046  20292502.0474                   20292495.7704
        48.0004         41.5004
 -24723798.35648 -19251651.61948  20857356.7114                   20857351.1024
        49.0004         52.2504
 -11739758.24347  -9134102.12347  22943765.9774                   22943760.6844
        45.0004         42.2504
  -5477202.81246  -4250280.10445  23931455.4144                   23931453.1484
        37.7504         35.5004
 -13086117.32447 -10128780.76046  23121303.6644                   23121295.8914
        45.0004         41.5004
  -6478588.08846  -5034640.07745  23919054.4064                   23919049.1994
        41.0004         35.5004
  -8306060.28947  -6602600.69246  23308708.5784                   23308703.7504
        42.0004         37.0004
 20  5 22  0 22 30.0000000  0  8G16G04G09G27G08G07G03G26
 -22549669.37647 -17321735.37146  20833289.3364                   20833281.5984
        47.5004         38.0004
 -28116041.79348 -21876501.75446  20295779.9534                   20295773.9184
        48.2504         41.7504
 -24774916.10148 -19291483.64148  20847629.4064                   20847623.6844
        49.7504         52.5004
 -11813842.50247  -9191830.14746  22929666.6024                   22929662.9734
        43.2504         41.5004
  -5577471.08546  -4328411.20546  23912375.8364                   23912372.4414
        39.5004         36.0004
 -13154034.74047 -10181703.41546  23108379.6564                   23108371.4104
        45.0004         41.7504
  -6370635.03146  -4950520.84345  23939597.1804                   23939592.6564
        40.5004         35.7504
  -8207800.54346  -6526034.68346  23327405.9534                   23327402.4264
        41.2504         37.5004
 20  5 22  0 23  0.0000000  0  8G16G04G09G27G08G07G03G26
 -22496352.37447 -17280189.66546  20843435.5314                   20843427.1564
        47.7504         38.2504
 -28098347.84747 -21862714.28646  20299146.9774                   20299140.7154
        46.7504         41.2504
 -24825644.06548 -19331011.92548  20837975.8204                   20837970.3284
        49.5004         52.5004
 -11887541.51647  -9249257.93446  22915642.0704                   22915638.2034
        43.0004         41.2504
  -5677653.05646  -4406475.10446  23893311.6094                   23893308.4104
        38.7504         36.5004
 -13221842.42347 -10234540.56846  23095475.1414                   23095468.6684
        44.7504         41.5004
  -6262613.78746  -4866348.50945  23960152.4304                   23960148.4264
        40.2504         35.2504
  -8109349.72446  -6449319.82746  23346141.1174                   23346137.1884
        41.2504         37.2504
 20  5 22  0 23 30.0000000  0  8G16G04G09G27G08G07G03G26
 -22442497.04147 -17238224.47546  20853683.6484                   20853675.5904
        47.7504         37.5004
 -28080186.12147 -21848562.32146  20302603.0784                   20302597.3054
        47.2504         41.5004
 -24875980.84348 -19370235.39448  20828397.1954                   20828391.7544
        49.7504         52.5004
 -11960852.63947  -9306383.46746  22901692.2274                   22901687.6374
        43.7504         41.2504
  -5777746.38746  -4484469.89046  23874265.0554                   23874261.0434
        39.0004         36.0004
 -13289541.03347 -10287292.71747  23082593.2344                   23082585.8014
        44.5004         42.0004
  -6154527.97146  -4782125.83245  23980720.5474                   23980716.0554
        40.0004         34.5004
  -8010710.90246  -6372458.45546  23364911.8914                   23364907.3484
        41.5004         37.2504
 20  5 22  0 24  0.0000000  0  9G16G04G09G30G27G08G07G03G26
 -22388105.27247 -17195841.29246  20864034.0314                   20864026.0514
        47.5004         37.5004
 -28061555.63847 -21834045.08646  20306148.2894                   20306142.1174
        47.2504         41.2504
 -24925923.94648 -19409152.10048  20818893.1024                   20818887.7074
        49.7504         52.5004
   -513869.02755   -385381.99054  25667658.0634                   25667653.0474
        34.5004         27.7504
 -12033772.14347  -9363203.84846  22887815.9844                   22887811.5664
        44.0004         41.7504
  -5877747.96246  -4562393.19545  23855234.0944                   23855230.3244
        37.7504         34.5004
 -13357129.94647 -10339959.39747  23069731.8984                   23069724.8954
        44.5004         42.2504
  -6046379.87846  -4697854.60845  24001299.3984                   24001296.5474
        39.7504         34.7504
  -7911886.06646  -6295452.13146  23383716.5084                   23383713.6054
        41.0004         37.2504
 20  5 22  0 24 30.0000000  0  9G16G04G09G30G27G08G07G03G26
 -22333183.11647 -17153044.81946  20874485.3444                   20874477.7154
        47.2504         37.2504
 -28042459.63647 -21819165.10046  20309782.5704                   20309776.2584
        46.5004         41.0004
 -24975475.01048 -19447763.32848  20809464.1174                   20809458.8954
        49.7504         52.5004
   -600176.60845   -452634.67844  25651234.4774                   25651229.3674
        35.0004         26.0004
 -12106300.60447  -9419719.51647  22874014.0944                   22874010.3984
        43.0004         42.0004
  -5977657.32346  -4640244.64145  23836222.0704                   23836219.8754
        37.2504         35.5004
 -13424612.66847 -10392543.33447  23056889.7894                   23056883.2704
        44.2504         42.5004
  -5938176.01446  -4613539.95445  24021892.3204                   24021887.0394
        41.5004         35.0004
  -7812881.16446  -6218305.50846  23402557.3284                   23402553.5824
        41.2504         37.2504
 20  5 22  0 25  0.0000000  0  9G16G04G09G30G27G08G07G03G26
 -22277725.70147 -17109831.25446  20885038.4924                   20885030.8594
        47.5004         38.0004
 -28022890.58247 -21803916.50746  20313505.9224                   20313500.0314
        46.5004         41.5004
 -25024624.91748 -19486061.97048  20800110.9774                   20800105.7544
        50.0004         52.5004
   -686456.41645   -519865.71644  25634815.9774                   25634811.3244
        34.7504         25.2504
 -12178427.62347  -9475922.37447  22860289.2974                   22860284.2814
        43.7504         42.0004
  -6077464.46046  -4718016.42945  23817229.6024                   23817225.5514
        38.2504         34.2504
 -13491982.15147 -10445039.02047  23044070.1174                   23044062.7304
        44.5004         42.2504
  -5829912.08746  -4529178.47145  24042493.9304                   24042488.6174
        41.2504         35.0004
  -7713691.63346  -6141015.01446  23421432.6804                   23421428.7424
        40.7504         37.7504
 20  5 22  0 25 30.0000000  0  9G16G04G09G30G27G08G07G03G26
 -22221739.78447 -17066205.86946  20895692.3524                   20895684.3874
        47.5004         38.2504
 -28002851.52247 -21788301.67146  20317319.2424                   20317313.4774
        47.0004         41.7504
 -25073375.15848 -19524049.17748  20790834.3914                   20790828.7814
        50.0004         52.7504
   -772711.66745   -587077.63744  25618401.6484                   25618397.3714
        32.7504         24.0004
 -12250153.54247  -9531812.67347  22846639.9774                   22846635.2734
        43.7504         42.0004
  -6177169.45246  -4795708.66945  23798256.7424                   23798252.2974
        38.5004         34.0004
 -13559241.64147 -10497449.00247  23031270.6024                   23031263.4264
        44.0004         42.2504
  -5721594.46646  -4444775.15945  24063105.0234                   24063100.5314
        40.7504         34.5004
  -7614323.31946  -6063585.20246  23440341.7664                   23440338.0274
        40.7504         37.0004
 20  5 22  0 26  0.0000000  0  9G16G04G09G30G27G08G07G03G26
 -22165227.05947 -17022169.98346  20906446.3204                   20906438.4184
        47.0004         37.0004
 -27982342.03347 -21772320.26646  20321222.4924                   20321216.3524
        46.2504         41.0004
 -25121723.63848 -19561723.32148  20781634.2734                   20781628.7504
        50.0004         52.7504
   -858942.04545   -654270.07044  25601993.0394                   25601988.5354
        35.2504         25.0004
 -12321475.13847  -9587387.94947  22833067.9694                   22833063.3054
        43.5004         42.5004
  -6276769.24246  -4873318.86445  23779303.2034                   23779299.3954
        38.5004         33.5004
 -13626390.88947 -10549773.09947  23018492.6484                   23018485.4614
        44.5004         42.0004
  -5613226.05446  -4360332.24745  24083726.7424                   24083722.8484
        39.7504         34.5004
  -7514778.57346  -5986017.91546  23459284.4534                   23459280.6604
        40.5004         36.5004
 20  5 22  0 26 30.0000000  0  9G16G04G09G30G27G08G07G03G26
 -22108190.32447 -16977725.78246  20917300.1414                   20917292.3164
        47.2504         37.2504
 -27961362.19147 -21755972.36146  20325214.4454                   20325208.9774
        46.2504         41.0004
 -25169668.83148 -19599083.21748  20772510.5784                   20772504.8524
        50.0004         52.7504
   -945147.66445   -721443.35743  25585588.0314                   25585583.5084
        34.2504         23.5004
 -12392389.68547  -9642646.02747  22819572.9064                   22819568.5234
        43.2504         42.2504
  -6376261.05746  -4950844.98645  23760370.4534                   23760367.3094
        38.5004         35.0004
 -13693429.83247 -10602011.22147  23005735.6414                   23005728.1804
        44.0004         42.5004
  -5504809.85246  -4275852.13345  24104358.2194                   24104354.1024
        39.7504         34.5004
  -7415060.19646  -5908315.34046  23478259.4144                   23478256.5984
        40.2504         37.0004
 20  5 22  0 27  0.0000000  0  9G16G04G09G30G27G08G07G03G26
 -22050632.25547 -16932875.35446  20928253.2034                   20928245.1054
        47.5004         38.5004
 -27939911.61947 -21739257.65046  20329296.4694                   20329290.9494
        46.2504         41.0004
 -25217208.73648 -19636127.31548  20763463.9454                   20763458.3324
        50.5004         52.7504
  -1031328.39445   -788597.15544  25569189.4694                   25569184.0904
        35.7504         26.7504
 -12462894.03847  -9697584.48347  22806156.8594                   22806152.1454
        43.5004         42.7504
  -6475641.53946  -5028284.29946  23741459.4454                   23741456.8524
        39.7504         36.0004
 -13760358.78847 -10654163.65547  22992999.3444                   22992992.3324
        44.5004         42.2504
  -5396348.76946  -4191337.05345  24124996.1954                   24124993.1764
        38.2504         34.0004
  -7315170.64146  -5830479.37546  23497268.0314                   23497265.0314
        41.0004         37.0004
 20  5 22  0 27 30.0000000  0  9G16G04G09G30G27G08G07G03G26
 -21992554.69047 -16887620.11446  20939304.8204                   20939296.8554
        47.5004         37.2504
 -27917989.52947 -21722175.51946  20333467.9614                   20333462.3054
        46.2504         41.0004
 -25264340.95548 -19672853.73548  20754494.8284                   20754489.0044
        50.5004         52.7504
  -1117483.65445   -855731.13044  25552794.1254                   25552789.5274
        35.5004         25.0004
 -12532984.65447  -9752200.55347  22792818.7734                   22792814.2154
        43.5004         42.0004
  -6574907.13946  -5105634.16046  23722569.7194                   23722566.0594
        39.0004         36.5004
 -13827177.18347 -10706229.92547  22980284.6884                   22980277.2934
        44.5004         42.2504
  -5287845.23846  -4106788.89045  24145645.7114                   24145640.5634
        40.0004         34.0004
  -7215111.81546  -5752511.49645  23516309.2034                   23516304.9804
        40.7504         35.5004
 20  5 22  0 28  0.0000000  0  9G16G04G09G30G27G08G07G03G26
 -21933960.82547 -16841962.56346  20950454.7274                   20950446.9144
        47.2504         37.5004
 -27895596.01347 -21704726.04546  20337729.1884                   20337723.4024
        46.2504         40.5004
 -25311063.92148 -19709261.24948  20745604.1724                   20745598.3984
        50.0004         52.7504
  -1203613.48446   -922845.31044  25536403.9534                   25536399.7854
        37.0004         27.2504
 -12602658.81347  -9806492.10547  22779560.1724                   22779555.8364
        43.0004         42.0004
  -6674054.66646  -5182891.96046  23703701.9924                   23703699.0594
        39.0004         36.2504
 -13893884.66147 -10758209.76847  22967590.1024                   22967583.0594
        44.5004         42.5004
  -5179302.48246  -4022210.15445  24166299.9304                   24166295.9574
        40.2504         35.2504
  -7114886.55146  -5674413.94345  23535382.0554                   23535377.5824
        41.2504         35.5004
 20  5 22  0 28 30.0000000  0  9G16G04G09G30G27G08G07G03G26
 -21874853.05747 -16795904.57546  20961702.8834                   20961695.0984
        47.2504         37.7504
 -27872731.00347 -21686909.17046  20342080.1564                   20342074.5944
        46.5004         41.0004
 -25357375.88648 -19745348.51048  20736790.8054                   20736785.1914
        49.7504         52.7504
  -1289718.00246   -989939.79244  25520019.4454                   25520014.2384
        38.0004         28.5004
 -12671913.67247  -9860456.93347  22766381.9384                   22766377.2384
        43.0004         42.2504
  -6773081.74746  -5260055.93145  23684858.6254                   23684853.5744
        39.5004         35.2504
 -13960481.70847 -10810103.56247  22954917.3444                   22954910.1844
        44.2504         42.5004
  -5070723.64146  -3937603.30045  24186961.5864                   24186957.7734
        39.2504         34.7504
  -7014497.45246  -5596188.71045  23554484.0704                   23554480.9964
        40.2504         35.2504
 20  5 22  0 29  0.0000000  0  9G16G04G09G30G27G08G07G03G26
 -21815234.03447 -16749448.18245  20973047.8914                   20973040.1914
        45.0004         33.5004
 -27849393.84447 -21668724.38146  20346521.5004                   20346515.6994
        45.7504         39.0004
 -25403274.51848 -19781113.68148  20728056.7274                   20728051.2074
        48.5004         51.0004
  -1375796.58646  -1057013.98343  25503638.4454                   25503634.7274
        36.0004         19.7504
 -12740745.72547  -9914092.30947  22753283.0394                   22753278.7344
        43.2504         42.2504
  -6871983.92546  -5337122.47845  23666038.5944                   23666034.6844
        40.0004         33.7504
 -14026967.86046 -10861910.89346  22942265.3054                   22942258.4574
        40.5004         36.5004
  -4962111.02946  -3852970.19545  24207629.9924                   24207625.9614
        41.7504         35.0004
  -6913946.57846  -5517837.38945  23573619.5004                   23573615.3914
        39.7504         31.0004
 20  5 22  0 29 30.0000000  0  9G16G04G09G30G27G08G07G03G26
 -21755106.36447 -16702595.48746  20984490.0084                   20984481.9264
        47.2504         38.0004
 -27825584.19447 -21650171.43746  20351052.4844                   20351046.3094
        46.0004         41.0004
 -25448757.96848 -19816555.34148  20719401.4144                   20719396.0314
        49.5004         52.7504
  -1461848.79645  -1124067.68344  25487263.9774                   25487259.5824
        35.7504         25.5004
 -12809151.93947  -9967395.85147  22740265.6564                   22740261.5664
        43.0004         42.7504
  -6970758.51846  -5414089.72346  23647242.2424                   23647240.0514
        39.5004         36.7504
 -14093342.89647 -10913631.76347  22929635.0234                   22929627.2194
        44.5004         42.7504
  -4853467.53246  -3768312.92245  24228305.9224                   24228299.9064
        40.7504         33.7504
  -6813236.13246  -5439361.80145  23592784.2344                   23592779.9884
        40.7504         35.5004
 20  5 22  0 30  0.0000000  0  9G16G04G09G30G27G08G07G03G26
 -21694472.26247 -16655348.14646  20996027.9694                   20996020.5864
        47.2504         38.0004
 -27801301.97647 -21631250.24846  20355673.1254                   20355667.0474
        46.0004         41.0004
 -25493824.30148 -19851671.98348  20710825.7114                   20710820.3094
        50.0004         52.7504
  -1547874.86246  -1191101.04844  25470893.3134                   25470888.9734
        37.2504         28.0004
 -12877129.33247 -10020365.23747  22727330.1254                   22727325.8164
        43.2504         42.7504
  -7069402.56046  -5490955.22646  23628471.1254                   23628466.6524
        40.0004         36.0004
 -14159606.70947 -10965265.89847  22917025.9534                   22917017.8444
        45.2504         42.7504
  -4744796.10946  -3683633.90245  24248984.1564                   24248979.9534
        40.0004         34.2504
  -6712368.69846  -5360763.82345  23611976.2424                   23611974.2544
        39.0004         34.5004
 20  5 22  0 30 30.0000000  0  9G16G04G09G30G27G08G07G03G26
 -21633334.23547 -16607708.12846  21007662.2194                   21007654.5394
        47.5004         37.7504
 -27776547.00847 -21611960.67846  20360383.8134                   20360377.7774
        46.2504         41.0004
 -25538471.74548 -19886462.20548  20702329.6884                   20702324.0204
        49.7504         53.0004
  -1633874.44346  -1258113.80744  25454528.9384                   25454523.8134
        36.2504         28.7504
 -12944674.98347 -10072998.22347  22714476.8914                   22714472.6294
        44.5004         43.0004
  -7167912.52046  -5567716.25946  23609725.5944                   23609721.2624
        40.5004         37.5004
 -14225759.17947 -11016813.27447  22904436.6254                   22904430.0354
        44.5004         42.7504
  -4636099.56946  -3598935.31145  24269667.1644                   24269663.6914
        39.0004         33.2504
  -6611346.83746  -5282045.55045  23631201.7424                   23631198.1994
        41.2504         35.2504
 20  5 22  0 31  0.0000000  0  9G16G04G09G30G27G08G07G03G26
 -21571694.69347 -16559677.33346  21019392.2734                   21019384.0634
        47.7504         37.5004
 -27751318.73247 -21592302.30346  20365184.6954                   20365178.3054
        46.0004         40.7504
 -25582697.94248 -19920924.19648  20693913.4454                   20693908.2154
        50.2504         53.0004
  -1719847.02345  -1325105.44543  25438167.7504                   25438163.9614
        32.0004         23.7504
 -13011785.46347 -10125292.12347  22701706.4064                   22701701.5434
        43.7504         43.0004
  -7266284.91146  -5644370.08545  23591004.8834                   23591000.2664
        40.5004         35.5004
 -14291800.00647 -11068273.63947  22891869.6174                   22891862.2504
        44.2504         42.5004
  -4527380.39446  -3514219.10345  24290355.0864                   24290352.5434
        37.0004         33.5004
  -6510172.43146  -5203208.39946  23650454.8134                   23650451.4844
        41.5004         36.2504
 20  5 22  0 31 30.0000000  0  9G16G04G09G30G27G08G07G03G26
 -21509556.85048 -16511258.24046  21031216.2194                   21031208.4184
        48.0004         37.0004
 -27725617.17947 -21572275.13846  20370075.5004                   20370069.6524
        46.0004         40.5004
 -25626501.34148 -19955056.72248  20685577.9844                   20685572.6174
        50.7504         53.0004
  -1805792.66645  -1392076.00544  25421813.1884                   25421809.9574
        34.2504         27.7504
 -13078458.06447 -10177244.79547  22689018.6414                   22689014.3714
        43.5004         43.0004
  -7364516.71746  -5720914.27546  23572313.0394                   23572309.1374
        41.0004         37.0004
 -14357729.20747 -11119647.03547  22879323.8364                   22879316.4344
        44.0004         42.7504
  -4418641.85646  -3429487.84445  24311049.7344                   24311045.2974
        39.2504         33.2504
  -6408848.13946  -5124254.43946  23669735.2664                   23669732.7624
        40.7504         36.2504
 20  5 22  0 32  0.0000000  0  9G16G04G09G30G27G08G07G03G26
 -21446923.04147 -16462452.68946  21043135.0554                   21043127.2304
        47.5004         36.5004
 -27699441.94647 -21551878.87946  20375056.6804                   20375050.7034
        46.0004         40.7504
 -25669879.78748 -19988858.11848  20677323.4384                   20677318.5634
        50.7504         53.2504
  -1891710.91845  -1459025.37344  25405464.0554                   25405459.7624
        35.7504         29.5004
 -13144689.57147 -10228853.76147  22676415.2194                   22676410.8134
        43.7504         43.0004
  -7462604.75846  -5797346.53446  23553646.9304                   23553643.7854
        40.5004         37.2504
 -14423546.24947 -11170933.03647  22866799.1564                   22866792.0164
        44.5004         42.7504
  -4309886.27946  -3344743.26945  24331744.2814                   24331740.2664
        38.7504         33.7504
  -6307376.09746  -5045185.36545  23689045.2814                   23689042.2934
        40.5004         35.0004
 20  5 22  0 32 30.0000000  0  9G16G04G09G30G27G08G07G03G26
 -21383795.67647 -16413262.54446  21055148.0634                   21055140.0744
        47.7504         36.7504
 -27672792.98047 -21531113.46746  20380127.8444                   20380121.6524
        46.0004         40.5004
 -25712831.47748 -20022326.97548  20669150.0474                   20669144.6214
        50.5004         53.2504
  -1977601.60645  -1525953.27244  25389118.5394                   25389115.4344
        34.2504         29.2504
 -13210477.10747 -10280116.78447  22663896.0084                   22663891.9384
        43.7504         43.2504
  -7560545.46846  -5873663.96946  23535009.3754                   23535006.0664
        40.5004         37.5004
 -14489251.23547 -11222131.70947  22854295.6414                   22854288.8874
        44.2504         43.2504
  -4201116.69846  -3259987.77245  24352442.4774                   24352438.1954
        39.0004         33.5004
  -6205758.74146  -4966003.06945  23708383.5314                   23708379.5784
        41.2504         35.2504
 20  5 22  0 33  0.0000000  0  9G16G04G09G30G27G08G07G03G26
 -21320177.68147 -16363690.08946  21067254.1024                   21067246.1644
        47.5004         37.5004
 -27645670.41347 -21509979.02246  20385288.8834                   20385282.7774
        45.7504         40.5004
 -25755354.82748 -20055462.06948  20661058.3524                   20661052.6334
        50.0004         53.2504
  -2063464.90546  -1592859.78044  25372780.5084                   25372775.7704
        36.7504         28.2504
 -13275817.92147 -10331031.70847  22651462.3204                   22651458.0124
        43.5004         43.0004
  -7658336.20746  -5949864.52846  23516399.9924                   23516395.7934
        39.7504         36.5004
 -14554844.49547 -11273243.34247  22841813.9924                   22841806.3284
        44.7504         43.5004
  -4092336.12046  -3175223.70445  24373141.4844                   24373138.5234
        38.5004         33.0004
  -6103998.65946  -4886709.52945  23727747.0554                   23727743.9804
        40.7504         34.0004
 20  5 22  0 33 30.0000000  0  9G16G04G09G30G27G08G07G03G26
 -21256072.01748 -16313737.64046  21079452.8134                   21079445.0274
        48.0004         36.7504
 -27618074.19847 -21488475.50646  20390540.2424                   20390534.4454
        46.0004         40.5004
 -25797447.96048 -20088261.92648  20653048.0164                   20653042.5594
        50.0004         53.2504
  -2149300.53046  -1659744.70544  25356447.0314                   25356441.5864
        36.2504         29.0004
 -13340709.21747 -10381596.35747  22639114.0554                   22639109.4064
        43.7504         43.2504
  -7755973.70246  -6025945.65746  23497820.3204                   23497816.9694
        40.2504         37.2504
 -14620325.41447 -11324267.44647  22829353.1094                   22829346.0634
        45.0004         43.5004
  -3983547.48346  -3090453.38445  24393843.0084                   24393840.6334
        38.5004         33.0004
  -6002098.32146  -4807306.73145  23747138.3984                   23747134.3444
        41.0004         34.2504
 20  5 22  0 34  0.0000000  0  9G16G04G09G30G27G08G07G03G26
 -21191480.72248 -16263406.77346  21091744.4694                   21091736.3484
        48.5004         37.0004
 -27590003.59347 -21466602.32546  20395882.1724                   20395876.1764
        46.0004         40.5004
 -25839108.62048 -20120724.78948  20645120.5634                   20645115.0634
        49.7504         53.5004
  -2235107.86146  -1726607.55745  25340119.1564                   25340112.9414
        38.0004         30.5004
 -13405147.48447 -10431808.00347  22626851.7114                   22626847.5984
        43.5004         43.5004
  -7853454.12246  -6101904.42646  23479271.2504                   23479266.8324
        41.5004         38.2504
 -14685693.77747 -11375203.83647  22816914.1644                   22816907.2114
        45.0004         43.5004
  -3874753.03746  -3005678.53845  24414547.8834                   24414543.7974
        40.0004         33.5004
  -5900059.48646  -4727795.98045  23766555.8594                   23766552.0124
        40.7504         35.0004
 20  5 22  0 34 30.0000000  0  9G16G04G09G30G27G08G07G03G26
 -21126406.48748 -16212699.59346  21104127.7114                   21104119.8094
        48.5004         37.0004
 -27561458.80047 -21444359.66346  20401314.2664                   20401307.5984
        46.0004         39.7504
 -25880335.13648 -20152849.35748  20637275.0474                   20637269.8674
        49.7504         53.2504
  -2320886.81946  -1793448.40744  25323794.7974                   25323789.6684
        37.7504         29.5004
 -13469130.01447 -10481664.52347  22614675.9694                   22614671.6914
        44.0004         43.0004
  -7950774.73846  -6177738.69146  23460750.7894                   23460748.4614
        40.5004         38.0004
 -14750949.81347 -11426052.69947  22804496.1484                   22804489.0204
        44.5004         43.5004
  -3765955.77546  -2920901.48945  24435250.1484                   24435247.1804
        38.5004         32.5004
  -5797884.75846  -4648179.35345  23785999.2274                   23785995.3484
        40.7504         35.0004
 20  5 22  0 35  0.0000000  0  9G16G04G09G30G27G08G07G03G26
 -21060852.28648 -16161618.40946  21116601.9384                   21116593.7114
        49.0004         36.0004
 -27532439.77647 -21421747.45446  20406836.1174                   20406830.2894
        46.2504         40.2504
 -25921125.67048 -20184634.19448  20629513.1804                   20629508.0434
        50.2504         53.5004
  -2406637.34045  -1860267.07544  25307475.9454                   25307471.3914
        35.0004         26.5004
 -13532653.94547 -10531163.69447  22602588.4844                   22602583.6884
        44.0004         43.5004
  -8047931.60846  -6253445.32046  23442263.0704                   23442258.2934
        41.0004         36.5004
 -14816092.72447 -11476813.41747  22792099.9694                   22792092.5664
        44.7504         43.5004
  -3657158.54546  -2836124.46745  24455954.8754                   24455950.1524
        39.0004         32.0004
  -5695576.44046  -4568458.62145  23805466.9614                   23805464.2234
        40.0004         35.0004
 20  5 22  0 35 30.0000000  0  9G16G04G09G30G27G08G07G03G26
 -20994820.11748 -16110164.78546  21129167.8204                   21129159.4384
        48.0004         37.0004
 -27502946.05347 -21398765.35446  20412448.6644                   20412442.5664
        46.0004         40.0004
 -25961478.06948 -20216077.63248  20621834.2194                   20621829.2304
        49.5004         53.5004
  -2492358.86146  -1927063.02744  25291164.6954                   25291160.2974
        36.0004         27.7504
 -13595716.07347 -10580303.02547  22590587.7974                   22590583.4844
        43.7504         43.0004
  -8144921.89046  -6329022.20946  23423805.5314                   23423801.7464
        40.0004         36.7504
 -14881122.28847 -11527485.80247  22779725.1644                   22779718.0704
        44.5004         43.2504
  -3548363.80046  -2751349.37045  24476656.7974                   24476653.9614
        37.7504         31.7504
  -5593136.55746  -4488635.37645  23824961.2584                   23824957.5164
        40.5004         34.5004
 20  5 22  0 36  0.0000000  0  9G16G04G09G30G27G08G07G03G26
 -20928313.21148 -16058341.23646  21141823.3674                   21141815.5394
        48.5004         36.5004
 -27472977.87247 -21375413.55346  20418151.0234                   20418145.3404
        46.0004         40.2504
 -26001390.72748 -20247178.40948  20614238.8204                   20614233.9064
        50.0004         53.2504
  -2578051.36246  -1993836.48744  25274857.7734                   25274852.7154
        36.2504         28.0004
 -13658313.77747 -10629080.46947  22578676.5314                   22578671.4454
        43.7504         43.2504
  -8241742.49046  -6404466.79446  23405382.1564                   23405378.8284
        40.2504         37.5004
 -14946038.60547 -11578069.94147  22767372.0314                   22767365.1414
        44.5004         43.2504
  -3439574.51946  -2666578.57045  24497359.0314                   24497355.0944
        37.5004         31.0004
  -5490567.59846  -4408711.56545  23844479.7424                   23844475.7424
        40.7504         34.7504
 20  5 22  0 36 30.0000000  0  9G16G04G09G30G27G08G07G03G26
 -20861334.17448 -16006149.79146  21154568.9774                   21154561.3794
        48.7504         36.2504
 -27442535.05547 -21351691.88846  20423944.4844                   20423938.4924
        45.7504         40.0004
 -26040861.75448 -20277935.06548  20606727.8984                   20606722.5314
        49.2504         53.2504
  -2663714.59246  -2060587.15044  25258557.0004                   25258552.3874
        36.0004         28.2504
 -13720444.09147 -10677493.70547  22566853.0474                   22566848.4304
        43.5004         43.2504
  -8338389.54946  -6479776.19446  23386990.5634                   23386985.8444
        40.5004         37.0004
 -15010841.43647 -11628565.64647  22755040.7814                   22755033.3164
        44.5004         43.5004
  -3330793.48646  -2581814.15345  24518060.3204                   24518055.5554
        39.5004         31.7504
  -5387871.80546  -4328688.95345  23864022.4064                   23864018.6174
        40.7504         34.7504
 20  5 22  0 37  0.0000000  0  9G16G04G09G30G27G08G07G03G26
 -20793885.91348 -15953592.72146  21167403.8054                   21167396.2154
        48.5004         36.7504
 -27411617.63547 -21327600.41146  20429827.5634                   20429822.1914
        46.0004         40.0004
 -26079889.33448 -20308346.17648  20599301.5634                   20599295.7854
        49.5004         53.2504
  -2749348.32545  -2127314.76244  25242259.7504                   25242256.7034
        34.7504         27.2504
 -13782104.15447 -10725540.51047  22555119.3984                   22555114.5434
        43.5004         43.2504
  -8434860.55646  -6554948.39546  23368632.3524                   23368629.3014
        40.7504         38.5004
 -15075531.20047 -11678973.25347  22742730.4064                   22742723.2894
        45.0004         43.5004
  -3222023.30546  -2497058.21245  24538758.3444                   24538754.4574
        38.5004         32.7504
  -5285051.46046  -4248569.23945  23883587.8674                   23883584.0984
        40.5004         33.5004
 20  5 22  0 37 30.0000000  0  9G16G04G09G30G27G08G07G03G26
 -20725971.36448 -15900672.30346  21180328.0004                   21180320.0354
        48.2504         36.7504
 -27380225.98247 -21303139.40746  20435801.3444                   20435795.8594
        45.7504         40.0004
 -26118472.08048 -20338410.65748  20591959.2734                   20591953.6884
        49.5004         53.2504
  -2834952.68045  -2194019.50544  25225971.4304                   25225966.7774
        35.7504         28.2504
 -13843291.53047 -10773218.98547  22543475.6094                   22543471.7894
        44.0004         43.5004
  -8531151.91346  -6629980.63646  23350308.6174                   23350305.7034
        40.0004         38.0004
 -15140107.33647 -11729292.29547  22730442.2034                   22730435.0514
        45.0004         44.0004
  -3113267.25446  -2412313.28145  24559454.3364                   24559449.8754
        39.2504         32.2504
  -5182109.28146  -4168354.58845  23903177.8444                   23903173.2704
        40.7504         34.0004
 20  5 22  0 38  0.0000000  0  9G16G04G09G30G27G08G07G03G26
 -20657592.47048 -15847390.06546  21193339.8364                   21193332.0744
        48.0004         36.7504
 -27348359.33247 -21278308.27646  20441865.2664                   20441859.5634
        45.5004         39.5004
 -26156607.42648 -20368126.51848  20584702.5234                   20584697.2114
        49.0004         53.5004
  -2920526.86045  -2260700.71144  25209686.2894                   25209682.2464
        32.7504         27.5004
 -13904002.66047 -10820526.36447  22531923.2114                   22531918.4454
        43.7504         43.5004
  -8627260.21546  -6704870.21746  23332020.0704                   23332015.8244
        41.2504         37.5004
 -15204569.21047 -11779522.34147  22718175.9534                   22718168.0474
        45.0004         44.0004
  -3004527.28546  -2327580.88045  24580146.9304                   24580142.5044
        39.5004         32.5004
  -5079046.71246  -4088046.15245  23922789.9924                   23922786.1454
        40.7504         34.2504
 20  5 22  0 38 30.0000000  0  9G16G04G09G30G27G08G07G03G26
 -20588752.45848 -15793748.51446  21206440.0084                   21206431.8634
        48.5004         36.7504
 -27316018.44747 -21253107.59546  20448019.9924                   20448014.0274
        46.0004         39.5004
 -26194294.31148 -20397492.93548  20577530.8524                   20577525.3554
        49.5004         53.5004
  -3006071.22346  -2327358.71244  25193408.7424                   25193403.4654
        36.5004         28.5004
 -13964235.48447 -10867461.03347  22520461.1414                   22520455.8984
        44.7504         43.5004
  -8723182.62146  -6779614.95846  23313766.6644                   23313763.4144
        40.2504         38.2504
 -15268917.20947 -11829663.64147  22705930.7894                   22705922.8874
        45.0004         44.2504
  -2895806.92146  -2242863.75845  24600835.5864                   24600830.9614
        40.0004         32.7504
  -4975866.85246  -4007646.29145  23942424.3054                   23942420.4414
        41.0004         33.7504
 20  5 22  0 39  0.0000000  0  9G16G04G09G30G27G08G07G03G26
 -20519454.13948 -15739749.84345  21219626.4534                   21219619.0044
        48.0004         35.7504
 -27283203.03847 -21227537.17446  20454264.1804                   20454258.8634
        46.0004         40.0004
 -26231530.63348 -20426508.25948  20570445.0704                   20570439.5354
        49.0004         53.5004
  -3091585.23245  -2393993.03044  25177136.2344                   25177131.0084
        35.5004         27.0004
 -14023986.86047 -10914020.54747  22509091.1884                   22509086.2034
        44.0004         43.2504
  -8818915.43146  -6854211.97146  23295549.2274                   23295544.8324
        40.5004         37.5004
 -15333150.91647 -11879715.87647  22693707.3914                   22693699.9804
        45.0004         44.5004
  -2787108.55146  -2158163.75145  24621519.2664                   24621516.0864
        37.5004         32.5004
  -4872571.49446  -3927156.44045  23962080.7664                   23962076.4844
        41.0004         33.5004
 20  5 22  0 39 30.0000000  0  9G16G04G09G30G27G08G07G03G26
 -20449699.86448 -15685395.88146  21232900.7504                   21232892.5514
        48.5004         36.0004
 -27249912.77647 -21201596.72246  20460599.2974                   20460593.4064
        45.5004         40.0004
 -26268314.29048 -20455170.86248  20563445.2894                   20563439.5904
        48.7504         53.5004
  -3177068.34146  -2460603.29345  25160870.3914                   25160863.7814
        37.7504         30.0004
 -14083253.68647 -10960202.50347  22497812.3754                   22497808.0044
        44.0004         43.5004
  -8914455.00546  -6928658.39546  23277368.9144                   23277365.7344
        40.2504         38.5004
 -15397269.74747 -11929678.60947  22681505.7424                   22681498.6994
        45.0004         44.0004
  -2678434.53146  -2073482.75345  24642201.1024                   24642195.6294
        40.2504         31.7504
  -4769162.62646  -3846578.14145  23981758.6724                   23981754.3324
        39.5004         32.7504
 20  5 22  0 40  0.0000000  0  9G16G04G09G30G27G08G07G03G26
 -20379492.59848 -15630688.93446  21246260.6024                   21246252.6564
        48.0004         36.0004
 -27216148.19547 -21175286.68446  20467024.5314                   20467018.4694
        46.5004         39.7504
 -26304643.93248 -20483479.68748  20556531.9774                   20556526.4104
        48.7504         53.5004
  -3262520.79246  -2527189.68345  25144608.3054                   25144604.1294
        38.0004         32.0004
 -14142033.64747 -11006005.06547  22486627.4064                   22486622.7344
        44.0004         43.5004
  -9009798.96346  -7002952.41646  23259225.1804                   23259221.7194
        40.5004         38.2504
 -15461274.04047 -11979552.08147  22669326.1644                   22669318.9694
        45.0004         44.0004
  -2569788.06846  -1988823.24445  24662876.4534                   24662870.8794
        39.7504         31.7504
  -4665642.93746  -3765913.49445  24001458.2114                   24001455.0824
        40.2504         34.5004
 20  5 22  0 40 30.0000000  0  9G16G04G09G30G27G08G07G03G26
 -20308834.53948 -15575630.71646  21259706.2034                   21259698.7664
        48.5004         36.0004
 -27181908.91947 -21148606.74646  20473540.1644                   20473534.0044
        46.2504         39.5004
 -26340517.37548 -20511433.03048  20549705.4924                   20549700.2074
        49.5004         53.5004
  -3347941.90446  -2593751.60845  25128354.6644                   25128348.8834
        38.2504         31.7504
 -14200323.54547 -11051425.77347  22475534.9774                   22475530.1564
        44.0004         43.5004
  -9104943.43846  -7077090.95246  23241119.7194                   23241116.4844
        40.5004         38.5004
 -15525163.22847 -12029335.86747  22657168.4224                   22657161.0984
        44.7504         43.7504
  -2461171.35546  -1904186.89845  24683544.2664                   24683539.7894
        39.2504         31.2504
  -4562014.13846  -3685163.86545  24021177.2584                   24021174.9844
        38.0004         33.2504
 20  5 22  0 41  0.0000000  0  9G16G04G09G30G27G08G07G03G26
 -20237728.84948 -15520223.69746  21273237.7034                   21273229.8164
        48.5004         36.7504
 -27147195.30847 -21121557.21046  20480145.6564                   20480139.9574
        46.2504         40.0004
 -26375933.11648 -20539029.72548  20542966.1954                   20542960.8984
        49.0004         53.5004
  -3433331.79546  -2660289.18245  25112104.0864                   25112099.8984
        37.0004         30.5004
 -14258120.87747 -11096462.65347  22464536.5554                   22464531.8284
        44.2504         43.7504
  -9199885.44946  -7151071.73546  23223053.3444                   23223049.5004
        41.2504         39.0004
 -15588937.13747 -12079029.81547  22645032.5864                   22645025.1374
        45.0004         43.7504
  -2352587.43446  -1819576.08845  24704207.2894                   24704202.6054
        38.7504         31.2504
  -4458278.77546  -3604331.12845  24040917.8754                   24040914.9574
        39.7504         33.5004
 20  5 22  0 41 30.0000000  0  9G16G04G09G30G27G08G07G03G26
 -20166178.70348 -15464470.36046  21286853.1254                   21286845.2664
        48.7504         36.0004
 -27112007.48447 -21094138.13746  20486841.4534                   20486835.7814
        45.7504         39.5004
 -26410889.44048 -20566268.43448  20536314.0164                   20536308.8054
        49.5004         53.5004
  -3518690.09046  -2726802.21644  25095861.6024                   25095855.9534
        37.2504         29.5004
 -14315423.03647 -11141113.67247  22453631.8914                   22453627.6524
        44.5004         44.0004
  -9294621.82246  -7224892.31346  23205025.2814                   23205021.9144
        41.2504         39.2504
 -15652595.76347 -12128633.94447  22632919.0634                   22632911.3874
        45.5004         43.7504
  -2244039.03046  -1734992.95245  24724862.9304                   24724858.8874
        39.0004         30.5004
  -4354438.97246  -3523417.09345  24060678.1024                   24060674.3204
        39.0004         34.2504
 20  5 22  0 42  0.0000000  0  9G16G04G09G30G27G08G07G03G26
 -20094186.71748 -15408372.72346  21300552.6884                   21300544.7624
        48.0004         36.2504
 -27076345.61247 -21066349.69446  20493628.1804                   20493622.3444
        46.0004         39.2504
 -26445384.71748 -20593147.88148  20529749.8754                   20529744.5864
        49.5004         53.7504
  -3604016.68746  -2793290.51645  25079623.3834                   25079619.4344
        36.5004         31.0004
 -14372227.32647 -11185376.75447  22442822.6484                   22442818.1804
        44.2504         44.5004
  -9389148.95546  -7298549.81046  23187037.5234                   23187033.6214
        41.5004         39.0004
 -15716139.09647 -12178148.22747  22620826.8594                   22620819.3054
        45.5004         44.0004
  -2135528.90046  -1650439.63045  24745511.7504                   24745507.2234
        38.5004         30.5004
  -4250497.15446  -3442423.49245  24080458.3914                   24080454.6684
        40.0004         34.5004
 20  5 22  0 42 30.0000000  0  9G16G04G09G30G27G08G07G03G26
 -20021755.46448 -15351932.79946  21314335.8444                   21314327.9534
        48.0004         36.0004
 -27040209.73147 -21038191.88246  20500504.2894                   20500499.2154
        46.0004         39.7504
 -26479417.05948 -20619666.59248  20523273.8674                   20523268.3134
        49.5004         53.7504
  -3689311.29045  -2859753.92144  25063391.5944                   25063387.9494
        34.7504         29.5004
 -14428530.94747 -11229249.69847  22432108.8364                   22432104.0514
        45.0004         44.2504
  -9483463.79246  -7372041.89946  23169089.7424                   23169086.6994
        40.5004         38.2504
 -15779566.37747 -12227572.08747  22608757.1884                   22608749.8714
        45.0004         44.2504
  -2027059.57146  -1565918.14344  24766153.6564                   24766148.5004
        39.0004         29.5004
  -4146455.25346  -3361351.97945  24100257.8594                   24100253.1054
        40.5004         34.7504
 20  5 22  0 43  0.0000000  0  9G16G04G09G30G27G08G07G03G26
 -19948887.62047 -15295152.68045  21328202.2344                   21328194.2274
        47.7504         35.5004
 -27003599.91547 -21009664.77846  20507471.2584                   20507465.2234
        46.0004         39.5004
 -26512984.73748 -20645823.23548  20516886.2504                   20516880.5864
        49.0004         53.5004
  -3774573.55046  -2926192.05045  25047168.3364                   25047163.7894
        37.2504         31.0004
 -14484331.22447 -11272730.43147  22421490.5314                   22421485.3134
        45.2504         44.0004
  -9577562.96346  -7445365.93546  23151183.2194                   23151180.2154
        40.2504         38.0004
 -15842877.46647 -12276905.40547  22596709.3754                   22596702.0204
        45.2504         44.7504
  -1918633.70646  -1481430.45945  24786785.4614                   24786781.5824
        39.2504         30.2504
  -4042315.50846  -3280204.14845  24120072.6334                   24120070.0634
        39.7504         33.0004
 20  5 22  0 43 30.0000000  0  9G16G04G09G30G27G08G07G03G26
 -19875585.96248 -15238034.51546  21342151.0634                   21342143.0634
        49.0004         36.0004
 -26966516.62147 -20980768.73246  20514527.9694                   20514521.6094
        46.5004         39.0004
 -26546086.28748 -20671616.66148  20510586.9614                   20510582.0234
        49.0004         53.7504
  -3859803.58946  -2992605.12844  25030948.8984                   25030944.4184
        37.2504         29.5004
 -14539625.72147 -11315817.06347  22410968.1024                   22410962.9574
        45.2504         43.7504
  -9671443.03646  -7518519.24046  23133318.9844                   23133314.8014
        41.0004         37.7504
 -15906072.62947 -12326148.39547  22584684.0084                   22584676.6884
        45.5004         44.7504
  -1810254.20046  -1396978.95444  24807409.3444                   24807404.9264
        39.2504         29.5004
  -3938080.18346  -3198981.91545  24139908.8984                   24139905.4574
        40.0004         33.0004
 20  5 22  0 44  0.0000000  0  9G16G04G09G30G27G08G07G03G26
 -19801853.27048 -15180580.49145  21356181.8134                   21356174.2774
        48.5004         35.7504
 -26928959.57147 -20951503.52746  20521674.9454                   20521669.0824
        46.0004         39.5004
 -26578719.58448 -20697045.22548  20504377.2734                   20504371.6724
        49.0004         53.7504
  -3945000.65045  -3058992.50444  25014736.1094                   25014732.6844
        35.5004         29.2504
 -14594411.41847 -11358507.19547  22400542.7274                   22400537.7544
        45.2504         44.0004
  -9765101.00046  -7591499.51146  23115496.0704                   23115491.5944
        41.7504         38.2504
 -15969150.98447 -12375300.36347  22572680.3054                   22572673.0434
        45.5004         44.7504
  -1701923.35146  -1312565.32245  24828024.5164                   24828019.7734
        40.0004         30.7504
  -3833751.19646  -3117686.60945  24159762.4064                   24159757.5744
        40.2504         31.7504
 20  5 22  0 44 30.0000000  0  9G16G04G09G30G27G08G07G03G26
 -19727692.57348 -15122792.94445  21370294.0234                   21370286.2074
        48.0004         35.5004
 -26890929.21847 -20921869.50946  20528911.9064                   20528905.9304
        46.2504         39.2504
 -26610883.24848 -20722107.83348  20498256.5234                   20498251.3524
        49.0004         53.7504
  -4030164.74246  -3125354.16744  24998530.1564                   24998526.1954
        37.0004         29.2504
 -14648685.91247 -11400799.00747  22390214.2424                   22390209.6484
        45.0004         43.7504
  -9858533.36746  -7664303.97446  23097716.3754                   23097712.1764
        41.5004         39.0004
 -16032112.57747 -12424361.33947  22560699.0004                   22560691.6764
        45.5004         44.5004
  -1593643.98446  -1228191.87444  24848628.9844                   24848624.7304
        38.0004         29.5004
  -3729330.76446  -3036320.12045  24179632.4844                   24179628.6054
        38.5004         31.2504
 20  5 22  0 45  0.0000000  0  9G16G04G09G30G27G08G07G03G26
 -19653106.58048 -15064674.00545  21384487.2974                   21384479.9774
        48.0004         35.0004
 -26852425.67147 -20891866.77246  20536238.5944                   20536232.9844
        46.0004         39.2504
 -26642575.45948 -20746803.07248  20492225.9304                   20492220.6374
        48.5004         53.7504
  -4115295.51946  -3191689.87544  24982329.4534                   24982325.8324
        36.5004         29.5004
 -14702446.58147 -11442690.44347  22379983.8674                   22379979.1564
        45.0004         43.7504
  -9951737.15546  -7736930.31946  23079980.5704                   23079976.3164
        41.7504         39.2504
 -16094957.60547 -12473331.49447  22548740.3364                   22548732.8094
        45.0004         44.5004
  -1485418.76146  -1143860.56345  24869223.4694                   24869219.7464
        36.2504         31.2504
  -3624821.21946  -2954884.09845  24199519.9774                   24199516.1844
        39.5004         32.0004
 20  5 22  0 45 30.0000000  0  9G16G04G09G30G27G08G07G03G26
 -19578097.72948 -15006225.57045  21398761.2814                   21398753.1334
        48.5004         35.5004
 -26813449.20347 -20861495.51846  20543655.9304                   20543650.2974
        46.2504         39.2504
 -26673794.64448 -20771129.72149  20486285.0944                   20486280.1604
        48.7504         54.0004
  -4200392.90346  -3257999.55345  24966137.7814                   24966133.1804
        38.0004         30.0004
 -14755690.84147 -11484179.49247  22369851.4304                   22369847.1294
        45.0004         44.0004
 -10044709.07146  -7809375.96946  23062288.2814                   23062284.8554
        41.5004         39.5004
 -16157685.23247 -12522210.15047  22536803.3054                   22536796.1884
        45.2504         44.5004
  -1377250.30345  -1059573.47145  24889806.5554                   24889803.9304
        35.7504         31.0004
  -3520224.43046  -2873380.17545  24219423.4454                   24219421.5784
        37.7504         33.0004
 20  5 22  0 46  0.0000000  0  9G16G04G09G30G27G08G07G03G26
 -19502669.63348 -14947450.44545  21413114.8524                   21413107.0164
        48.5004         35.5004
 -26774000.47847 -20830756.28646  20551162.7814                   20551156.8874
        46.2504         39.5004
 -26704539.52148 -20795086.78248  20480434.5864                   20480429.1644
        48.7504         53.7504
  -4285456.85846  -3324283.24145  24949950.0784                   24949945.2584
        37.2504         30.2504
 -14808416.56747 -11525264.46547  22359818.5164                   22359814.2034
        45.5004         44.0004
 -10137445.67946  -7881638.25746  23044641.0704                   23044637.7584
        41.2504         39.5004
 -16220295.50247 -12570997.36647  22524888.9454                   22524881.8204
        45.2504         44.5004
  -1269141.59646   -975333.02145  24910380.1884                   24910375.9304
        38.0004         31.0004
  -3415543.10746  -2791810.35645  24239344.5084                   24239341.7154
        39.7504         34.0004
 20  5 22  0 46 30.0000000  0  9G16G04G09G30G27G08G07G03G26
 -19426824.68248 -14888350.49845  21427547.5944                   21427539.7234
        48.0004         35.2504
 -26734079.15647 -20799648.79446  20558759.5394                   20558753.7034
        46.2504         39.2504
 -26734807.87148 -20818672.52449  20474674.7734                   20474669.0904
        49.0004         54.0004
  -4370486.67546  -3390540.24745  24933770.5234                   24933764.9734
        39.0004         31.0004
 -14860620.63747 -11565942.95447  22349884.5784                   22349880.0394
        44.5004         44.5004
 -10229943.59346  -7953714.57146  23027039.6804                   23027036.7154
        40.2504         39.0004
 -16282788.01147 -12619692.82347  22512997.2034                   22512989.8364
        45.0004         44.7504
  -1161094.81446   -891140.82845  24930941.5784                   24930936.7464
        37.7504         30.0004
  -3310778.77446  -2710175.86645  24259280.3284                   24259277.9104
        39.0004         32.5004
 20  5 22  0 47  0.0000000  0  9G16G04G09G30G27G08G07G03G26
 -19350565.65148 -14828927.89245  21442059.3834                   21442051.2504
        48.5004         35.5004
 -26693685.68147 -20768173.38146  20566446.0704                   20566440.2274
        46.5004         39.2504
 -26764598.26748 -20841885.82648  20469005.6884                   20469000.2974
        48.7504         53.7504
  -4455482.28446  -3456770.66545  24917595.3054                   24917590.9694
        37.5004         31.7504
 -14912300.65147 -11606213.09747  22340050.1254                   22340045.9104
        45.2504         44.5004
 -10322199.47846  -8025602.25746  23009483.4924                   23009480.8714
        40.5004         39.7504
 -16345162.79647 -12668296.54347  22501128.0234                   22501120.1564
        45.2504         44.5004
  -1053112.66646   -806998.91144  24951488.6174                   24951485.6254
        36.5004         29.5004
  -3205933.55046  -2628478.45345  24279234.1724                   24279229.0394
        40.5004         33.5004
 20  5 22  0 47 30.0000000  0  9G16G04G09G30G27G08G07G03G26
 -19273895.59348 -14769185.01245  21456648.9694                   21456641.2034
        48.2504         35.7504
 -26652820.67347 -20736330.54646  20574222.6174                   20574216.9264
        46.2504         39.0004
 -26793909.37748 -20864725.67448  20463428.1094                   20463422.4734
        48.5004         53.7504
  -4540443.75246  -3522974.38845  24901427.6254                   24901423.6684
        37.5004         31.0004
 -14963454.50847 -11646073.24747  22330316.3284                   22330311.4064
        44.7504         44.5004
 -10414210.78946  -8097299.38846  22991974.8284                   22991970.9964
        41.2504         39.2504
 -16407419.53447 -12716808.29047  22489281.1094                   22489273.3054
        45.5004         44.7504
   -945198.16846   -722909.64144  24972023.1484                   24972020.7304
        36.5004         29.0004
  -3101010.06846  -2546719.90745  24299198.2344                   24299195.3404
        37.5004         31.7504
 20  5 22  0 48  0.0000000  0  9G16G04G09G30G27G08G07G03G26
 -19196816.84648 -14709123.66545  21471316.7194                   21471308.7934
        48.0004         34.7504
 -26611483.93347 -20704120.13146  20582088.6884                   20582082.5864
        45.7504         39.2504
 -26822739.14948 -20887190.43949  20457941.8594                   20457936.3244
        49.0004         54.0004
  -4625370.28246  -3589150.98945  24885266.4694                   24885262.9964
        36.5004         31.2504
 -15014079.20747 -11685521.06847  22320682.3754                   22320677.2704
        46.2504         44.5004
 -10505973.43047  -8168802.76046  22974513.2974                   22974508.6604
        42.5004         39.2504
 -16469557.62747 -12765227.58347  22477456.2274                   22477448.3874
        45.7504         44.7504
   -837353.33346   -638874.73944  24992546.5474                   24992542.0354
        38.5004         27.7504
  -2996009.76045  -2464901.54345  24319177.9694                   24319176.1994
        34.7504         30.7504
 20  5 22  0 48 30.0000000  0  9G16G04G09G30G27G08G07G03G26
 -19119332.39247 -14648746.18845  21486061.4924                   21486053.3404
        47.5004         34.2504
 -26569675.96047 -20671542.51846  20590044.7344                   20590038.9224
        46.0004         39.5004
 -26851086.17648 -20909279.04449  20452547.5784                   20452542.7234
        49.0004         54.0004
  -4710261.87146  -3655300.28745  24869112.0944                   24869108.0474
        37.7504         31.7504
 -15064172.48547 -11724554.79147  22311150.1954                   22311145.4264
        45.5004         45.0004
 -10597484.34247  -8240109.99746  22957099.0704                   22957094.3284
        42.2504         39.2504
 -16531576.95147 -12813554.32647  22465654.5864                   22465646.8014
        45.7504         45.0004
   -729581.05145   -554896.30744  25013054.2814                   25013050.2704
        35.5004         26.5004
  -2890935.14146  -2383025.30345  24339175.8984                   24339170.8444
        39.5004         31.0004
 20  5 22  0 49  0.0000000  0  9G16G04G09G30G27G08G07G03G26
 -19041445.02147 -14588054.74845  21500882.5704                   21500874.9024
        47.5004         35.0004
 -26527397.00347 -20638597.90846  20598089.8134                   20598083.9574
        45.5004         38.7504
 -26878948.76648 -20930990.16448  20447245.6414                   20447240.2854
        49.0004         53.7504
  -4795118.15446  -3721422.09945  24852964.3134                   24852960.9104
        36.5004         31.5004
 -15113731.73947 -11763172.40447  22301719.2814                   22301714.4304
        45.2504         45.0004
 -10688740.30946  -8311218.55746  22939733.1484                   22939729.6294
        41.5004         38.7504
 -16593477.27247 -12861788.34247  22453875.2814                   22453867.5554
        45.5004         45.0004
   -621883.72646   -470976.41344  25033549.7424                   25033545.4494
        37.5004         27.5004
  -2785787.85646  -2301092.36944  24359182.7974                   24359178.3714
        37.0004         29.7504
 20  5 22  0 49 30.0000000  0  9G16G04G09G30G27G08G07G03G26
 -18963157.66647 -14527051.64545  21515780.5554                   21515772.6564
        47.2504         35.2504
 -26484647.64747 -20605286.75146  20606224.7974                   20606218.8594
        46.0004         38.2504
 -26906325.60148 -20952322.77648  20442036.0234                   20442030.6094
        48.7504         53.7504
  -4879939.13845  -3787516.41445  24836823.6334                   24836819.8524
        35.5004         30.0004
 -15162754.85047 -11801372.24047  22292390.2814                   22292385.5314
        46.2504         44.5004
 -10779738.47246  -8382126.21546  22922416.9384                   22922412.7074
        41.0004         39.0004
 -16655258.38647 -12909929.46447  22442118.5314                   22442111.2304
        45.5004         45.5004
   -514264.35345   -387117.13944  25054028.2194                   25054025.1954
        35.0004         29.2504
  -2680570.41645  -2219104.78544  24379204.4304                   24379201.0044
        35.5004         29.0004
 20  5 22  0 50  0.0000000  0  9G16G04G09G30G27G08G07G03G26
 -18884473.03047 -14465738.94845  21530753.2734                   21530746.1804
        47.0004         34.7504
 -26441427.97847 -20571609.11246  20614448.9614                   20614443.0124
        46.2504         38.7504
 -26933214.86148 -20973275.46148  20436919.0784                   20436913.5904
        48.7504         53.7504
  -4964724.20746  -3853582.70344  24820689.6484                   24820685.6604
        37.0004         29.5004
 -15211239.14047 -11839152.22547  22283163.7194                   22283159.1914
        44.5004         44.7504
 -10870474.74446  -8452829.79646  22905150.9224                   22905146.4964
        41.5004         39.2504
 -16716919.91047 -12957977.40547  22430384.7274                   22430377.7934
        45.7504         45.5004
   -406725.06146   -303320.38844  25074493.0864                   25074489.2584
        36.7504         29.5004
  -2575284.59046  -2137064.02145  24399242.7274                   24399236.5124
        40.5004         32.0004
 20  5 22  0 50 30.0000000  0  9G16G04G09G30G27G08G07G03G26
 -18805394.81147 -14404119.57845  21545801.8674                   21545793.7584
        47.2504         34.5004
 -26397739.40547 -20537566.09346  20622762.8054                   20622756.8714
        46.0004         38.7504
 -26959615.97348 -20993847.77149  20431895.0004                   20431889.5204
        49.0004         54.0004
  -5049474.15446  -3919621.67245  24804562.1174                   24804558.5434
        36.0004         30.7504
 -15259183.20247 -11876511.24347  22274040.8834                   22274036.3984
        45.0004         44.7504
 -10960947.08646  -8523327.70846  22887934.2894                   22887931.1374
        41.5004         40.7504
 -16778462.65347 -13005932.77847  22418673.2974                   22418666.2704
        45.5004         45.5004
   -299269.40345   -219588.73045  25094939.9774                   25094936.4144
        35.7504         30.7504
  -2469933.45846  -2054972.20245  24419287.8834                   24419285.1174
        37.7504         32.2504
 20  5 22  0 51  0.0000000  0  9G16G04G09G30G27G08G07G03G26
 -18725924.24247 -14342194.47145  21560924.6094                   21560916.6564
        47.2504         34.5004
 -26353580.57247 -20503156.64146  20631166.1564                   20631160.0474
        46.2504         39.0004
 -26985525.69948 -21014037.17849  20426964.6254                   20426959.3244
        49.7504         54.0004
  -5134187.06046  -3985631.71645  24788442.2424                   24788437.7774
        38.0004         30.5004
 -15306582.98247 -11913446.14147  22265020.5474                   22265016.4384
        45.5004         44.5004
 -11051150.93847  -8593616.43846  22870769.3914                   22870766.6884
        42.2504         41.0004
 -16839884.33947 -13053793.83247  22406985.5164                   22406978.4304
        45.5004         45.2504
   -191898.47346   -135923.17045  25115373.1564                   25115370.2424
        38.5004         31.5004
  -2364517.09946  -1972829.67345  24439347.9694                   24439345.0904
        36.5004         31.5004
 20  5 22  0 51 30.0000000  0  9G16G04G09G30G27G08G07G03G26
 -18646065.65447 -14279967.02045  21576121.0314                   21576113.5124
        47.5004         34.7504
 -26308953.14947 -20468382.05346  20639658.3594                   20639652.7704
        46.2504         38.5004
 -27010943.76248 -21033843.48549  20422127.7734                   20422121.8594
        49.7504         54.0004
  -5218863.81546  -4051613.59745  24772329.0234                   24772324.3284
        38.7504         30.5004
 -15353437.35547 -11949956.05147  22256105.0704                   22256100.3794
        45.2504         44.5004
 -11141084.00147  -8663694.13746  22853655.4304                   22853652.2814
        42.2504         41.0004
 -16901186.02247 -13101561.36847  22395319.5944                   22395312.7274
        45.5004         45.2504
    -84615.85746    -52326.22945  25135787.2274                   25135784.2274
        36.5004         31.5004
  -2259039.04146  -1890639.05145  24459421.1884                   24459415.5164
        38.7504         30.5004
 20  5 22  0 52  0.0000000  0  9G16G04G09G30G27G08G07G03G26
 -18565821.17547 -14217438.86745  21591391.1024                   21591383.4534
        47.5004         34.5004
 -26263857.16047 -20433242.35146  20648239.9224                   20648234.0274
        46.0004         38.7504
 -27035868.27348 -21053265.19049  20417384.7894                   20417379.3444
        49.7504         54.0004
  -5303503.80546  -4117566.90044  24756222.3674                   24756218.1994
        38.0004         29.7504
 -15399743.61047 -11986038.86347  22247292.7814                   22247288.4534
        45.2504         44.5004
 -11230742.85747  -8733558.18446  22836594.0234                   22836590.3244
        42.0004         40.2504
 -16962366.90547 -13149234.77447  22383677.7344                   22383670.5164
        45.2504         45.5004
     22576.31846     31200.04845  25156186.5394                   25156181.8874
        38.5004         30.0004
  -2153500.81546  -1808401.56245  24479503.8524                   24479499.6454
        37.2504         30.2504
 20  5 22  0 52 30.0000000  0  9G16G04G09G30G27G08G07G03G26
 -18485193.79147 -14154612.35345  21606734.3594                   21606726.3284
        47.5004         34.7504
 -26218292.99547 -20397737.84446  20656910.4614                   20656905.0124
        46.2504         38.5004
 -27060297.66448 -21072301.09649  20412736.3054                   20412730.7344
        49.7504         54.0004
  -5388106.67946  -4183491.23444  24740123.6804                   24740118.1844
        38.5004         29.0004
 -15445499.38547 -12021692.72947  22238585.5234                   22238581.1724
        45.5004         45.0004
 -11320123.78846  -8803205.66746  22819585.0554                   22819581.5004
        41.7504         40.0004
 -17023427.16447 -13196814.19247  22372058.3364                   22372051.0164
        46.0004         45.5004
    129675.42446    114653.84845  25176567.2034                   25176563.5164
        39.2504         31.2504
  -2047904.28645  -1726118.61244  24499595.8914                   24499593.8554
        34.5004         27.7504
 20  5 22  0 53  0.0000000  0  9G16G04G09G30G27G08G07G03G26
 -18404186.40747 -14091489.73645  21622149.1804                   21622141.7114
        47.2504         35.2504
 -26172261.54647 -20361869.21146  20665670.0394                   20665664.2624
        46.7504         38.7504
 -27084230.90648 -21090950.39349  20408181.9224                   20408176.4614
        49.7504         54.0004
  -5472672.52746  -4249386.75445  24724030.9064                   24724026.5594
        38.5004         32.0004
 -15490702.87247 -12056916.23047  22229983.7504                   22229979.5634
        45.5004         45.0004
 -11409224.21346  -8872634.57246  22802630.0084                   22802626.1454
        41.5004         39.2504
 -17084366.25247 -13244299.19547  22360461.9384                   22360454.6684
        46.7504         45.5004
    236678.53746    198032.86044  25196928.5784                   25196924.4454
        37.2504         26.5004
  -1942252.03146  -1643792.29044  24519702.9384                   24519699.6174
        37.7504         29.7504
 20  5 22  0 53 30.0000000  0  9G16G04G09G30G27G08G07G03G26
 -18322801.52147 -14028072.96545  21637636.1024                   21637628.6994
        47.0004         35.7504
 -26125763.18147 -20325636.74246  20674518.5394                   20674512.4344
        45.7504         38.2504
 -27107666.41748 -21109211.83949  20403721.9614                   20403717.2074
        50.0004         54.0004
  -5557201.11546  -4315253.21845  24707945.7664                   24707941.4414
        39.0004         33.0004
 -15535351.65447 -12091707.49147  22221487.9844                   22221482.8874
        46.2504         45.0004
 -11498040.76846  -8941842.27146  22785728.5234                   22785724.9884
        41.2504         40.2504
 -17145183.96747 -13291689.61847  22348888.9774                   22348881.2814
        45.7504         45.5004
    343583.31945    281335.33444  25217270.1174                   25217268.7814
        33.5004         26.2504
  -1836545.85046  -1561423.85244  24539818.0234                   24539813.6214
        37.5004         29.0004
 20  5 22  0 54  0.0000000  0  9G16G04G09G30G27G08G07G03G26
 -18241042.41247 -13964364.58745  21653194.4614                   21653187.0474
        47.2504         34.5004
 -26078797.92847 -20289040.47746  20683455.3364                   20683449.8284
        46.2504         38.0004
 -27130602.28648 -21127083.96849  20399357.8134                   20399352.2504
        49.5004         54.0004
  -5641691.65346  -4381089.99545  24691867.7194                   24691863.0984
        38.5004         32.0004
 -15579443.05547 -12126064.44647  22213097.4774                   22213092.6884
        45.5004         45.0004
 -11586569.62446  -9010825.78646  22768882.3984                   22768878.2974
        41.5004         40.5004
 -17205879.49147 -13338984.83447  22337338.4144                   22337331.2734
        45.5004         45.5004
  25657107.65156  19985226.53954  25237597.1564                   25237593.1604
        36.0004         29.5004
  -1730787.23846  -1479014.63744  24559944.6954                   24559939.2274
        38.7504         27.5004
 20  5 22  0 54 30.0000000  0  9G16G04G09G30G27G08G07G03G26
 -18158911.76447 -13900366.70345  21668823.4304                   21668816.2584
        46.5004         34.2504
 -26031366.46547 -20252080.92746  20692481.4534                   20692476.3364
        46.5004         38.2504
 -27153037.27648 -21144565.79349  20395088.5084                   20395083.2624
        50.2504         54.0004
  -5726144.02346  -4446897.05445  24675797.0234                   24675793.0204
        38.2504         32.0004
 -15622975.04347 -12159985.48047  22204813.1414                   22204808.5864
        45.5004         45.0004
 -11674807.98047  -9079582.91246  22752091.0864                   22752088.2664
        42.0004         41.2504
 -17266452.95347 -13386184.93047  22325812.2584                   22325804.6914
        46.0004         45.2504
  25763808.94045  20068370.19143  25257901.3674                   25257896.5124
        35.5004         23.0004
  -1624978.43646  -1396566.28744  24580077.4224                   24580075.2384
        37.2504         29.7504
 20  5 22  0 55  0.0000000  0  9G16G04G09G30G27G08G07G03G26
 -18076412.63647 -13836081.70045  21684522.7664                   21684514.7034
        46.5004         34.0004
 -25983469.70847 -20214758.81346  20701596.2504                   20701590.5084
        46.2504         38.0004
 -27174970.31348 -21161656.48349  20390914.8834                   20390908.9494
        50.2504         54.0004
  -5810558.28946  -4512674.42045  24659733.5864                   24659729.4144
        37.7504         32.2504
 -15665945.81647 -12193469.20347  22196636.5314                   22196631.3594
        46.5004         45.0004
 -11762752.91147  -9148111.43146  22735355.5084                   22735352.3054
        42.5004         41.5004
 -17326904.51347 -13433290.04047  22314308.3984                   22314301.4534
        45.5004         45.5004
  25870404.04455  20151431.36154  25278184.6954                   25278181.0394
        35.5004         27.0004
  -1519121.70045  -1314080.60744  24600221.2974                   24600219.1994
        35.2504         28.2504
 20  5 22  0 55 30.0000000  0  9G16G04G09G30G27G08G07G03G26
 -17993547.36047 -13771511.37745  21700291.3134                   21700283.6134
        47.0004         33.5004
 -25935107.69947 -20177074.16046  20710798.9144                   20710793.4574
        46.2504         38.5004
 -27196399.49148 -21178354.56549  20386836.9844                   20386831.4064
        49.5004         54.0004
  -5894933.82346  -4578421.59245  24643676.2974                   24643673.5554
        37.0004         32.0004
 -15708352.69547 -12226513.54047  22188566.7734                   22188561.8954
        46.0004         45.0004
 -11850400.55047  -9216408.26747  22718677.0784                   22718673.7464
        43.0004         42.0004
 -17387232.96947 -13480299.22147  22302828.4384                   22302821.3634
        45.5004         45.5004
  25976891.21745  20234408.28344  25298447.6334                   25298445.2624
        34.0004         28.0004
  -1413218.51446  -1231558.69844  24620374.2194                   24620372.3914
        36.0004         29.5004
 20  5 22  0 56  0.0000000  0  9G16G04G09G30G27G08G07G03G26
 -17910319.30947 -13706658.35845  21716128.6644                   21716120.9144
        46.2504         34.0004
 -25886281.40947 -20139027.73746  20720090.4844                   20720084.6684
        46.5004         38.5004
 -27217323.87848 -21194659.29849  20382855.2274                   20382849.7344
        50.5004         54.0004
  -5979270.58446  -4644138.52245  24627628.0784                   24627624.3244
        37.5004         31.7504
 -15750194.00147 -12259117.16447  22180604.4534                   22180599.9184
        45.0004         45.0004
 -11937748.13247  -9284471.30446  22702055.3984                   22702051.6994
        42.5004         41.7504
 -17447438.91147 -13527212.94147  22291371.4844                   22291364.4264
        45.5004         45.7504
  26083267.32146  20317298.67144  25318691.3524                   25318688.3204
        37.7504         27.2504
  -1307271.26346  -1149002.50745  24640536.4774                   24640533.7304
        38.2504         31.5004
 20  5 22  0 56 30.0000000  0  9G16G04G09G30G27G08G07G03G26
 -17826731.08847 -13641524.69745  21732035.4534                   21732028.0004
        45.7504         33.5004
 -25836991.26347 -20100619.85546  20729470.1334                   20729464.2814
        46.2504         38.2504
 -27237741.87248 -21210569.43249  20378969.5474                   20378964.2114
        50.0004         54.0004
  -6063568.30946  -4709825.09945  24611587.5554                   24611583.3714
        38.2504         32.5004
 -15791467.41447 -12291278.24947  22172750.4304                   22172745.9774
        45.5004         45.2504
 -12024792.28347  -9352297.90846  22685490.6954                   22685488.1054
        42.5004         41.5004
 -17507521.44647 -13574030.49647  22279938.2194                   22279930.8524
        45.7504         45.7504
  26189530.19146  20400100.94145  25338915.0004                   25338911.0784
        39.7504         34.0004
  -1201281.69446  -1066413.25345  24660706.5004                   24660702.8714
        38.5004         31.7504
 20  5 22  0 57  0.0000000  0  9G16G04G09G30G27G08G07G03G26
 -17742785.90047 -13576112.87545  21748009.6644                   21748002.1764
        46.5004         33.5004
 -25787237.80647 -20061850.95746  20738937.7344                   20738931.9694
        46.5004         38.5004
 -27257652.15448 -21226083.95249  20375181.0164                   20375175.5354
        50.5004         54.0004
  -6147826.60446  -4775480.93345  24595553.6174                   24595548.9024
        39.0004         32.5004
 -15832170.84547 -12322995.20747  22165004.6644                   22165000.1914
        45.7504         45.2504
 -12111529.73747  -9419885.51547  22668985.7504                   22668981.9144
        42.0004         42.0004
 -17567480.07847 -13620751.49947  22268528.4694                   22268520.9964
        46.2504         46.0004
  26295677.40346  20462722.96654  25359112.2194                   25359109.6884
        38.0004         29.5004
  -1095251.78546   -983792.59645  24680882.6334                   24680879.9734
        38.2504         32.0004
 20  5 22  0 57 30.0000000  0  9G16G04G09G30G27G08G07G03G26
 -17658486.27647 -13510424.88645  21764051.2424                   21764043.7894
        46.0004         33.2504
 -25737021.89647 -20022721.71146  20748493.3284                   20748487.7544
        46.2504         38.2504
 -27277053.61648 -21241201.98749  20371489.0784                   20371483.8284
        50.5004         54.0004
  -6232045.40446  -4841105.98445  24579526.6414                   24579522.3444
        38.7504         32.2504
 -15872302.41347 -12354266.55747  22157367.7504                   22157363.1914
        44.7504         45.0004
 -12197958.00147  -9487232.21946  22652538.9774                   22652535.1954
        42.7504         41.5004
 -17627314.80847 -13667375.96147  22257142.3364                   22257135.2304
        46.2504         46.0004
  26401706.19845  20545343.05644  25379288.6954                   25379285.3404
        35.5004         27.0004
   -989183.61946   -901142.17845  24701066.0944                   24701063.9964
        38.0004         30.7504
 20  5 22  0 58  0.0000000  0  9G16G04G09G30G27G08G07G03G26
 -17573834.87747 -13444462.78345  21780160.2504                   21780152.4184
        46.2504         34.2504
 -25686343.68447 -19983232.22446  20758137.3594                   20758131.5124
        46.2504         38.2504
 -27295944.38048 -21255922.07349  20367893.8834                   20367888.7704
        50.0004         54.0004
  -6316224.02646  -4906699.73345  24563509.7974                   24563503.7774
        41.2504         31.7504
 -15911859.65947 -12385090.37447  22149840.8984                   22149835.9104
        44.7504         45.0004
 -12284072.97447  -9554334.77246  22636151.8754                   22636148.0904
        43.2504         41.2504
 -17687025.10747 -13713903.46547  22245779.6954                   22245772.5204
        45.7504         46.0004
  26507614.54645  20607814.85755  25399444.0314                   25399441.5234
        35.0004         33.7504
   -883078.56846   -818462.98744  24721258.0784                   24721254.3984
        39.0004         28.7504
 20  5 22  0 58 30.0000000  0  9G16G04G09G30G27G08G07G03G26
 -17488839.21447 -13378232.41845  21796334.3524                   21796326.4734
        45.7504         33.5004
 -25635208.61147 -19943386.73946  20767868.4844                   20767862.2114
        46.0004         37.7504
 -27314328.02948 -21270247.01449  20364395.7034                   20364390.5944
        50.5004         54.0004
  -6400366.94446  -4972265.68245  24547495.8594                   24547492.1884
        38.5004         31.5004
 -15950845.34847 -12415468.84847  22142421.3914                   22142416.4264
        44.7504         45.2504
 -12369876.05047  -9621194.30146  22619823.8674                   22619820.0784
        42.5004         41.2504
 -17746615.24847 -13760337.33747  22234440.2894                   22234432.7154
        46.7504         46.0004
  26613395.18755  20690241.31454  25419581.2814                   25419572.1644
        33.0004         24.0004
   -776943.48946   -735760.34744  24741454.2664                   24741450.8284
        38.2504         29.5004
 20  5 22  0 59  0.0000000  0  9G16G04G09G30G27G08G07G03G26
 -17403492.45747 -13311728.48145  21812575.1564                   21812567.5864
        45.7504         33.5004
 -25583607.58447 -19903178.17146  20777687.4534                   20777681.2034
        45.7504         38.0004
 -27332193.52248 -21284168.19149  20360996.3754                   20360991.3914
        50.2504         54.0004
  -6484464.17946  -5037796.01745  24531493.1644                   24531488.8594
        38.7504         32.2504
 -15989247.77147 -12445392.79947  22135114.1254                   22135109.8634
        45.0004         45.5004
 -12455354.69347  -9687801.03847  22603557.6174                   22603554.0474
        44.2504         42.0004
 -17806075.14047 -13806669.72647  22223125.5864                   22223118.1254
        46.2504         46.0004
  26719055.00454  20731775.36154  25439673.7584                   25439681.6254
        29.2504         25.2504
   -670770.51345   -653028.22544  24761657.2344                   24761654.4024
        35.7504         25.7504
 20  5 22  0 59 30.0000000  0  9G16G04G09G30G27G08G07G03G26
 -17317801.94647 -13244956.67745  21828881.9454                   21828874.0164
        46.0004         33.5004
 -25531545.63447 -19862610.45446  20787594.3594                   20787588.9614
        46.0004         38.0004
 -27349543.81848 -21297687.92749  20357694.3834                   20357689.1374
        49.5004         54.0004
  -6568519.71546  -5103293.87145  24515498.4144                   24515494.1054
        39.5004         32.7504
 -16027069.25247 -12474864.09047  22127916.6094                   22127912.3014
        45.5004         45.5004
 -12540509.82847  -9754155.69047  22587353.5084                   22587349.6994
        43.2504         42.5004
 -17865408.72747 -13852903.69047  22211834.5004                   22211827.4224
        47.0004         46.2504
  26824588.23145  20814008.95243  25459759.7584                   25459758.0314
        34.0004         23.7504
   -564565.84845   -570271.42844  24781866.6174                   24781865.8754
        33.5004         27.0004
 20  5 22  1  0  0.0000000  0  9G16G04G09G30G27G08G07G03G26
 -17231771.97147 -13177920.36545  21845252.3834                   21845244.7234
        46.0004         32.7504
 -25479025.01047 -19821685.31846  20797589.0394                   20797583.4534
        45.7504         37.7504
 -27366379.26548 -21310806.47149  20354491.1334                   20354485.6764
        50.5004         54.0004
  -6652534.88246  -5168760.29245  24499510.1414                   24499506.3364
        38.5004         32.5004
 -16064309.40947 -12503882.37747  22120830.2504                   22120826.0274
        45.2504         45.5004
 -12625340.19547  -9820257.27647  22571210.6954                   22571207.8244
        44.0004         42.0004
 -17924617.37047 -13899040.32347  22200567.5084                   22200559.9264
        46.2504         46.0004
  26929990.33045  20896140.52243  25479815.5634                   25479815.2464
        30.5004         22.5004
   -458332.79946   -487492.57245  24802085.0864                   24802081.7544
        36.2504         30.5004
 20  5 22  1  0 30.0000000  0  9G16G04G09G30G27G08G07G03G26
 -17145405.22247 -13110621.63345  21861687.7664                   21861679.9924
        45.5004         33.0004
 -25426046.37347 -19780403.29046  20807670.0234                   20807664.8714
        45.5004         38.5004
 -27382698.65848 -21323522.90349  20351385.4614                   20351380.2934
        50.0004         54.2504
  -6736509.27046  -5234194.88345  24483530.7894                   24483526.6564
        39.2504         31.5004
 -16100966.29547 -12532446.17447  22113854.5004                   22113850.3164
        44.7504         45.5004
 -12709842.29847  -9886103.07447  22555130.7034                   22555127.2304
        45.0004         42.2504
 -17983700.89147 -13945079.42647  22189324.1804                   22189316.6954
        46.2504         46.0004
  27035259.01645  20978168.13243  25499849.5004                   25499846.1094
        35.0004         22.7504
   -352073.42946   -404693.06643  24822305.1724                   24822301.2774
        37.0004         22.7504
 20  5 22  1  1  0.0000000  0  9G16G04G09G30G27G08G07G03G26
 -17058703.59947 -13043061.95045  21878186.5394                   21878178.7344
        45.7504         33.5004
 -25372609.67147 -19738764.33446  20817839.2734                   20817833.6604
        45.7504         38.0004
 -27398499.88248 -21335835.56049  20348378.5474                   20348373.1254
        50.2504         54.0004
  -6820441.90746  -5299596.93345  24467559.6414                   24467554.9064
        39.0004         32.0004
 -16137037.22247 -12560553.38147  22106990.8444                   22106986.0744
        45.0004         45.2504
 -12794012.36447  -9951690.14447  22539113.3834                   22539110.0784
        44.0004         42.5004
 -18042657.70047 -13991019.81247  22178105.6484                   22178097.8794
        46.2504         46.0004
  27140392.62945  21060090.22943  25519855.2034                   25519852.0164
        35.5004         22.7504
   -245788.64746   -321873.89544  24842530.4454                   24842528.3634
        37.5004         25.2504
 20  5 22  1  1 30.0000000  0  9G16G04G09G30G27G08G07G03G26
 -16971670.63647 -12975244.09345  21894748.4224                   21894740.7114
        45.5004         33.5004
 -25318715.89447 -19696769.22546  20828094.7664                   20828089.0084
        45.7504         37.2504
 -27413782.00248 -21347743.72349  20345470.4304                   20345465.1724
        50.0004         54.0004
  -6904332.75546  -5364966.45945  24451594.3524                   24451590.7854
        37.0004         33.0004
 -16172520.62447 -12588202.77647  22100238.4064                   22100233.6414
        45.0004         45.5004
 -12877847.56747 -10017016.27147  22523160.4224                   22523156.4924
        43.2504         42.2504
 -18101487.69547 -14036861.36647  22166910.2814                   22166902.7074
        46.0004         46.0004
  27245388.34346  21141905.13144  25539836.2034                   25539832.3634
        36.2504         25.0004
   -139480.68146   -239036.59043  24862759.4384                   24862757.1804
        36.0004         20.0004
 20  5 22  1  2  0.0000000  0  9G16G04G09G30G27G08G07G03G26
 -16884308.68847 -12907169.88545  21911372.4694                   21911365.3244
        45.5004         32.5004
 -25264365.50247 -19654418.30146  20838437.2664                   20838431.5124
        45.2504         38.0004
 -27428543.55148 -21359246.24449  20342661.5634                   20342655.9924
        50.0004         54.0004
  -6988181.20746  -5430302.92245  24435638.0084                   24435635.2034
        38.2504         32.7504
 -16207414.34947 -12615392.69647  22093598.4064                   22093593.5784
        45.2504         45.5004
 -12961344.26047 -10082078.61247  22507271.5944                   22507267.6524
        44.2504         42.5004
 -18160190.46047 -14082603.76647  22155739.5314                   22155732.1254
        47.0004         46.2504
  27350244.28945  21223611.10343  25559789.6884                   25559785.9264
        31.2504         20.5004
    -33150.96445   -156182.35042  24882993.5004                   24882991.4454
        35.0004         17.2504
 20  5 22  1  2 30.0000000  0  8G16G04G09G30G27G08G07G26
 -16796619.35847 -12838840.56345  21928059.2114                   21928051.6844
        45.2504         32.7504
 -25209557.62747 -19611710.89846  20848867.0704                   20848861.2544
        45.5004         38.0004
 -27442781.68848 -21370340.91049  20339951.8914                   20339946.7934
        49.5004         54.0004
  -7071985.31046  -5495604.83545  24419691.0474                   24419687.6994
        38.7504         33.0004
 -16241714.89547 -12642120.38947  22087071.4774                   22087066.2304
        45.0004         45.7504
 -13044497.81047 -10146873.59047  22491447.9224                   22491442.8984
        44.5004         42.0004
 -18218764.24247 -14128245.68347  22144593.4304                   22144585.9224
        46.0004         46.5004
     73200.20746    -73311.42443  24903232.0004                   24903230.5984
        38.0004         20.7504
 20  5 22  1  3  0.0000000  0  8G16G04G09G30G27G08G07G26
 -16708608.82047 -12770260.94845  21944806.9534                   21944799.5204
        45.5004         33.0004
 -25154296.70947 -19568650.47446  20859382.6884                   20859377.3874
        45.5004         37.5004
 -27456498.90548 -21381029.66549  20337341.6954                   20337336.3754
        49.7504         54.0004
  -7155748.37346  -5560874.74745  24403754.2034                   24403748.0434
        40.2504         34.0004
 -16275424.16347 -12668387.35547  22080656.4304                   22080651.8674
        44.7504         45.5004
 -13127308.65747 -10211401.53247  22475688.8754                   22475685.1254
        44.5004         42.5004
 -18277211.96547 -14173789.36147  22133470.7974                   22133463.5704
        46.2504         46.5004
    179567.36746      9572.09943  24923473.5394                   24923470.8404
        38.0004         19.2504
 20  5 22  1  3 30.0000000  0  8G16G04G09G30G27G08G07G26
 -16620278.56347 -12701432.20745  21961615.9304                   21961608.3914
        45.2504         32.0004
 -25098582.25447 -19525236.65146  20869984.9924                   20869979.3484
        45.7504         37.7504
 -27469692.76648 -21391310.61049  20334830.9774                   20334825.9024
        50.0004         54.0004
  -7239468.85046  -5626111.49545  24387820.8284                   24387816.5004
        39.7504         33.7504
 -16308539.02747 -12694191.13747  22074354.8984                   22074350.2274
        45.2504         45.7504
 -13209772.26847 -10275658.90347  22459997.4144                   22459992.7074
        44.7504         42.5004
 -18335531.90247 -14219233.46447  22122373.0394                   22122366.1604
        46.0004         46.5004
    285950.06646     92467.62442  24943716.4384                   24943714.0984
        36.0004         16.7504
 20  5 22  1  4  0.0000000  0  8G16G04G09G30G27G08G07G26
 -16531630.06747 -12632355.48245  21978485.0554                   21978477.3594
        45.2504         32.5004
 -25042413.63447 -19481468.92246  20880673.5554                   20880668.0394
        45.7504         37.5004
 -27482360.65248 -21401181.70849  20332420.5704                   20332414.9804
        50.2504         54.0004
  -7323144.99146  -5691313.70945  24371898.7114                   24371893.5704
        40.2504         34.0004
 -16341056.34347 -12719529.29347  22068167.1564                   22068162.6914
        45.0004         45.7504
 -13291884.52347 -10339642.46347  22444371.2504                   22444367.7234
        44.0004         42.2504
 -18393722.40047 -14264576.71747  22111300.0084                   22111292.1954
        46.5004         46.7504
    392347.96646    175374.98343  24963965.7034                   24963961.6454
        39.5004         20.0004
 20  5 22  1  4 30.0000000  0  9G16G05G04G09G30G27G08G07G26
 -16442667.28547 -12563033.86545  21995414.8834                   21995406.7304
        45.5004         32.5004
   -348832.46355   -262267.42854  25104904.8674                   25104898.2854
        35.5004         25.2504
 -24985793.14247 -19437349.08646  20891448.2114                   20891442.4774
        45.5004         37.0004
 -27494502.95648 -21410643.25749  20330110.0944                   20330104.7934
        49.7504         54.2504
  -7406777.97546  -5756482.28145  24355983.4304                   24355978.9344
        41.2504         34.0004
 -16372975.87747 -12744401.65147  22062093.0784                   22062088.3914
        45.2504         45.7504
 -13373643.46147 -10403350.73147  22428813.0634                   22428809.4574
        43.7504         42.5004
 -18451784.58747 -14309819.98447  22100250.9924                   22100243.4884
        46.2504         46.5004
    498757.70445    258291.57843  24984212.8284                   24984211.0394
        35.7504         18.5004
 20  5 22  1  5  0.0000000  0  9G16G05G04G09G30G27G08G07G26
 -16353393.68847 -12493470.06245  22012402.6804                   22012395.1914
        45.0004         32.2504
   -410598.40546   -310396.71744  25093151.2734                   25093144.2704
        36.7504         28.7504
 -24928721.87047 -19392877.99046  20902308.5944                   20902302.8834
        45.5004         37.2504
 -27506118.82748 -21419694.59749  20327899.4844                   20327894.3954
        49.7504         54.2504
  -7490367.74246  -5821617.19245  24340076.5474                   24340071.7384
        39.0004         33.2504
 -16404296.16947 -12768807.06247  22056132.6804                   22056128.3244
        45.0004         45.5004
 -13455045.95447 -10466781.23647  22413322.5394                   22413319.0234
        43.5004         42.5004
 -18509717.97847 -14354962.88247  22089226.5084                   22089219.2344
        46.5004         46.5004
    605177.33745    341215.89743  25004462.2344                   25004462.2664
        34.5004         19.2504
 20  5 22  1  5 30.0000000  0  9G16G05G04G09G30G27G08G07G26
 -16263810.12947 -12423664.72145  22029449.6414                   22029441.9964
        44.7504         33.0004
   -471917.08846   -358177.49444  25081481.7424                   25081476.0234
        36.7504         29.2504
 -24871198.63247 -19348054.72146  20913254.5084                   20913248.6764
        45.5004         37.2504
 -27517205.08848 -21428333.26149  20325789.8134                   20325784.4184
        49.5004         54.0004
  -7573911.88446  -5886716.56345  24324178.8364                   24324173.9844
        39.7504         33.5004
 -16435013.45247 -12792742.60447  22050287.1024                   22050283.0704
        44.5004         45.5004
 -13536087.21247 -10529930.26047  22397901.5234                   22397897.4964
        44.0004         42.7504
 -18567520.42347 -14400003.75347  22078226.6174                   22078219.8914
        46.0004         46.5004
    711607.03146    424148.13443  25024717.5234                   25024715.2584
        38.0004         21.5004
 20  5 22  1  6  0.0000000  0  9G16G05G04G09G30G27G08G07G26
 -16173920.06047 -12353620.53645  22046555.0164                   22046547.6884
        45.0004         32.2504
   -532787.03946   -405608.66244  25069899.5234                   25069892.9964
        36.7504         28.0004
 -24813225.07547 -19302880.54346  20924287.0164                   20924280.8914
        45.5004         37.5004
 -27527761.51448 -21436559.05849  20323780.9774                   20323775.4774
        49.5004         54.2504
  -7657410.87546  -5951780.72445  24308289.1414                   24308284.2894
        40.2504         33.0004
 -16465126.95247 -12816207.66247  22044557.6414                   22044552.7584
        45.0004         45.7504
 -13616765.08647 -10592796.11647  22382549.2034                   22382545.2854
        45.0004         43.2504
 -18625192.32347 -14444942.89747  22067252.1174                   22067245.0434
        45.7504         46.5004
    818044.40346    507086.23343  25044973.2734                   25044969.3094
        40.0004         21.5004
 20  5 22  1  6 30.0000000  0  9G16G05G04G09G30G27G08G07G26
 -16083726.63147 -12283339.97645  22063718.7584                   22063711.3134
        45.2504         32.2504
   -593206.94646   -452689.09645  25058401.4064                   25058395.4534
        38.7504         30.0004
 -24754802.54947 -19257356.53346  20935404.3284                   20935398.2934
        45.5004         37.5004
 -27537787.47048 -21444371.51449  20321873.0394                   20321868.0314
        49.2504         54.2504
  -7740864.90246  -6016809.83945  24292408.9844                   24292403.7934
        39.0004         32.0004
 -16494635.46547 -12839201.31447  22038941.4224                   22038937.5394
        45.0004         45.5004
 -13697076.56847 -10655376.49647  22367266.6564                   22367262.6684
        44.7504         43.7504
 -18682733.64947 -14489780.28547  22056302.6564                   22056295.3244
        46.0004         46.5004
    924487.17046    590028.53943  25065227.6334                   25065225.1214
        38.5004         22.0004
 20  5 22  1  7  0.0000000  0  9G16G05G04G09G30G27G08G07G26
 -15993232.92547 -12212825.44045  22080939.0314                   22080931.3134
        45.0004         32.2504
   -653174.91846   -499417.41645  25046991.0004                   25046984.2934
        38.0004         30.5004
 -24695931.84247 -19211483.27746  20946606.8674                   20946601.2504
        45.5004         37.0004
 -27547281.80448 -21451769.70649  20320066.3834                   20320061.2194
        49.0004         54.2504
  -7824273.51046  -6081803.56445  24276536.1884                   24276531.7424
        38.5004         33.0004
 -16523537.24847 -12861722.18847  22033442.0234                   22033437.5164
        45.0004         46.0004
 -13777018.93547 -10717669.23647  22352053.8984                   22352049.5084
        45.2504         43.5004
 -18740143.67747 -14534515.37247  22045378.0634                   22045370.5314
        46.0004         46.7504
   1030933.61645    672973.84043  25085480.9144                   25085481.2934
        33.7504         19.0004
 20  5 22  1  7 30.0000000  0  9G16G05G04G09G30G27G08G07G26
 -15902441.50747 -12142078.91545  22098216.0084                   22098208.2624
        45.0004         32.0004
   -712689.19946   -545792.16945  25035664.8914                   25035658.6914
        37.7504         30.5004
 -24636614.03047 -19165261.63346  20957894.1414                   20957889.1914
        45.5004         37.5004
 -27556243.66248 -21458752.99449  20318361.1884                   20318355.8204
        48.5004         54.0004
  -7907636.45546  -6146761.72245  24260672.9304                   24260668.8484
        39.5004         33.0004
 -16551830.92447 -12883769.21447  22028057.7584                   22028053.5354
        45.0004         46.0004
 -13856588.66347 -10779671.61547  22336912.0084                   22336908.2854
        45.0004         43.5004
 -18797422.28847 -14579148.05647  22034478.0234                   22034470.5984
        46.0004         46.7504
   1137381.98445    755920.53242  25105738.5944                   25105737.9184
        34.0004         16.7504
 20  5 22  1  8  0.0000000  0  9G16G05G04G09G30G27G08G07G26
 -15811355.23947 -12071102.62545  22115549.5004                   22115541.5164
        44.7504         32.5004
   -771747.87046   -591811.95345  25024426.5704                   25024420.0474
        38.0004         31.7504
 -24576850.02647 -19118692.31746  20969267.1174                   20969262.0004
        45.5004         37.0004
 -27564671.98848 -21465320.53949  20316757.2194                   20316752.0944
        49.0004         54.0004
  -7990953.38946  -6211684.01345  24244818.2504                   24244814.0234
        40.2504         34.0004
 -16579514.89747 -12905341.14247  22022789.7274                   22022785.2154
        45.5004         46.0004
 -13935783.05447 -10841381.52647  22321841.2974                   22321838.0664
        45.0004         43.2504
 -18854569.20047 -14623678.12047  22023603.4304                   22023596.2464
        46.2504         47.0004
   1243830.51146    809783.41153  25125995.1644                   25125992.2974
        36.0004         19.5004
 20  5 22  1  8 30.0000000  0  9G16G05G04G09G30G27G08G07G26
 -15719976.78247 -11999898.66445  22132938.2034                   22132930.5864
        45.2504         31.0004
   -830348.92446   -637475.11445  25013275.3674                   25013269.1414
        38.7504         31.7504
 -24516640.62747 -19071775.92946  20980724.7814                   20980719.3524
        45.7504         37.0004
 -27572565.69648 -21471471.49249  20315255.2034                   20315249.9534
        49.5004         54.0004
  -8074223.92846  -6276570.15445  24228972.3914                   24228968.2074
        40.5004         34.5004
 -16606587.54947 -12926436.71547  22017638.0634                   22017633.7344
        45.5004         46.0004
 -14014598.88247 -10902796.44247  22306843.5944                   22306839.9574
        45.0004         43.5004
 -18911583.75347 -14668105.04147  22012754.1414                   22012746.8754
        46.2504         47.0004
   1350277.66046    892729.24942  25146251.3054                   25146249.2854
        36.5004         17.2504
 20  5 22  1  9  0.0000000  0  9G16G05G04G09G30G27G08G07G26
 -15628309.24947 -11928469.44645  22150381.7194                   22150374.5634
        45.0004         31.5004
   -888490.63946   -682780.35345  25002211.3594                   25002204.5744
        38.7504         30.7504
 -24455986.92547 -19024513.32146  20992267.3914                   20992261.5084
        45.7504         37.2504
 -27579923.95648 -21477205.22349  20313854.7344                   20313849.7304
        49.5004         54.0004
  -8157447.81746  -6341419.96345  24213135.1564                   24213131.3244
        40.5004         35.5004
 -16633047.50347 -12947054.86647  22012603.2344                   22012598.5124
        45.5004         46.0004
 -14093033.39247 -10963914.23747  22291917.3134                   22291914.4344
        45.0004         43.5004
 -18968465.32347 -14712428.34147  22001929.9224                   22001922.6644
        46.7504         47.2504
   1456721.477 6                  25166507.578
        38.250
 20  5 22  1  9 30.0000000  0  9G16G05G04G09G30G27G08G07G26
 -15536354.99747 -11856816.81945  22167880.2814                   22167872.4264
        44.5004         31.5004
   -946170.85446   -727725.99145  24991235.4774                   24991229.0474
        37.5004         30.0004
 -24394889.64847 -18976905.09146  21003893.0554                   21003887.7194
        45.5004         36.7504
 -27586745.52048 -21482520.73949  20312556.7664                   20312551.6684
        49.5004         54.0004
  -8240624.44046  -6406232.90745  24197307.7664                   24197303.7154
        39.7504         34.7504
 -16658893.03047 -12967194.24147  22007684.7974                   22007680.1454
        45.0004         46.0004
 -14171083.18947 -11024732.24847  22277065.7194                   22277062.2274
        45.0004         43.7504
 -19025213.56547 -14756647.75647  21991131.0864                   21991123.5554
        46.5004         47.2504
   1563160.69746   1031019.03653  25186763.8834                   25186760.1174
        40.7504         19.0004
 20  5 22  1 10  0.0000000  0  9G16G05G04G09G30G27G08G07G26
 -15444117.95747 -11784943.82845  22185432.3444                   22185424.7584
        44.7504         31.7504
  -1003388.74946   -772311.41445  24980347.3524                   24980340.4694
        38.2504         31.0004
 -24333351.20047 -18928953.08546  21015604.1254                   21015598.2974
        45.7504         37.2504
 -27593030.91748 -21487418.47449  20311361.0704                   20311355.4964
        49.2504         54.0004
  -8323754.94146  -6471009.92545  24181487.8754                   24181484.3054
        39.5004         34.2504
 -16684124.14847 -12986854.85347  22002883.3594                   22002878.7854
        45.5004         46.0004
 -14248746.22747 -11085248.89547  22262286.8054                   22262283.1684
        44.7504         44.0004
 -19081829.58247 -14800764.13547  21980357.4064                   21980349.8834
        46.2504         47.2504
  23725474.24856  18274253.73954  25207017.1564                   25207014.4224
        40.5004         24.2504
 20  5 22  1 10 30.0000000  0  9G16G05G04G09G30G27G08G07G26
 -15351598.88147 -11712851.07645  22203037.9384                   22203030.4414
        44.5004         30.5004
  -1060140.78746   -816533.82145  24969547.1954                   24969541.1334
        37.5004         30.7504
 -24271369.74347 -18880655.87046  21027398.1804                   21027393.0434
        45.5004         36.5004
 -27598776.37148 -21491895.47049  20310267.4694                   20310262.1914
        48.5004         54.0004
  -8406836.06146  -6535748.46345  24165677.3444                   24165674.9264
        38.5004         34.0004
 -16708736.56447 -13006033.36847  21998199.8984                   21998195.4494
        45.2504         46.0004
 -14326017.11447 -11145459.97247  22247582.5474                   22247579.3324
        45.2504         43.7504
 -19138309.90647 -14844774.76947  21969609.4384                   21969602.2814
        46.2504         47.0004
  23831899.12346  18357182.26543  25227268.6644                   25227266.2194
        39.0004         18.5004
 20  5 22  1 11  0.0000000  0  9G16G05G04G09G30G27G08G07G26
 -15258801.11047 -11640541.15945  22220697.0234                   22220689.5784
        44.5004         31.2504
  -1116426.13246   -860392.54945  24958836.3284                   24958830.6334
        37.5004         30.2504
 -24208947.67847 -18832015.33546  21039277.1954                   21039272.0164
        45.7504         36.7504
 -27603982.33948 -21495952.08349  20309276.7504                   20309271.5084
        48.5004         54.0004
  -8489868.78146  -6600449.27045  24149877.8674                   24149873.8524
        40.0004         33.7504
 -16732730.26547 -13024729.76647  21993633.7504                   21993629.8484
        45.7504         46.0004
 -14402894.27747 -11205364.23647  22232953.3594                   22232950.0314
        44.7504         44.0004
 -19194655.11747 -14888680.12847  21958887.4614                   21958880.1094
        46.5004         47.5004
  23938314.45546  18440103.23143  25247517.6334                   25247515.7624
        37.0004         18.5004
 20  5 22  1 11 30.0000000  0  9G16G05G04G09G30G27G08G07G26
 -15165728.99747 -11568017.46745  22238407.8364                   22238400.3204
        44.5004         31.0004
  -1172243.97946   -903886.97045  24948215.9614                   24948209.0824
        38.2504         30.0004
 -24146087.00247 -18783033.01046  21051239.3524                   21051233.5824
        45.7504         37.2504
 -27608648.96348 -21499588.43049  20308388.8754                   20308383.3594
        48.5004         54.0004
  -8572853.84646  -6665112.98045  24134085.3524                   24134082.3754
        38.2504         33.5004
 -16756104.90547 -13042943.76747  21989186.1174                   21989181.3714
        45.2504         46.5004
 -14479375.34647 -11264959.87247  22218399.5004                   22218395.7774
        45.2504         44.0004
 -19250865.92347 -14932480.75647  21948191.1174                   21948183.4964
        46.2504         47.2504
  24044717.548 5                  25267766.320
        30.500
 20  5 22  1 12  0.0000000  0  8G16G05G04G09G30G27G08G07
 -15072383.23647 -11495280.54345  22256171.2974                   22256163.5044
        44.5004         30.0004
  -1227589.99746   -947013.77245  24937683.5004                   24937676.4774
        38.2504         30.0004
 -24082786.64947 -18733708.09146  21063284.8524                   21063279.3714
        45.7504         36.7504
 -27612773.25548 -21502802.18649  20307603.9064                   20307598.4304
        48.5004         54.0004
  -8655788.74746  -6729737.58345  24118304.2584                   24118299.8484
        39.5004         33.5004
 -16778857.10047 -13060672.75847  21984856.5234                   21984851.6884
        45.7504         46.0004
 -14555455.63047 -11324243.20647  22203922.1254                   22203918.2734
        46.0004         44.0004
 -19306940.01647 -14976174.85247  21937520.2194                   21937512.7934
        46.2504         47.0004
 20  5 22  1 12 30.0000000  0  8G16G05G04G09G30G27G08G07
 -14978768.58047 -11422334.08545  22273985.1094                   22273977.8634
        44.5004         31.0004
  -1282465.96546   -989774.29845  24927239.8834                   24927233.8984
        37.2504         30.2504
 -24019050.31647 -18684043.43946  21075413.7664                   21075407.3554
        45.7504         37.0004
 -27616356.94248 -21505594.68649  20306922.0474                   20306917.0704
        48.5004         54.2504
  -8738675.71146  -6794324.83345  24102531.7894                   24102527.2584
        39.7504         34.0004
 -16800988.07147 -13077917.66847  21980644.8834                   21980640.5904
        46.0004         46.0004
 -14631134.82047 -11383213.99747  22189521.2584                   22189516.6134
        46.2504         44.5004
 -19362879.14747 -15019763.79647  21926875.1334                   21926867.8094
        47.0004         47.0004
 20  5 22  1 13  0.0000000  0  8G16G05G04G09G30G27G08G07
 -14884887.36147 -11349179.92145  22291850.1884                   22291843.0664
        44.5004         31.2504
  -1336868.35446  -1032165.77745  24916887.6884                   24916882.1454
        37.7504         30.0004
 -23954878.13547 -18634039.16246  21087624.9614                   21087619.1374
        45.7504         36.7504
 -27619398.33848 -21507964.61549  20306343.4924                   20306337.7664
        48.5004         54.2504
  -8821513.41046  -6858873.71945  24086768.1884                   24086763.8484
        39.5004         34.0004
 -16822495.64347 -13094676.82847  21976551.8444                   21976547.2304
        46.2504         46.0004
 -14706408.61547 -11441868.90747  22175196.4924                   22175192.6564
        46.0004         44.5004
 -19418682.55647 -15063246.97247  21916256.0394                   21916248.8324
        46.7504         47.0004
 20  5 22  1 13 30.0000000  0  8G16G05G04G09G30G27G08G07
 -14790742.08547 -11275819.98845  22309765.4924                   22309758.2154
        44.2504         30.5004
  -1390795.51746  -1074186.94145  24906625.9694                   24906619.9024
        37.7504         31.0004
 -23890271.17347 -18583696.10046  21099919.1724                   21099913.7624
        45.7504         36.0004
 -27621896.58348 -21509911.31849  20305867.7034                   20305862.6484
        48.2504         54.0004
  -8904301.47746  -6923383.92045  24071014.2194                   24071010.1914
        39.5004         35.2504
 -16843378.51647 -13110949.19947  21972578.5004                   21972573.8404
        45.7504         46.0004
 -14781274.36847 -11500205.85647  22160949.6804                   22160946.6724
        45.7504         44.5004
 -19474349.08447 -15106623.49347  21905663.4224                   21905655.5204
        47.0004         47.0004
 20  5 22  1 14  0.0000000  0  8G16G05G04G09G30G27G08G07
 -14696334.77547 -11202255.89545  22327731.0234                   22327723.2234
        45.0004         30.5004
  -1444245.90346  -1115836.61644  24896454.9144                   24896448.5824
        37.2504         29.2504
 -23825229.68147 -18533014.44146  21112296.7274                   21112290.8554
        46.0004         36.0004
 -27623850.02348 -21511433.49749  20305495.9144                   20305490.9064
        48.2504         54.0004
  -8987038.72946  -6987854.50445  24055269.3594                   24055265.7774
        39.7504         35.5004
 -16863634.66347 -13126733.21547  21968723.8674                   21968719.0554
        46.7504         46.0004
 -14855727.95447 -11558221.63347  22146781.9924                   22146778.1024
        45.7504         44.5004
 -19529877.37047 -15149892.29247  21895096.9144                   21895089.3954
        47.0004         47.2504
 20  5 22  1 14 30.0000000  0  8G16G05G04G09G30G27G08G07
 -14601668.93547 -11128490.33445  22345744.9694                   22345737.5664
        44.5004         30.5004
  -1497218.02246  -1157113.55744  24886374.6334                   24886368.1994
        36.0004         28.5004
 -23759755.50747 -18481995.62546  21124755.4844                   21124750.0474
        45.7504         36.0004
 -27625258.64948 -21512531.14249  20305228.1414                   20305223.1994
        48.2504         54.0004
  -9069725.48346  -7052285.75645  24039533.8754                   24039531.1254
        39.2504         35.7504
 -16883263.66447 -13142028.54347  21964988.3284                   21964984.1414
        47.0004         46.0004
 -14929767.63547 -11615914.89547  22132692.2894                   22132688.6414
        45.7504         44.2504
 -19585267.98347 -15193053.81747  21884556.3834                   21884548.8674
        46.5004         47.2504
 20  5 22  1 15  0.0000000  0  8G16G05G04G09G30G27G08G07
 -14506747.20147 -11054525.37645  22363808.3834                   22363801.1334
        44.5004         30.5004
  -1549709.67946  -1198016.14844  24876385.0554                   24876378.8484
        37.5004         28.7504
 -23693849.68047 -18430640.46446  21137297.3444                   21137291.7704
        46.5004         36.5004
 -27626121.57448 -21513203.57349  20305063.9144                   20305058.7074
        48.2504         54.2504
  -9152361.23446  -7116677.24546  24023809.1024                   24023805.9184
        39.5004         36.0004
 -16902264.14447 -13156834.11147  21961372.8674                   21961367.9454
        47.0004         46.0004
 -15003389.90647 -11673282.90947  22118682.8284                   22118679.0354
        45.5004         44.5004
 -19640520.21347 -15236107.50547  21874042.0864                   21874034.4614
        46.5004         47.2504
 20  5 22  1 15 30.0000000  0  8G16G05G04G09G30G27G08G07
 -14411571.81847 -10980362.75645  22381919.4224                   22381912.4224
        43.7504         30.7504
  -1601719.52846  -1238543.28444  24866487.5704                   24866481.9264
        36.2504         27.5004
 -23627512.98647 -18378949.55846  21149920.4304                   21149915.0204
        45.5004         36.5004
 -27626437.77448 -21513449.97849  20305003.9304                   20304998.5314
        48.2504         54.2504
  -9234945.29446  -7181028.45145  24008093.6024                   24008090.5394
        39.7504         35.2504
 -16920634.72547 -13171148.86047  21957877.2734                   21957872.2704
        47.0004         46.0004
 -15076591.77447 -11730323.31947  22104752.9144                   22104749.2974
        45.2504         44.5004
 -19695633.45147 -15279052.88247  21863554.5314                   21863547.0664
        46.7504         47.5004
 20  5 22  1 16  0.0000000  0  8G16G05G04G09G30G27G08G07
 -14316146.17447 -10906005.15245  22400078.3204                   22400070.8014
        44.0004         30.5004
  -1653246.56746  -1278694.22944  24856683.3054                   24856676.2854
        39.0004         28.0004
 -23560747.17847 -18326924.27846  21162625.7504                   21162620.5824
        45.7504         36.5004
 -27626207.03148 -21513270.19349  20305047.7504                   20305042.5124
        48.5004         54.0004
  -9317477.81946  -7245339.51045  23992389.1094                   23992384.8754
        39.7504         35.0004
 -16938374.77047 -13184972.27747  21954501.5474                   21954496.8054
        47.0004         46.2504
 -15149370.72447 -11787034.20647  22090903.8984                   22090900.2034
        45.7504         44.7504
 -19750607.27247 -15321889.62747  21853093.1414                   21853085.7194
        46.5004         47.2504
 20  5 22  1 16 30.0000000  0  8G16G05G04G09G30G27G08G07
 -14220472.67447 -10831454.40945  22418284.8284                   22418277.5704
        44.0004         30.5004
  -1704288.50546  -1318467.16744  24846970.1564                   24846963.8714
        37.5004         28.2504
 -23493553.21747 -18274565.37046  21175412.4144                   21175406.8484
        45.5004         36.5004
 -27625428.52648 -21512663.58049  20305195.8524                   20305190.9574
        48.5004         54.2504
  -9399958.22746  -7309609.97245  23976693.6804                   23976689.5434
        39.5004         35.5004
 -16955483.06947 -13198303.42647  21951245.5944                   21951241.1054
        46.5004         46.2504
 -15221723.99547 -11843413.38447  22077135.2664                   22077131.9574
        45.2504         45.0004
 -19805441.01847 -15364617.22247  21842658.1884                   21842651.5474
        46.5004         47.2504
 20  5 22  1 17  0.0000000  0  8G16G05G04G09G30G27G08G07
 -14124554.91547 -10756713.34045  22436537.3134                   22436529.9454
        44.0004         30.5004
  -1754844.49946  -1357861.45544  24837349.3914                   24837343.0044
        37.7504         28.7504
 -23425932.88447 -18221874.23046  21188280.5314                   21188274.5164
        46.0004         36.0004
 -27624102.14448 -21511630.05149  20305448.5084                   20305443.2504
        48.2504         54.2504
  -9482386.73646  -7373839.98445  23961008.3284                   23961004.0204
        39.5004         35.5004
 -16971959.19147 -13211141.96447  21948110.5004                   21948106.0634
        47.5004         46.5004
 -15293648.91647 -11899458.77447  22063448.6884                   22063444.8244
        45.5004         45.5004
 -19860135.05747 -15407235.94847  21832250.9694                   21832243.5434
        46.2504         47.5004
 20  5 22  1 17 30.0000000  0  8G16G05G04G09G30G27G08G07
 -14028394.56147 -10681783.23045  22454835.8444                   22454828.5354
        44.0004         30.0004
  -1804912.61646  -1396875.60744  24827821.6254                   24827815.6134
        37.5004         28.5004
 -23357886.75247 -18168851.29446  21201228.8284                   21201223.4104
        45.7504         36.2504
 -27622226.57748 -21510168.59049  20305805.1954                   20305800.3404
        48.5004         54.2504
  -9564762.23546  -7438028.69345  23945332.4844                   23945328.0634
        40.0004         35.5004
 -16987801.41147 -13223486.55347  21945095.6954                   21945090.9144
        46.7504         46.5004
 -15365142.33947 -11955167.93947  22049843.1804                   22049840.3954
        46.0004         45.5004
 -19914687.96447 -15449744.71547  21821869.4774                   21821862.2704
        46.5004         47.7504
 20  5 22  1 18  0.0000000  0  8G16G05G04G09G30G27G08G07
 -13931994.58647 -10606666.39045  22473180.1884                   22473172.3244
        43.7504         30.2504
  -1854490.96146  -1435508.05744  24818388.1804                   24818381.0594
        38.5004         28.7504
 -23289415.97647 -18115497.46446  21214258.1644                   21214252.4924
        46.0004         36.0004
 -27619801.17348 -21508278.68049  20306266.8204                   20306261.7774
        48.5004         54.0004
  -9647084.31746  -7502175.77845  23929666.9924                   23929662.7074
        39.5004         34.7504
 -17003008.71747 -13235336.41147  21942201.7114                   21942196.9964
        46.5004         46.2504
 -15436201.00047 -12010538.33147  22036321.5084                   22036318.0394
        45.2504         45.5004
 -19969099.22847 -15492143.10747  21811515.3674                   21811508.5904
        46.5004         47.7504
 20  5 22  1 18 30.0000000  0  8G16G05G04G09G30G27G08G07
 -13835357.59547 -10531364.87144  22491569.9454                   22491562.0004
        44.0004         29.5004
  -1903578.58646  -1473758.20644  24809046.7274                   24809040.0124
        39.0004         29.7504
 -23220522.02047 -18061813.88846  21227368.5784                   21227362.5944
        45.7504         36.0004
 -27616825.53148 -21505960.02049  20306832.8914                   20306827.8524
        48.0004         54.0004
  -9729352.82646  -7566281.11845  23914011.6254                   23914007.4184
        39.7504         35.5004
 -17017580.34347 -13246690.92647  21939429.0164                   21939424.4304
        47.0004         46.5004
 -15506822.71247 -12065568.25947  22022882.6174                   22022879.1294
        45.0004         45.2504
 -20023368.58247 -15534430.91448  21801188.5314                   21801181.0434
        47.0004         48.0004
 20  5 22  1 19  0.0000000  0  8G16G05G04G09G30G27G08G07
 -13738486.54547 -10455880.96444  22510003.8984                   22509996.3244
        43.7504         29.0004
  -1952173.95646  -1511624.75344  24799798.4844                   24799792.9734
        37.7504         29.5004
 -23151206.13347 -18007801.53446  21240558.6954                   21240553.0354
        45.7504         36.0004
 -27613299.04448 -21503212.12549  20307503.8524                   20307498.5904
        48.0004         54.0004
  -9811567.34146  -7630344.37945  23898367.0234                   23898362.6414
        39.7504         35.2504
 -17031515.40147 -13257549.41347  21936777.0394                   21936772.4574
        47.0004         46.2504
 -15577004.23247 -12120255.16647  22009527.5084                   22009523.8634
        44.7504         45.0004
 -20077495.71347 -15576607.90147  21790888.6484                   21790881.2624
        46.5004         47.7504
 20  5 22  1 19 30.0000000  0  8G16G05G04G09G30G27G08G07
 -13641383.87347 -10380216.59544  22528482.3284                   22528474.2384
        44.0004         29.2504
  -2000275.28946  -1549106.32044  24790645.9144                   24790639.4494
        39.7504         29.5004
 -23081469.31547 -17953461.17846  21253829.4694                   21253824.0824
        46.2504         36.2504
 -27609220.89148 -21500034.36449  20308280.1414                   20308275.2384
        48.2504         54.0004
  -9893727.16146  -7694365.04145  23882732.3674                   23882728.2344
        39.5004         35.5004
 -17044812.72747 -13267910.97247  21934246.7344                   21934242.2154
        46.5004         46.5004
 -15646742.69947 -12174596.83347  21996256.9064                   21996253.3164
        45.0004         45.2504
 -20131479.49547 -15618673.18647  21780615.7504                   21780608.0554
        46.7504         47.5004
 20  5 22  1 20  0.0000000  0  8G16G05G04G09G30G27G08G07
 -13544052.41447 -10304373.91144  22547003.3204                   22546995.9064
        43.5004         29.5004
  -2047880.98746  -1586201.72544  24781587.4304                   24781580.6024
        39.2504         29.7504
 -23011312.87847 -17898793.85446  21267179.6174                   21267174.4774
        45.5004         36.2504
 -27604590.57648 -21496426.33849  20309161.1414                   20309156.0434
        48.2504         54.0004
  -9975831.91746  -7758342.77145  23867107.7274                   23867103.9144
        39.0004         35.7504
 -17057471.45747 -13277774.92647  21931837.6804                   21931833.1564
        46.5004         46.5004
 -15716035.67247 -12228591.36847  21983070.8134                   21983066.9734
        45.0004         45.2504
 -20185319.66647 -15660626.57947  21770370.1254                   21770362.6604
        46.7504         47.5004
 20  5 22  1 20 30.0000000  0  8G16G05G04G09G30G27G08G07
 -13446494.60947 -10228354.88544  22565568.0234                   22565560.3634
        43.5004         29.0004
  -2094989.56246  -1622909.71844  24772623.1254                   24772615.9734
        39.5004         29.5004
 -22940738.20347 -17843800.63146  21280609.4064                   21280604.2274
        45.5004         36.0004
 -27599407.68448 -21492387.73749  20310147.5864                   20310142.4694
        48.2504         54.0004
 -10057881.35046  -7822277.38646  23851493.8134                   23851491.1334
        39.5004         36.0004
 -17069490.90347 -13287140.73747  21929550.8914                   21929546.4024
        46.7504         46.5004
 -15784880.33047 -12282236.56247  21969970.3594                   21969966.4694
        45.2504         45.5004
 -20239015.40647 -15702467.41547  21760152.2114                   21760145.2194
        46.5004         47.7504
 20  5 22  1 21  0.0000000  0  8G16G05G04G09G30G27G08G07
 -13348713.56847 -10152161.91544  22584175.0314                   22584167.7934
        43.5004         29.5004
  -2141600.28346  -1659229.80645  24763753.1254                   24763746.4494
        40.0004         30.5004
 -22869746.93447 -17788482.78746  21294119.2734                   21294113.4064
        46.0004         36.0004
 -27593671.98148 -21487918.37949  20311238.5234                   20311233.9654
        49.0004         54.0004
 -10139875.31846  -7886168.78046  23835892.0864                   23835887.7814
        39.5004         36.5004
 -17080870.52247 -13296007.97947  21927385.4384                   21927380.7504
        46.2504         46.7504
 -15853273.79147 -12335530.18247  21956955.6804                   21956951.6454
        45.5004         45.7504
 -20292566.64047 -15744195.67547  21749961.8914                   21749954.5634
        46.5004         47.7504
 20  5 22  1 21 30.0000000  0  8G16G05G04G09G30G27G08G07
 -13250711.67547 -10075796.84144  22602824.4844                   22602817.1214
        43.5004         29.0004
  -2187711.20346  -1695160.41745  24754978.0554                   24754971.3914
        40.0004         30.5004
 -22798339.88647 -17732840.97546  21307707.1414                   21307701.7894
        46.0004         36.0004
 -27587382.51648 -21483017.51349  20312436.0864                   20312430.5004
        49.0004         54.0004
 -10221812.93346  -7950016.26246  23820299.8834                   23820295.7154
        40.2504         36.5004
 -17091609.05447 -13304375.66747  21925342.0164                   21925337.5354
        46.0004         46.5004
 -15921213.14247 -12388469.95247  21944026.9224                   21944023.3874
        46.0004         45.7504
 -20345972.20247 -15785810.38548  21739798.7344                   21739791.6414
        46.5004         48.0004
 20  5 22  1 22  0.0000000  0  8G16G05G04G09G30G27G08G07
 -13152491.89547  -9999261.99244  22621514.7584                   22621507.3054
        43.5004         28.7504
  -2233321.52746  -1730700.97645  24746298.5314                   24746292.4454
        39.5004         31.0004
 -22726518.90747 -17676876.60745  21321374.5084                   21321368.8164
        46.5004         35.7504
 -27580539.33048 -21477685.17649  20313738.0554                   20313732.8404
        49.0004         54.0004
 -10303694.24046  -8013819.88646  23804718.1094                   23804713.7734
        40.2504         36.5004
 -17101706.27347 -13312243.64247  21923420.2894                   21923415.7734
        46.5004         46.5004
 -15988696.20647 -12441054.16547  21931185.1094                   21931181.3914
        45.2504         46.0004
 -20399232.38147 -15827311.82348  21729664.0474                   21729656.7464
        46.5004         48.0004
 20  5 22  1 22 30.0000000  0  8G16G05G04G09G30G27G08G07
 -13054056.34747  -9922558.99444  22640246.5474                   22640239.0354
        43.2504         29.7504
  -2278429.42346  -1765849.99145  24737714.9144                   24737708.7034
        38.7504         31.5004
 -22654284.80147 -17620590.31646  21335120.2974                   21335114.4884
        46.0004         36.0004
 -27573141.42748 -21471920.59349  20315145.8914                   20315140.6134
        48.7504         54.0004
 -10385518.31846  -8077578.91246  23789147.7894                   23789143.5394
        39.7504         36.7504
 -17111160.87547 -13319610.87347  21921621.2274                   21921616.5904
        46.0004         46.5004
 -16055719.53847 -12493280.14347  21918431.6254                   21918427.9384
        45.5004         46.2504
 -20452345.81947 -15868698.91847  21719557.0084                   21719549.3524
        47.0004         47.7504
 20  5 22  1 23  0.0000000  0  8G16G05G04G09G30G27G08G07
 -12955408.31547  -9845690.42644  22659018.7034                   22659011.2894
        43.2504         29.5004
  -2323033.62146  -1800606.54645  24729226.6884                   24729221.2544
        39.2504         31.5004
 -22581639.51347 -17563983.61945  21348944.4614                   21348938.6724
        46.2504         35.7504
 -27565188.97448 -21465723.89649  20316659.2274                   20316653.9844
        48.5004         54.0004
 -10467285.26446  -8141293.43246  23773588.3364                   23773584.0704
        41.0004         37.0004
 -17119972.80647 -13326477.31947  21919944.0554                   21919939.7114
        46.2504         46.7504
 -16122281.17847 -12545146.35947  21905764.8594                   21905761.3404
        44.7504         46.2504
 -20505312.55947 -15909971.70548  21709477.5864                   21709470.3244
        46.2504         48.0004
 20  5 22  1 23 30.0000000  0  8G16G05G04G09G30G27G08G07
 -12856550.05047  -9768658.05144  22677830.6564                   22677823.1844
        43.5004         28.5004
  -2367132.87346  -1834969.58245  24720835.0704                   24720829.6134
        38.5004         32.0004
 -22508584.07247 -17507057.33045  21362846.4144                   21362840.5514
        46.0004         35.5004
 -27556681.21248 -21459094.48649  20318278.1954                   20318273.2584
        48.7504         54.0004
 -10548994.27446  -8204962.78546  23758039.3524                   23758035.3324
        41.0004         36.7504
 -17128141.01047 -13332842.16547  21918389.5784                   21918385.4064
        46.2504         46.7504
 -16188377.84347 -12596650.24547  21893187.3834                   21893184.1094
        45.5004         46.2504
 -20558131.68247 -15951129.47048  21699426.3134                   21699419.2154
        47.0004         48.2504
 20  5 22  1 24  0.0000000  0  8G16G05G04G09G30G27G08G07
 -12757484.05147  -9691463.80544  22696682.9224                   22696674.9184
        43.5004         28.2504
  -2410725.72346  -1868938.05545  24712540.8444                   24712533.7154
        38.5004         32.2504
 -22435119.67447 -17449812.37246  21376825.6954                   21376820.4344
        46.0004         36.0004
 -27547617.57548 -21452031.92249  20320003.2424                   20319997.6994
        48.2504         54.0004
 -10630644.86346  -8268586.61446  23742501.8754                   23742497.8204
        40.2504         36.2504
 -17135664.69147 -13338704.77247  21916958.0944                   21916953.6174
        45.5004         46.5004
 -16254007.30447 -12647790.08747  21880698.1884                   21880695.0084
        44.7504         46.2504
 -20610802.26747 -15992171.48848  21689403.5634                   21689395.8014
        46.7504         48.2504
 20  5 22  1 24 30.0000000  0  8G16G05G04G09G30G27G08G07
 -12658212.60047  -9614109.45544  22715572.9694                   22715565.6524
        43.2504         29.5004
  -2453810.67646  -1902510.76445  24704340.8444                   24704335.2074
        39.0004         32.7504
 -22361247.68047 -17392249.81545  21390883.3914                   21390877.6054
        45.7504         35.2504
 -27537997.67048 -21444535.90849  20321833.7814                   20321828.5984
        49.0004         54.0004
 -10712236.42646  -8332164.45846  23726975.4694                   23726971.4844
        40.2504         36.7504
 -17142543.21647 -13344064.66947  21915649.7344                   21915645.0904
        46.0004         46.5004
 -16319166.14547 -12698563.20847  21868299.2504                   21868295.4534
        44.7504         46.2504
 -20663323.83947 -16033097.38848  21679409.3754                   21679401.8094
        47.0004         48.0004
 20  5 22  1 25  0.0000000  0  8G16G05G04G09G30G27G08G07
 -12558738.63447  -9536597.31044  22734501.9224                   22734495.0634
        42.7504         28.2504
  -2496386.69846  -1935686.89545  24696238.6254                   24696233.5274
        39.0004         33.2504
 -22286969.65847 -17334370.87145  21405017.8594                   21405012.8634
        45.7504         35.2504
 -27527821.29548 -21436606.28449  20323770.2814                   20323764.8634
        48.5004         54.0004
 -10793768.68046  -8395696.08046  23711459.9614                   23711455.9384
        40.7504         36.0004
 -17148776.15447 -13348921.50047  21914463.1484                   21914458.3244
        46.0004         46.5004
 -16383852.20847 -12748967.92747  21855989.8204                   21855986.0124
        45.2504         46.2504
 -20715695.85547 -16073906.75448  21669442.9924                   21669435.6484
        46.7504         48.2504
 20  5 22  1 25 30.0000000  0  8G16G05G04G09G30G27G08G07
 -12459065.97447  -9458930.33744  22753470.1334                   22753462.5554
        43.2504         28.0004
  -2538453.30846  -1968466.05445  24688234.6954                   24688228.3834
        39.5004         33.5004
 -22212287.72747 -17276177.19346  21419229.3444                   21419223.9574
        45.7504         36.0004
 -27517088.84048 -21428243.35249  20325812.3594                   20325807.2304
        48.2504         54.0004
 -10875241.91446  -8459181.72246  23695956.3134                   23695951.7544
        40.7504         36.0004
 -17154363.66447 -13353275.41047  21913399.7664                   21913395.3634
        45.2504         46.5004
 -16448063.58947 -12799002.76047  21843770.9304                   21843766.9024
        45.2504         46.5004
 -20767918.43647 -16114599.67448  21659505.3524                   21659497.7974
        47.0004         48.0004
 20  5 22  1 26  0.0000000  0  8G16G05G04G09G30G27G08G07
 -12359195.88947  -9381109.54644  22772473.9304                   22772467.0394
        43.7504         29.5004
  -2580007.99946  -2000846.35245  24680326.3444                   24680320.7934
        39.0004         33.2504
 -22137202.21947 -17217669.04245  21433517.7344                   21433512.2114
        46.0004         35.0004
 -27505798.90448 -21419446.01249  20327960.7424                   20327955.7304
        48.2504         54.0004
 -10956654.52746  -8522620.12146  23680463.8284                   23680459.6254
        40.2504         37.0004
 -17159304.12347 -13357125.11447  21912459.8754                   21912455.3754
        46.2504         46.5004
 -16511796.39247 -12848664.66947  21831642.8054                   21831639.2974
        45.2504         46.5004
 -20819990.02947 -16155174.94648  21649596.4304                   21649589.0164
        47.5004         48.0004
 20  5 22  1 26 30.0000000  0  8G16G05G04G09G30G27G08G07
 -12259131.44247  -9303137.28244  22791515.8914                   22791508.9574
        42.5004         28.7504
  -2621050.28146  -2032827.33345  24672516.1254                   24672510.5944
        38.5004         33.0004
 -22061715.22747 -17158848.03845  21447882.1724                   21447877.3594
        45.7504         35.2504
 -27493951.79648 -21410214.51849  20330215.3914                   20330210.3484
        48.2504         54.0004
 -11038006.69146  -8586011.40746  23664983.2034                   23664979.4344
        40.2504         37.0004
 -17163597.66847 -13360470.74047  21911643.0314                   21911638.3094
        45.5004         46.7504
 -16575048.84447 -12897952.28947  21819606.0394                   21819602.7934
        44.7504         46.5004
 -20871910.28347 -16195632.29548  21639716.2584                   21639708.8674
        47.7504         48.0004
 20  5 22  1 27  0.0000000  0  8G16G05G04G09G30G27G08G07
 -12158875.21047  -9225015.57644  22810593.4694                   22810586.9024
        42.5004         28.0004
  -2661579.11446  -2064408.27345  24664803.9694                   24664798.1484
        39.0004         33.0004
 -21985828.47347 -17099715.53745  21462323.0784                   21462317.5044
        46.0004         35.0004
 -27481547.59948 -21400548.92249  20332576.0784                   20332570.7544
        49.0004         54.0004
 -11119298.26346  -8649355.48146  23649514.4614                   23649510.0704
        41.0004         38.2504
 -17167244.10747 -13363312.12547  21910948.7274                   21910944.5354
        46.2504         46.7504
 -16637818.53147 -12946863.71647  21807661.7664                   21807657.9304
        45.2504         46.5004
 -20923679.23747 -16235971.76848  21629864.9454                   21629857.3954
        47.0004         48.0004
 20  5 22  1 27 30.0000000  0  8G16G05G04G09G30G27G08G07
 -12058429.63847  -9146746.33144  22829708.3284                   22829701.1604
        43.5004         28.5004
  -2701593.20046  -2095588.07245  24657189.0944                   24657183.7704
        37.5004         33.0004
 -21909543.02747 -17040272.36345  21476840.2504                   21476834.1564
        45.7504         35.0004
 -27468585.55648 -21390448.64249  20335042.0944                   20335037.0864
        48.2504         54.0004
 -11200528.28846  -8712651.59846  23634056.7114                   23634052.5164
        41.7504         38.2504
 -17170242.60847 -13365648.61647  21910377.7274                   21910374.0234
        45.5004         46.7504
 -16700102.65447 -12995396.78247  21795808.7424                   21795805.1294
        45.7504         46.5004
 -20975295.50048 -16276192.22948  21620042.9304                   21620035.5984
        48.2504         48.0004
 20  5 22  1 28  0.0000000  0  9G16G05G04G09G30G27G08G11G07
 -11957796.98047  -9068331.31444  22848858.6644                   22848850.7274
        43.2504         28.2504
  -2741091.12246  -2126365.67345  24649673.5164                   24649667.3204
        39.7504         32.5004
 -21832860.05447 -16980519.42145  21491432.3914                   21491426.9614
        45.5004         35.2504
 -27455065.17448 -21379913.30448  20337615.3204                   20337610.0944
        48.2504         53.7504
 -11281695.95847  -8775899.11846  23618611.5864                   23618606.5234
        42.2504         38.2504
 -17172592.45247 -13367479.65847  21909930.9304                   21909926.7774
        45.5004         46.5004
 -16761898.26147 -13043549.18647  21784049.7584                   21784046.2894
        45.7504         47.0004
   -534341.58815                  25608779.609
        33.000
 -21026758.12647 -16316292.97748  21610249.9304                   21610242.2664
        47.5004         48.2504
 20  5 22  1 28 30.0000000  0  9G16G05G04G09G30G27G08G11G07
 -11856982.17147  -8989774.36644  22868042.0314                   22868035.0634
        42.2504         27.5004
  -2780073.76746  -2156741.76145  24642255.2274                   24642249.3954
        39.2504         32.0004
 -21755783.30547 -16920459.65045  21506099.3984                   21506094.0474
        46.0004         35.5004
 -27440988.57848 -21368944.54249  20340293.7894                   20340288.9024
        48.5004         54.0004
 -11362803.11447  -8839099.49846  23603176.5944                   23603172.3634
        42.5004         37.2504
 -17174295.54747 -13368806.74147  21909606.9064                   21909602.7544
        45.5004         46.5004
 -16823204.77247 -13091320.46447  21772383.6884                   21772380.1684
        45.2504         47.2504
   -622249.20146   -437283.21953  25592050.8284                   25592045.1294
        39.0004         18.2504
 -21078069.10148 -16356275.53348  21600485.5944                   21600478.2894
        48.0004         48.5004
 20  5 22  1 29  0.0000000  0  9G16G05G04G09G30G27G08G11G07
 -11755983.35947  -8911074.02144  22887261.3674                   22887255.2464
        42.5004         27.5004
  -2818536.36846  -2186712.65245  24634935.6884                   24634930.0664
        38.0004         32.2504
 -21678310.26247 -16860091.08845  21520842.0234                   21520836.9884
        46.0004         35.5004
 -27426351.50148 -21357539.04849  20343078.9924                   20343073.9844
        48.5004         54.0004
 -11443845.21946  -8902249.18846  23587754.9844                   23587750.6174
        41.2504         38.0004
 -17175347.48147 -13369626.43247  21909406.6484                   21909402.5354
        45.7504         46.7504
 -16884015.80547 -13138705.67747  21760811.6644                   21760808.2544
        45.2504         47.0004
   -710267.36046   -505868.78242  25575301.4304                   25575296.5554
        37.2504         17.7504
 -21129223.44748 -16396136.09048  21590751.4064                   21590743.9104
        48.0004         48.5004
 20  5 22  1 29 30.0000000  0  9G16G05G04G09G30G27G08G11G07
 -11654805.17747  -8832233.93344  22906515.7424                   22906508.5634
        43.2504         27.2504
  -2856479.41746  -2216278.64945  24627716.7424                   24627709.8164
        39.7504         32.5004
 -21600444.51047 -16799416.51245  21535659.6254                   21535654.4884
        45.0004         34.7504
 -27411155.84348 -21345698.29849  20345971.0784                   20345965.8164
        49.0004         54.0004
 -11524823.84646  -8965349.41146  23572345.2424                   23572340.5394
        41.2504         37.5004
 -17175750.05747 -13369940.11647  21909329.8134                   21909325.6294
        45.5004         46.5004
 -16944331.02847 -13185704.53647  21749334.0004                   21749330.6414
        45.2504         47.0004
   -798395.44846   -574540.05542  25558530.9614                   25558526.8134
        36.0004         17.2504
 -21180222.56947 -16435875.65448  21581046.6804                   21581039.1804
        47.7504         48.5004
 20  5 22  1 30  0.0000000  0  9G16G05G04G09G30G27G08G11G07
 -11553450.93647  -8753256.63644  22925802.6094                   22925795.7034
        43.0004         28.5004
  -2893902.58546  -2245439.59045  24620594.1954                   24620588.2114
        39.0004         31.7504
 -21522188.10547 -16738437.52845  21550551.2034                   21550545.9304
        45.0004         34.5004
 -27395401.97748 -21333422.58549  20348968.7114                   20348963.4104
        49.0004         54.0004
 -11605738.98847  -9028400.17246  23556947.7894                   23556943.3164
        42.5004         37.7504
 -17175503.47147 -13369747.97747  21909377.1484                   21909372.8014
        46.5004         46.7504
 -17004148.39747 -13232315.46347  21737951.4304                   21737947.6564
        45.5004         47.2504
   -886630.961 5                  25541740.875
        35.500
 -21231066.51448 -16475494.31448  21571371.5704                   21571363.9384
        48.2504         48.5004
 20  5 22  1 30 30.0000000  0  9G16G05G04G09G30G27G08G11G07
 -11451922.55947  -8674143.65344  22945123.1414                   22945115.7584
        43.5004         27.0004
  -2930804.15946  -2274194.06645  24613572.7664                   24613566.2774
        39.0004         32.5004
 -21443541.97347 -16677154.87245  21565517.3054                   21565511.9144
        45.2504         34.7504
 -27379089.21948 -21320711.36049  20352072.9064                   20352068.0514
        48.7504         54.0004
 -11686589.56446  -9091400.61846  23541562.3364                   23541557.8714
        41.5004         37.2504
 -17174606.90847 -13369049.35147  21909547.3914                   21909543.1724
        45.7504         46.5004
 -17063464.80247 -13278536.02747  21726663.9924                   21726660.0594
        46.0004         47.0004
   -974971.19045   -676506.68853  25524929.9774                   25524921.6684
        35.0004         18.2504
 -21281753.89848 -16514990.99448  21561725.9534                   21561718.6254
        48.0004         48.5004
 20  5 22  1 31  0.0000000  0  9G16G05G04G09G30G27G08G11G07
 -11350222.95747  -8594897.23644  22964475.6414                   22964468.4654
        42.7504         28.5004
  -2967183.55446  -2302541.64445  24606648.5944                   24606643.2344
        37.7504         32.2504
 -21364508.31147 -16615570.23345  21580556.8054                   21580551.5004
        45.7504         34.7504
 -27362218.09648 -21307565.05349  20355283.7274                   20355278.5474
        48.7504         54.0004
 -11767375.67746  -9154350.82246  23526189.0784                   23526184.6604
        40.5004         37.0004
 -17173060.74047 -13367844.53747  21909842.0634                   21909837.4924
        46.0004         46.5004
 -17122278.51647 -13324364.89647  21715471.7584                   21715467.8674
        45.7504         47.0004
  -1063414.09245   -745423.24342  25508099.8594                   25508094.9774
        35.5004         17.7504
 -21332284.77847 -16554365.70648  21552110.1724                   21552102.9224
        47.7504         48.5004
 20  5 22  1 31 30.0000000  0  9G16G05G04G09G30G27G08G11G07
 -11248354.28647  -8515519.09544  22983860.6804                   22983853.1094
        42.5004         26.0004
  -3003039.76046  -2330481.53645  24599826.2814                   24599820.2704
        39.0004         33.0004
 -21285088.04947 -16553684.34945  21595669.9224                   21595664.2074
        45.7504         35.0004
 -27344787.83348 -21293983.05349  20358600.7344                   20358595.8874
        48.5004         54.0004
 -11848096.19846  -9217249.91946  23510827.9844                   23510823.6334
        41.7504         37.2504
 -17170864.12947 -13366132.89247  21910259.8524                   21910255.2034
        45.5004         46.7504
 -17180586.31747 -13369799.54147  21704375.9534                   21704372.6054
        45.5004         46.7504
  -1151956.47445   -814417.24942  25491250.8524                   25491245.9614
        35.0004         16.2504
 -21382657.75547 -16593617.38848  21542524.5164                   21542517.0944
        47.7504         48.5004
 20  5 22  1 32  0.0000000  0  9G16G05G04G09G30G27G08G11G07
 -11146319.11547  -8436011.21244  23003276.9454                   23003270.6214
        42.7504         26.5004
  -3038371.51646  -2358012.78645  24593103.4614                   24593096.5044
        38.2504         32.7504
 -21205282.96747 -16491498.60545  21610856.3524                   21610851.1294
        46.0004         34.7504
 -27326798.62248 -21279965.50749  20362024.0704                   20362018.4144
        48.5004         54.0004
 -11928750.80847  -9280097.67246  23495480.2344                   23495475.6054
        42.0004         37.7504
 -17168017.11347 -13363914.43147  21910802.1334                   21910797.3444
        45.5004         46.7504
 -17238386.26547 -13414838.45647  21693377.0634                   21693373.1174
        45.2504         47.0004
  -1240596.12845   -883487.10842  25474383.0394                   25474378.7234
        35.7504         16.2504
 -21432872.20347 -16632745.52748  21532968.7734                   21532961.6214
        47.5004         48.5004
 20  5 22  1 32 30.0000000  0  9G16G05G04G09G30G27G08G11G07
 -11044120.15747  -8356375.70344  23022725.0784                   23022717.6524
        42.5004         26.5004
  -3073178.21446  -2385134.87745  24586480.2664                   24586473.1334
        39.0004         32.7504
 -21125094.72947 -16429014.30045  21626116.0944                   21626110.4454
        45.5004         34.0004
 -27308250.47448 -21265512.42549  20365553.3594                   20365548.4264
        49.0004         54.0004
 -12009339.04946  -9342893.70446  23480145.2894                   23480140.6604
        41.7504         38.5004
 -17164519.65747 -13361189.14147  21911467.2504                   21911462.9344
        46.0004         46.7504
 -17295675.50347 -13459479.40847  21682475.5314                   21682471.8594
        45.2504         47.2504
  -1329330.48346   -952630.80742  25457498.0704                   25457493.2974
        36.0004         15.5004
 -21482927.35947 -16671749.55248  21523443.3284                   21523436.4774
        47.5004         48.5004
 20  5 22  1 33  0.0000000  0 10G16G05G04G09G30G27G08G11G07G28
 -10941759.80147  -8276614.42344  23042203.2424                   23042196.7274
        42.5004         26.2504
  -3107458.74146  -2411846.97345  24579955.5004                   24579949.5944
        39.0004         32.5004
 -21044524.95647 -16366232.69545  21641447.5234                   21641442.2774
        45.5004         34.0004
 -27289143.44448 -21250623.86048  20369189.3834                   20369184.0514
        49.0004         53.7504
 -12089860.40346  -9405637.60046  23464822.3284                   23464818.1454
        41.7504         39.2504
 -17160371.64847 -13357956.92247  21912256.9224                   21912252.3524
        45.7504         46.5004
 -17352452.74347 -13503721.40847  21671670.8984                   21671667.3284
        46.7504         47.5004
  -1418157.02846  -1021846.24142  25440594.9304                   25440589.4924
        36.0004         17.2504
 -21532823.05748 -16710629.31848  21513949.0084                   21513941.5824
        48.0004         48.5004
    638881.12856    522621.76353  24867569.8754                   24867562.2854
        36.2504         19.7504
 20  5 22  1 33 30.0000000  0 10G16G05G04G09G30G27G08G11G07G28
 -10839241.74347  -8196730.26844  23061712.5634                   23061705.3954
        42.7504         26.5004
  -3141213.42346  -2438149.34345  24573532.1644                   24573526.7304
        38.7504         32.5004
 -20963576.67547 -16303156.15845  21656851.7894                   21656846.4964
        45.0004         34.2504
 -27269478.99148 -21235300.93348  20372930.9694                   20372926.3364
        49.0004         53.7504
 -12170315.90447  -9468330.18146  23449511.9614                   23449508.1524
        42.0004         39.0004
 -17155574.51347 -13354218.88747  21913169.8594                   21913165.1094
        46.0004         46.5004
 -17408716.33747 -13547563.16347  21660964.3444                   21660960.9104
        46.5004         47.5004
  -1507074.30445  -1091132.36943  25423673.6024                   25423669.9884
        35.0004         18.5004
 -21582559.62648 -16749385.09648  21504484.0704                   21504476.9414
        48.0004         48.5004
    539278.76346    445009.44642  24848616.1254                   24848609.4844
        37.0004         17.2504
 20  5 22  1 34  0.0000000  0 10G16G05G04G09G30G27G08G11G07G28
 -10736565.67147  -8116722.98444  23081251.2584                   23081243.8754
        42.7504         25.7504
  -3174438.94846  -2464039.35845  24567210.3444                   24567203.6334
        39.7504         32.2504
 -20882248.67447 -16239783.72645  21672328.0784                   21672322.5004
        45.5004         34.5004
 -27249254.20448 -21219541.38448  20376779.9694                   20376775.0084
        49.0004         53.7504
 -12250701.88646  -9530968.59146  23434214.3834                   23434211.2704
        41.5004         39.0004
 -17150125.24047 -13349972.69647  21914206.3364                   21914202.1484
        46.5004         46.7504
 -17464460.98147 -13591000.54347  21650356.3444                   21650353.3874
        46.5004         47.7504
  -1596077.23546  -1160485.29042  25406737.3914                   25406732.4844
        37.2504         17.2504
 -21632133.48348 -16788014.08248  21495050.7034                   21495043.7424
        48.2504         48.5004
    439812.78145    367503.44242  24829688.1414                   24829681.8404
        35.0004         17.2504
 20  5 22  1 34 30.0000000  0 10G16G05G04G09G30G27G08G11G07G28
 -10633735.47447  -8036595.59444  23100818.9774                   23100812.0984
        42.5004         26.7504
  -3207135.71046  -2489517.37845  24560988.0864                   24560982.2544
        39.2504         32.5004
 -20800544.05547 -16176117.82745  21687875.9304                   21687870.5784
        45.5004         34.7504
 -27228470.66348 -21203346.43848  20380734.8134                   20380730.0274
        48.5004         53.7504
 -12331019.50347  -9593553.75346  23418930.8674                   23418926.9104
        42.0004         38.5004
 -17144025.37147 -13345219.55047  21915367.2584                   21915362.7074
        45.7504         46.7504
 -17519685.78447 -13634032.85947  21639847.3444                   21639844.0744
        47.2504         47.5004
  -1685164.54146  -1229904.03842  25389784.8054                   25389779.3834
        37.5004         15.5004
 -21681545.63948 -16826517.07348  21485648.0164                   21485640.5394
        48.0004         48.7504
    340483.03945    290103.54542  24810786.4844                   24810779.9224
        33.5004         16.2504
 20  5 22  1 35  0.0000000  0 10G16G05G04G09G30G27G08G11G07G28
 -10530753.61047  -7956350.02644  23120415.7424                   23120408.5984
        42.2504         26.5004
  -3239302.40646  -2514582.37445  24554866.8134                   24554861.2624
        39.0004         32.2504
 -20718464.11347 -16112159.46645  21703495.1024                   21703490.1484
        45.5004         34.7504
 -27207128.04048 -21186715.84249  20384796.3674                   20384791.5044
        48.5004         54.0004
 -12411267.75046  -9656084.85146  23403660.2734                   23403655.9694
        40.7504         38.0004
 -17137274.47947 -13339959.11247  21916651.7734                   21916647.5594
        46.0004         46.7504
 -17574388.35747 -13676658.23547  21629438.0394                   21629434.3484
        46.5004         47.7504
  -1774333.12246  -1299385.98442  25372815.6094                   25372811.2424
        36.2504         16.7504
 -21730794.84048 -16864893.07648  21476276.2974                   21476268.5744
        48.5004         48.7504
    241291.25645    212811.25142  24791910.0554                   24791905.4494
        33.5004         14.7504
 20  5 22  1 35 30.0000000  0 10G16G05G04G09G30G27G08G11G07G28
 -10427622.41447  -7875988.10344  23140041.5634                   23140033.7894
        42.5004         26.0004
  -3270938.47646  -2539233.84545  24548846.8914                   24548840.5634
        39.0004         33.2504
 -20636010.63447 -16047910.04145  21719185.7974                   21719180.3054
        45.2504         34.2504
 -27185226.59248 -21169649.80849  20388963.7664                   20388958.7304
        48.5004         54.0004
 -12491446.23646  -9718561.58746  23388402.5944                   23388398.0944
        41.2504         38.2504
 -17129872.81347 -13334191.58847  21918060.1334                   21918055.7154
        45.7504         46.7504
 -17628566.31647 -13718874.82147  21619128.5474                   21619124.5164
        46.0004         47.7504
  -1863580.67646  -1368929.49743  25355833.5004                   25355828.1134
        39.0004         19.0004
 -21779880.66248 -16903141.78148  21466935.6804                   21466928.1604
        48.0004         48.7504
    142238.63345    135627.30842  24773062.1564                   24773057.2544
        34.0004         14.7504
 20  5 22  1 36  0.0000000  0 10G16G05G04G09G30G27G08G11G07G28
 -10324344.84947  -7795512.12244  23159694.8054                   23159687.2344
        43.5004         26.0004
  -3302043.80646  -2563471.77045  24542927.4694                   24542921.8014
        39.7504         33.0004
 -20553185.89347 -15983371.31745  21734947.0004                   21734941.3364
        45.5004         34.5004
 -27162767.03248 -21152148.87348  20393238.2344                   20393233.2894
        48.0004         53.7504
 -12571554.97147  -9780983.96446  23373158.1484                   23373154.5314
        42.0004         38.5004
 -17121821.02047 -13327917.45547  21919592.3364                   21919588.1524
        45.2504         46.5004
 -17682218.10547 -13760681.41348  21608918.9384                   21608915.3244
        46.2504         48.0004
  -1952905.10846  -1438532.91443  25338834.6564                   25338830.3244
        36.2504         18.5004
 -21828802.72947 -16941262.87048  21457626.1334                   21457618.3714
        47.5004         48.7504
     43326.168 5                  24754238.719
        34.750
 20  5 22  1 36 30.0000000  0 10G16G05G04G09G30G27G08G11G07G28
 -10220922.46047  -7714923.29044  23179375.5084                   23179368.0944
        43.0004         25.7504
  -3332616.50246  -2587294.66845  24537111.8674                   24537103.9734
        40.0004         32.2504
 -20469990.69447 -15918543.92145  21750778.5164                   21750773.2504
        45.0004         33.7504
 -27139748.60948 -21134212.46448  20397618.1024                   20397613.2194
        48.5004         53.7504
 -12651592.59647  -9843350.93146  23357927.7194                   23357923.7854
        42.2504         39.0004
 -17113118.31547 -13321136.12247  21921248.5394                   21921244.0824
        45.5004         46.7504
 -17735340.92847 -13802075.82047  21598809.7034                   21598806.5864
        46.5004         47.7504
  -2042303.321 5                  25321823.000
        35.750
 -21877559.78047 -16979255.38248  21448347.6954                   21448340.6254
        47.5004         48.5004
    -55444.058 5                  24735443.789
        35.000
 20  5 22  1 37  0.0000000  0 10G16G05G04G09G30G27G08G11G07G28
 -10117358.60147  -7634224.21744  23199082.7034                   23199075.1914
        42.5004         25.5004
  -3362656.78746  -2610702.70645  24531393.3204                   24531387.0984
        40.0004         32.5004
 -20386427.79847 -15853430.01045  21766679.8834                   21766674.3094
        45.5004         34.5004
 -27116172.60248 -21115841.57148  20402104.5084                   20402099.6684
        48.5004         53.7504
 -12731559.56547  -9905662.84446  23342710.9224                   23342706.5474
        42.0004         39.5004
 -17103765.96147 -13313848.57547  21923028.4144                   21923023.7384
        45.7504         46.7504
 -17787933.25547 -13843056.85247  21588801.7424                   21588798.1954
        45.5004         47.7504
  -2131773.11646  -1544459.63952  25304797.8364                   25304790.2814
        37.5004         17.2504
 -21926151.85447 -17017119.32748  21439101.1724                   21439093.7584
        46.7504         48.7504
   -154071.21845     -5214.72852  24716675.9534                   24716669.4964
        35.0004         16.7504
 20  5 22  1 37 30.0000000  0 10G16G05G04G09G30G27G08G11G07G28
 -10013655.30347  -7553416.50344  23218816.6414                   23218809.4344
        42.5004         26.2504
  -3392163.66746  -2633695.09845  24525778.3134                   24525772.4024
        40.5004         32.2504
 -20302498.54147 -15788030.63045  21782650.2974                   21782645.6334
        44.7504         33.7504
 -27092038.75348 -21097036.00248  20406697.4774                   20406692.2624
        49.0004         53.5004
 -12811454.96946  -9967919.00346  23327507.3754                   23327502.9104
        41.5004         39.0004
 -17093763.66747 -13306054.57347  21924931.8284                   21924927.1254
        46.0004         46.7504
 -17839992.57047 -13883622.55647  21578895.1024                   21578891.6684
        46.2504         47.7504
  -2221310.90246  -1614229.30042  25287759.2114                   25287753.7034
        36.7504         17.2504
 -21974577.63647 -17054853.71048  21429885.8754                   21429878.2034
        47.2504         48.7504
   -252553.43445    -81954.14142  24697935.4304                   24697929.3094
        35.5004         16.2504
 20  5 22  1 38  0.0000000  0 10G16G05G04G09G30G27G08G11G07G28
  -9909814.39047  -7472501.56244  23238576.9144                   23238569.4804
        42.0004         26.2504
  -3421136.07646  -2656271.01945  24520264.9454                   24520258.7304
        40.2504         31.5004
 -20218203.95747 -15722346.58545  21798691.2974                   21798686.5204
        45.0004         33.5004
 -27067346.62348 -21077795.40948  20411395.7344                   20411390.7234
        48.0004         53.5004
 -12891277.48946 -10030118.36246  23312317.4534                   23312313.8284
        41.5004         39.5004
 -17083110.99447 -13297753.79047  21926959.0634                   21926954.0164
        45.7504         46.7504
 -17891515.93047 -13923770.63447  21569090.7814                   21569086.7304
        46.2504         47.7504
  -2310914.73245  -1684050.36342  25270707.6644                   25270703.2704
        34.5004         14.7504
 -22022836.02647 -17092457.65148  21420702.6254                   21420695.1884
        47.0004         48.5004
   -350889.12945   -158579.39042  24679222.5784                   24679216.9264
        35.5004         16.7504
 20  5 22  1 38 30.0000000  0 10G16G05G04G09G30G27G08G11G07G28
  -9805839.21147  -7391481.98144  23258362.6024                   23258355.6564
        42.0004         25.5004
  -3449573.55446  -2678430.11945  24514853.6644                   24514847.6294
        39.7504         31.5004
 -20133546.49047 -15656379.77545  21814801.7274                   21814796.0984
        45.0004         34.5004
 -27042097.16948 -21058120.52748  20416200.7034                   20416195.6334
        48.7504         53.5004
 -12971027.32147 -10092261.07746  23297140.8914                   23297137.6524
        42.0004         39.2504
 -17071808.88347 -13288946.94447  21929109.5634                   21929105.1094
        45.5004         46.5004
 -17942501.86047 -13963499.93647  21559388.3674                   21559384.6254
        45.5004         47.7504
  -2400582.02445  -1753921.09542  25253644.6484                   25253640.5124
        34.2504         15.5004
 -22070926.79947 -17129930.98448  21411551.3914                   21411543.5744
        46.5004         48.7504
   -449077.38646   -235089.79242  24660538.7274                   24660532.4384
        36.2504         17.7504
 20  5 22  1 39  0.0000000  0 10G16G05G04G09G30G27G08G11G07G28
  -9701731.96046  -7310359.51344  23278173.4844                   23278166.5594
        41.5004         24.0004
  -3477475.48846  -2700171.91345  24509544.5084                   24509538.1024
        39.7504         31.7504
 -20048527.95547 -15590131.60545  21830980.4384                   21830974.6884
        45.5004         34.5004
 -27016290.65848 -21038011.57848  20421111.9144                   20421106.7034
        48.5004         53.5004
 -13050703.91746 -10154346.71746  23281979.3284                   23281975.9064
        41.2504         39.2504
 -17059857.66547 -13279634.30147  21931383.9614                   21931379.4614
        45.2504         46.5004
 -17992948.31147 -14002808.87347  21549788.7274                   21549785.1374
        46.2504         47.7504
  -2490310.12446  -1823839.05743  25236571.3054                   25236565.7114
        37.0004         18.5004
 -22118849.21548 -17167273.12548  21402431.5784                   21402424.3634
        48.2504         48.7504
   -547117.10346   -311484.44142  24641881.8754                   24641875.8834
        37.0004         17.2504
 20  5 22  1 39 30.0000000  0 10G16G05G04G09G30G27G08G11G07G28
  -9597494.78946  -7229135.76944  23298009.0864                   23298002.2544
        41.2504         24.2504
  -3504841.59046  -2721496.16945  24504336.4614                   24504330.6254
        40.2504         32.2504
 -19963149.77647 -15523603.18645  21847227.3204                   21847221.8984
        45.2504         34.0004
 -26989927.06648 -21017468.54348  20426128.3524                   20426123.4884
        48.0004         53.5004
 -13130306.40147 -10216374.60546  23266831.5554                   23266827.6254
        42.0004         39.2504
 -17047257.23647 -13269815.79047  21933781.5004                   21933776.8954
        46.0004         46.5004
 -18042852.86847 -14041695.54947  21540292.3914                   21540288.6254
        46.7504         47.7504
  -2580096.13946  -1893802.15043  25219485.3674                   25219479.8054
        37.5004         20.0004
 -22166602.49948 -17204483.47848  21393344.4924                   21393337.3914
        48.2504         49.0004
   -645006.54346   -387762.05142  24623255.0164                   24623248.2624
        36.7504         17.2504
 20  5 22  1 40  0.0000000  0 10G16G05G04G09G30G27G08G11G07G28
  -9493129.78847  -7147812.44044  23317869.5394                   23317862.1644
        42.0004         25.5004
  -3531670.37746  -2742401.74645  24499231.4384                   24499224.8134
        40.0004         31.5004
 -19877413.47847 -15456795.72445  21863542.2114                   21863536.8834
        45.0004         33.5004
 -26963006.48648 -20996491.48648  20431251.2344                   20431246.0084
        48.0004         53.5004
 -13209833.94747 -10278344.10746  23251698.1334                   23251694.1134
        42.5004         39.2504
 -17034007.78247 -13259491.53547  21936302.8754                   21936298.4064
        46.0004         46.5004
 -18092213.14647 -14080158.10448  21530899.3054                   21530895.1334
        46.2504         48.0004
  -2669937.31346  -1963808.24843  25202388.0394                   25202383.5944
        36.7504         19.5004
 -22214185.64047 -17241561.26248  21384290.1254                   21384282.6524
        47.7504         48.7504
   -742743.72845   -463920.89242  24604655.8284                   24604649.9694
        35.5004         16.2504
 20  5 22  1 40 30.0000000  0 10G16G05G04G09G30G27G08G11G07G28
  -9388639.82746  -7066391.72944  23337753.4454                   23337745.8524
        41.7504         24.5004
  -3557962.34946  -2762889.01145  24494228.7274                   24494221.6214
        41.0004         32.2504
 -19791321.79847 -15389711.33445  21879924.7504                   21879919.2464
        44.7504         33.7504
 -26935530.12348 -20975081.35448  20436480.0004                   20436475.3164
        48.5004         53.5004
 -13289286.87747 -10340255.46646  23236578.7424                   23236574.1994
        42.0004         39.7504
 -17020110.50747 -13248662.49847  21938947.1644                   21938942.7734
        45.5004         46.2504
 -18141028.53847 -14118196.08648  21521610.2584                   21521606.2034
        46.7504         48.0004
  -2759831.61446  -2033855.77743  25185282.2424                   25185276.0824
        38.2504         19.7504
 -22261598.58047 -17278506.41348  21375267.7274                   21375260.5744
        47.5004         49.0004
   -840328.39546   -539960.88342  24586085.2584                   24586080.0004
        36.0004         17.2504
 20  5 22  1 41  0.0000000  0 10G16G05G04G09G30G27G08G11G07G28
  -9284026.76947  -6984875.07544  23357660.4694                   23357653.5554
        42.2504         25.5004
  -3583716.24646  -2782956.98545  24489327.6724                   24489321.0514
        40.0004         33.0004
 -19704875.66547 -15322350.75045  21896374.8204                   21896369.9344
        44.5004         33.2504
 -26907497.52148 -20953237.79548  20441814.0634                   20441809.5274
        48.0004         53.7504
 -13368663.77147 -10402107.58046  23221473.7734                   23221469.4884
        42.5004         39.7504
 -17005564.99447 -13237328.33447  21941715.2894                   21941711.0164
        45.5004         46.5004
 -18189295.55847 -14155806.76548  21512425.0394                   21512421.4654
        47.0004         48.2504
  -2849775.36846  -2103941.82343  25168166.7034                   25168161.2154
        39.5004         21.5004
 -22308839.82147 -17315317.76648  21366277.8204                   21366270.2464
        47.7504         49.0004
   -937758.20746   -615880.31042  24567545.7974                   24567540.2504
        36.7504         17.2504
 20  5 22  1 41 30.0000000  0 10G16G05G04G09G30G27G08G11G07G28
  -9179293.08346  -6903264.46144  23377590.2424                   23377583.7934
        41.5004         25.5004
  -3608931.50646  -2802605.26345  24484529.3754                   24484522.5004
        40.7504         33.0004
 -19618076.95147 -15254715.42845  21912892.3524                   21912886.6254
        44.5004         32.7504
 -26878909.09848 -20930961.12648  20447254.4614                   20447249.6564
        48.2504         53.7504
 -13447964.12447 -10463900.05546  23206384.1484                   23206379.3054
        42.5004         39.7504
 -16990371.69547 -13225489.40047  21944606.4694                   21944602.0824
        46.0004         46.5004
 -18237012.62947 -14192988.90548  21503345.0004                   21503341.1994
        46.5004         48.2504
  -2939766.12746  -2174064.47643  25151042.3984                   25151036.5864
        38.5004         19.0004
 -22355908.59047 -17351994.74148  21357320.8054                   21357313.6684
        47.0004         49.0004
  -1035032.07845   -691678.17942  24549035.1334                   24549030.0394
        35.2504         15.5004
 20  5 22  1 42  0.0000000  0 10G16G05G04G09G30G27G08G11G07G28
  -9074441.10446  -6821561.68943  23397543.5004                   23397536.3204
        40.7504         22.2504
  -3633607.32146  -2821833.18845  24479833.7194                   24479827.6294
        41.2504         32.5004
 -19530927.54547 -15186806.84745  21929476.2734                   21929471.1604
        44.7504         33.5004
 -26849765.37148 -20908251.75248  20452800.5944                   20452795.4844
        48.0004         53.5004
 -13527187.39647 -10525632.47846  23191307.7504                   23191303.5234
        42.5004         39.5004
 -16974531.17047 -13213146.14047  21947621.2194                   21947616.4614
        45.5004         46.2504
 -18284177.81747 -14229741.01148  21494369.5554                   21494366.1294
        46.5004         48.2504
  -3029801.33346  -2244221.76143  25133909.1174                   25133903.3634
        38.5004         19.5004
 -22402804.06347 -17388536.67548  21348397.3284                   21348389.8244
        47.5004         49.0004
  -1132148.66446   -767353.44442  24530554.5314                   24530548.7504
        36.2504         16.7504
 20  5 22  1 42 30.0000000  0 10G16G05G04G09G30G27G08G11G07G28
  -8969473.17246  -6739768.54344  23417518.3524                   23417511.4884
        41.5004         25.0004
  -3657743.80346  -2840640.85545  24475241.2664                   24475234.4414
        40.5004         33.0004
 -19443429.52147 -15118626.60645  21946126.3364                   21946121.3444
        44.5004         33.2504
 -26820066.90848 -20885110.11848  20458451.5314                   20458446.5864
        48.2504         53.5004
 -13606333.23646 -10587304.54246  23176246.9924                   23176242.7114
        41.7504         40.0004
 -16958044.11247 -13200299.07547  21950758.3204                   21950753.7544
        46.0004         46.5004
 -18330788.64047 -14266061.14248  21485500.1724                   21485496.3094
        46.5004         48.2504
  -3119878.35846  -2314411.64043  25116767.9224                   25116763.3794
        37.0004         19.5004
 -22449525.62547 -17424943.09148  21339506.1414                   21339499.0864
        47.7504         49.2504
  -1229106.85146   -842905.32042  24512103.5554                   24512097.9064
        37.7504         17.7504
 20  5 22  1 43  0.0000000  0 10G16G05G04G09G30G27G08G11G07G28
  -8864391.77146  -6657886.95344  23437514.0084                   23437507.8164
        40.7504         24.2504
  -3681340.08446  -2859027.55945  24470749.6414                   24470743.8794
        40.7504         33.0004
 -19355584.48947 -15050175.97645  21962843.5944                   21962837.8914
        45.0004         33.2504
 -26789813.92948 -20861536.39048  20464208.7734                   20464203.9304
        48.0004         53.5004
 -13685400.74647 -10648915.58046  23161200.2194                   23161196.3754
        42.5004         40.0004
 -16940910.75647 -13186948.41847  21954018.9924                   21954013.8794
        46.0004         46.5004
 -18376843.83847 -14301948.31648  21476735.8594                   21476732.1914
        47.0004         48.5004
  -3209994.43946  -2384631.94342  25099618.6094                   25099614.3054
        36.5004         17.2504
 -22496072.42947 -17461213.32448  21330648.6884                   21330641.6214
        47.7504         49.2504
  -1325904.98446   -918332.46342  24493683.7894                   24493677.8204
        36.7504         16.7504
 20  5 22  1 43 30.0000000  0 10G16G05G04G09G30G27G08G11G07G28
  -8759199.17446  -6575918.77144  23457532.2114                   23457525.5314
        41.5004         24.2504
  -3704396.33046  -2876993.45945  24466362.8524                   24466356.1604
        41.5004         32.2504
 -19267394.63247 -14981456.65245  21979625.3984                   21979619.9344
        44.5004         33.2504
 -26759007.32048 -20837531.25748  20470070.8594                   20470066.2584
        48.2504         53.5004
 -13764389.73147 -10710465.43346  23146169.2894                   23146165.1724
        42.0004         40.0004
 -16923132.01347 -13173094.84847  21957401.6884                   21957397.1214
        45.7504         46.0004
 -18422341.48447 -14337401.02748  21468078.1024                   21468074.4304
        46.2504         48.5004
  -3300146.96846  -2454880.71342  25082464.0944                   25082458.5634
        37.0004         17.2504
 -22542444.26347 -17497347.22748  21321824.6334                   21321817.3014
        47.5004         49.2504
  -1422542.07346   -993634.11242  24475294.6724                   24475288.6294
        37.7504         16.7504
 20  5 22  1 44  0.0000000  0 10G16G05G04G09G30G27G08G11G07G28
  -8653897.08847  -6493865.24843  23477570.0164                   23477563.5314
        42.2504         22.5004
  -3726911.10546  -2894537.46645  24462078.0554                   24462071.9964
        41.2504         33.2504
 -19178860.97647 -14912469.42045  21996472.1024                   21996467.1564
        44.5004         33.0004
 -26727646.63848 -20813094.38748  20476038.8284                   20476034.0904
        48.5004         53.2504
 -13843298.70347 -10771952.93346  23131153.2734                   23131149.6484
        42.5004         40.0004
 -16904707.60747 -13158738.18147  21960907.7424                   21960903.0784
        46.2504         46.0004
 -18467278.51147 -14372416.88748  21459526.8444                   21459523.4614
        47.5004         48.5004
  -3390332.70745  -2525155.28242  25065300.7894                   25065296.9344
        35.2504         16.2504
 -22588638.93248 -17533343.07448  21313033.7894                   21313026.3984
        48.0004         49.2504
  -1519016.09846  -1068808.73242  24456936.3674                   24456929.9304
        37.2504         17.2504
 20  5 22  1 44 30.0000000  0 10G16G05G04G09G30G27G08G11G07G28
  -8548487.77247  -6411728.14043  23497628.8054                   23497622.0004
        42.2504         22.5004
  -3748883.78346  -2911659.02145  24457897.1484                   24457890.7704
        40.5004         33.0004
 -19089985.25147 -14843215.64645  22013384.6954                   22013379.7344
        44.5004         32.5004
 -26695732.27848 -20788226.07748  20482111.8284                   20482107.4844
        48.2504         53.5004
 -13922126.92447 -10833377.51246  23116152.5084                   23116148.9694
        42.2504         40.5004
 -16885637.98747 -13143878.74247  21964537.3284                   21964531.9964
        46.5004         46.2504
 -18511653.12847 -14406994.51548  21451082.7814                   21451078.7584
        47.0004         48.2504
  -3480548.94145  -2595453.59542  25048133.8594                   25048129.5204
        35.5004         15.5004
 -22634655.92347 -17569200.47648  21304277.1884                   21304269.6804
        47.7504         49.2504
  -1615325.67145  -1143855.14543  24438609.1094                   24438602.4024
        35.5004         18.2504
 20  5 22  1 45  0.0000000  0 10G16G05G04G09G30G27G08G11G07G28
  -8442974.14446  -6329509.80843  23517708.0554                   23517700.9534
        41.5004         22.7504
  -3770314.86546  -2928358.57845  24453819.5784                   24453812.9224
        40.2504         33.0004
 -19000770.23247 -14773697.49145  22030362.2194                   22030356.9494
        44.7504         32.7504
 -26663265.66548 -20762927.44148  20488290.3364                   20488285.2854
        48.2504         53.5004
 -14000874.61547 -10894739.32446  23101168.4614                   23101163.8714
        43.7504         40.7504
 -16865924.69747 -13128517.74747  21968287.5784                   21968282.9064
        46.2504         46.2504
 -18555464.63947 -14441133.35948  21442745.4844                   21442741.7934
        47.0004         48.5004
  -3570793.26345  -2665773.80542  25030959.5314                   25030956.0124
        34.0004         17.2504
 -22680495.30848 -17604919.47948  21295554.3204                   21295546.8404
        48.7504         49.5004
  -1711470.25546  -1218773.01543  24420313.0084                   24420306.5004
        37.0004         18.2504
 20  5 22  1 45 30.0000000  0 10G16G05G04G09G30G27G08G11G07G28
  -8337358.27146  -6247211.75243  23537805.3674                   23537798.3874
        40.2504         22.5004
  -3791203.84446  -2944635.73945  24449843.7344                   24449837.0904
        40.0004         32.0004
 -18911217.42247 -14703916.11345  22047403.4694                   22047398.6054
        44.2504         33.2504
 -26630247.00448 -20737198.63548  20494573.3524                   20494568.6844
        49.0004         53.5004
 -14079540.80947 -10956037.65446  23086198.6094                   23086194.0864
        43.0004         40.2504
 -16845567.97147 -13112655.35847  21972161.9064                   21972157.2974
        45.7504         46.2504
 -18598710.73647 -14474831.61948  21434516.1804                   21434512.4574
        47.5004         48.5004
  -3661062.71346  -2736113.60442  25013783.0314                   25013778.2974
        37.7504         16.2504
 -22726155.69848 -17640499.00848  21286865.4614                   21286858.1564
        48.0004         49.5004
  -1807448.00146  -1293560.91442  24402049.6174                   24402043.2774
        37.0004         17.7504
 20  5 22  1 46  0.0000000  0 10G16G05G04G09G30G27G08G11G07G28
  -8231642.83046  -6164836.15743  23557923.7424                   23557915.7074
        41.5004         22.5004
  -3811551.06646  -2960490.73545  24445971.4534                   24445965.6914
        39.5004         32.5004
 -18821329.42947 -14633873.56545  22064508.3834                   22064503.3134
        44.2504         33.0004
 -26596677.50048 -20711040.61048  20500961.7734                   20500956.7774
        48.2504         53.5004
 -14158125.55647 -11017272.50846  23071244.9454                   23071239.9844
        43.5004         40.5004
 -16824569.19547 -13096292.68447  21976157.3054                   21976153.4494
        46.0004         46.0004
 -18641390.05047 -14508088.23848  21426394.8284                   21426391.1254
        47.0004         48.5004
  -3751355.52446  -2806471.69642  24996601.3834                   24996594.5514
        39.2504         17.2504
 -22771636.94247 -17675938.94648  21278210.6884                   21278203.4924
        47.0004         49.5004
  -1903258.52745  -1368218.46643  24383817.7664                   24383811.0514
        35.7504         18.5004
 20  5 22  1 46 30.0000000  0 10G16G05G04G09G30G27G08G11G07G28
  -8125829.71946  -6082384.42643  23578059.1174                   23578050.8094
        40.7504         22.5004
  -3831355.61446  -2975922.86045  24442202.7034                   24442197.4414
        40.5004         33.0004
 -18731107.56447 -14563570.83945  22081677.3594                   22081672.1024
        44.7504         33.5004
 -26562557.16648 -20684453.35848  20507454.2664                   20507449.3874
        48.2504         53.2504
 -14236627.61747 -11078442.94446  23056305.9694                   23056301.2074
        43.0004         40.5004
 -16802928.45247 -13079429.78347  21980275.7344                   21980271.3164
        46.5004         46.0004
 -18683500.44747 -14540901.52948  21418381.0634                   21418377.2344
        46.2504         48.5004
  -3841667.76346  -2876844.84743  24979416.0234                   24979409.5314
        40.0004         20.0004
 -22816937.78547 -17711238.31148  21269590.0864                   21269582.9264
        46.7504         49.5004
  -1998899.83146  -1442744.21342  24365617.7664                   24365611.1294
        37.0004         17.7504
 20  5 22  1 47  0.0000000  0 10G16G05G04G09G30G27G08G11G07G28
  -8019921.38446  -5999858.51343  23598212.3834                   23598205.2544
        41.2504         22.5004
  -3850617.42546  -2990932.09145  24438536.8834                   24438531.8324
        39.2504         33.2504
 -18640554.17347 -14493009.79045  22098909.0164                   22098903.5514
        44.5004         33.0004
 -26527887.08348 -20657437.73348  20514051.7584                   20514047.1414
        49.5004         53.2504
 -14315046.81047 -11139548.80546  23041382.8674                   23041378.5784
        43.2504         40.5004
 -16780647.01947 -13062067.62947  21984516.3284                   21984511.0864
        47.0004         46.0004
 -18725040.49847 -14573270.40348  21410476.7114                   21410472.4414
        47.2504         48.5004
  -3931997.48546  -2947231.66443  24962227.2504                   24962221.0864
        41.5004         22.2504
 -22862057.77548 -17746396.75248  21261004.1334                   21260996.4414
        48.0004         49.2504
  -2094371.08846  -1517137.39943  24347449.7194                   24347444.0824
        36.5004         18.5004
 20  5 22  1 47 30.0000000  0 10G16G05G04G09G30G27G08G11G07G28
  -7913919.47046  -5917259.65643  23618383.3834                   23618377.0124
        40.7504         22.2504
  -3869335.36346  -3005517.52245  24434974.9694                   24434969.9534
        39.2504         33.0004
 -18549670.28047 -14422191.20545  22116203.6564                   22116198.5164
        45.0004         32.7504
 -26492666.95948 -20629993.51748  20520754.1804                   20520749.4384
        48.2504         53.2504
 -14393381.53747 -11200588.84546  23026476.5234                   23026471.9804
        44.0004         40.5004
 -16757724.64647 -13044206.05047  21988878.0164                   21988873.1374
        46.7504         45.7504
 -18766007.24347 -14605192.53948  21402680.7664                   21402676.6254
        47.0004         48.5004
  -4022341.12146  -3017629.23643  24945036.0394                   24945030.1564
        39.5004         22.7504
 -22906995.20948 -17781412.93548  21252452.9614                   21252445.3364
        48.5004         49.5004
  -2189670.25746  -1591396.47342  24329314.8674                   24329308.6214
        37.2504         17.7504
 20  5 22  1 48  0.0000000  0 10G16G05G04G09G30G27G08G11G07G28
  -7807826.37046  -5834589.76643  23638572.9454                   23638565.8524
        40.0004         22.2504
  -3887509.80646  -3019679.42045  24431517.3834                   24431511.0354
        39.7504         32.7504
 -18458458.06947 -14351116.79245  22133561.1174                   22133555.3094
        44.5004         32.7504
 -26456897.65648 -20602121.36348  20527560.5634                   20527556.4804
        49.0004         53.2504
 -14471631.36247 -11261562.72846  23011585.7344                   23011581.9104
        43.0004         40.0004
 -16734162.41447 -13025845.87547  21993361.3754                   21993356.8714
        45.7504         45.7504
 -18806399.83947 -14636667.29048  21394994.1644                   21394990.3914
        46.5004         48.7504
  -4112695.87846  -3088035.51043  24927840.1024                   24927835.8094
        36.0004         20.5004
 -22951749.49647 -17816286.41048  21243936.3524                   21243928.9184
        47.7504         49.5004
  -2284796.13446  -1665520.58842  24311212.5314                   24311206.5744
        36.5004         17.7504
 20  5 22  1 48 30.0000000  0 10G16G05G04G09G30G27G08G11G07G28
  -7701643.49747  -5751849.94543  23658778.6564                   23658771.4184
        42.2504         22.7504
  -3905139.58546  -3033416.94545  24428162.6094                   24428156.9224
        39.5004         33.2504
 -18366919.05747 -14279787.71645  22150979.7584                   22150974.9774
        44.5004         32.7504
 -26420579.45948 -20573821.49548  20534472.1644                   20534467.6994
        50.0004         53.5004
 -14549795.27147 -11322469.65646  22996711.2974                   22996707.5744
        42.5004         40.5004
 -16709960.69147 -13006987.40547  21997966.8984                   21997962.4734
        45.5004         46.0004
 -18846215.98747 -14667692.85548  21387417.4614                   21387413.5824
        47.0004         48.7504
  -4203058.74746  -3158448.02843  24910643.7894                   24910640.9924
        36.0004         19.7504
 -22996319.18647 -17851016.06048  21235454.7274                   21235447.5274
        47.7504         49.2504
  -2379747.09846  -1739508.36643  24293144.6334                   24293138.3054
        38.0004         18.5004
 20  5 22  1 49  0.0000000  0 10G16G05G04G09G30G27G08G11G07G28
  -7595373.71846  -5669042.36343  23679001.1644                   23678993.8874
        41.0004         22.0004
  -3922225.70646  -3046730.81145  24424911.0474                   24424905.2234
        39.5004         33.0004
 -18275055.88047 -14208206.06045  22168460.9924                   22168455.6564
        45.2504         33.0004
 -26383713.72248 -20545094.98048  20541487.4384                   20541482.7384
        49.2504         53.2504
 -14627873.17947 -11383309.58346  22981854.1174                   22981849.8284
        43.2504         40.7504
 -16685121.01747 -12987631.83047  22002694.0164                   22002689.2664
        45.5004         46.0004
 -18885454.09447 -14698268.00048  21379950.6414                   21379947.1414
        46.2504         48.7504
  -4293427.64645  -3228865.21642  24893446.1884                   24893443.9494
        33.5004         16.7504
 -23040704.17247 -17885601.76948  21227008.5394                   21227001.2664
        47.7504         49.5004
  -2474522.78846  -1813359.55242  24275109.4844                   24275102.5904
        37.7504         17.7504
 20  5 22  1 49 30.0000000  0 10G16G05G04G09G30G27G08G11G07G28
  -7489019.84346  -5586169.23643  23699238.7424                   23699232.2504
        40.5004         22.5004
  -3938767.87246  -3059620.84145  24421763.1254                   24421757.3134
        40.2504         33.5004
 -18182870.62447 -14136373.42845  22186003.6094                   22185998.2894
        44.7504         33.0004
 -26346301.36548 -20515942.52448  20548606.6954                   20548602.0434
        50.0004         53.2504
 -14705864.65347 -11444082.15046  22967012.7664                   22967008.8094
        43.0004         41.2504
 -16659644.40747 -12967779.93547  22007541.9534                   22007537.1994
        46.0004         46.0004
 -18924112.86347 -14728391.71548  21372594.3134                   21372590.0984
        46.5004         48.7504
  -4383799.71646  -3299285.04742  24876251.7814                   24876245.5634
        39.0004         16.7504
 -23084903.74748 -17920042.99548  21218597.7274                   21218590.5044
        48.0004         49.5004
  -2569121.79746  -1887073.08242  24257107.8524                   24257101.3794
        37.5004         17.7504
 20  5 22  1 50  0.0000000  0 10G16G05G04G09G30G27G08G11G07G28
  -7382583.76546  -5503232.14043  23719494.2814                   23719485.9804
        41.0004         22.0004
  -3954765.62446  -3072086.61645  24418719.1884                   24418713.5554
        40.2504         34.0004
 -18090365.26547 -14064291.35445  22203606.4064                   22203601.7424
        44.5004         32.5004
 -26308343.03948 -20486364.63448  20555830.0704                   20555825.2154
        48.2504         53.2504
 -14783768.91147 -11504786.75346  22952188.1804                   22952184.3444
        43.2504         41.5004
 -16633531.74547 -12947432.41447  22012510.7584                   22012506.8014
        44.7504         46.0004
 -18962191.20947 -14758063.14848  21365348.2194                   21365344.2854
        47.0004         49.0004
  -4474172.10246  -3369705.17343  24859053.2424                   24859047.5594
        37.0004         18.2504
 -23128916.96547 -17954339.00548  21210222.3284                   21210215.2664
        47.7504         49.5004
  -2663542.99646  -1960648.05343  24239139.6564                   24239133.6954
        37.7504         18.2504
 20  5 22  1 50 30.0000000  0 10G16G05G04G09G30G27G08G11G07G28
  -7276067.40746  -5420232.40143  23739764.1884                   23739755.6564
        41.5004         21.0004
  -3970218.73446  -3084128.02645  24415779.3134                   24415772.6454
        39.7504         34.0004
 -17997541.48047 -13991961.17145  22221270.2584                   22221265.6374
        45.0004         32.0004
 -26269839.23248 -20456361.69048  20563157.0634                   20563152.1454
        49.0004         53.0004
 -14861584.95147 -11565422.61546  22937379.9844                   22937376.0234
        43.0004         41.7504
 -16606783.66147 -12926589.76647  22017600.6024                   22017596.6914
        45.0004         45.7504
 -18999686.77447 -14787280.46548  21358212.9384                   21358209.0434
        47.2504         49.0004
  -4564541.82546  -3440123.07143  24841857.3984                   24841850.7894
        38.5004         18.2504
 -23172742.70447 -17988488.93248  21201882.4924                   21201875.2704
        47.5004         49.5004
  -2757784.72446  -2034083.19843  24221206.6334                   24221199.7034
        37.0004         18.2504
 20  5 22  1 51  0.0000000  0 10G16G05G04G09G30G27G08G11G07G28
  -7169472.86546  -5337171.79343  23760048.1954                   23760040.4184
        41.5004         21.5004
  -3985127.74646  -3095745.45245  24412941.0084                   24412935.9264
        40.0004         34.0004
 -17904401.42747 -13919384.54645  22238994.3204                   22238989.2304
        44.5004         32.0004
 -26230790.91348 -20425934.46248  20570587.7664                   20570582.7504
        49.5004         53.2504
 -14939312.38547 -11625989.43646  22922589.1334                   22922585.0904
        43.0004         41.5004
 -16579401.32347 -12905252.88447  22022811.5084                   22022806.8444
        45.2504         45.7504
 -19036598.09247 -14816042.52648  21351189.0704                   21351184.9264
        47.0004         49.0004
  -4654906.12646  -3510536.80643  24824661.6174                   24824655.0044
        40.2504         20.2504
 -23216380.45548 -18022492.36848  21193578.2974                   21193571.4104
        48.0004         49.5004
  -2851846.17846  -2107377.84443  24203307.1334                   24203300.9184
        37.5004         19.2504
 20  5 22  1 51 30.0000000  0 10G16G05G04G09G30G27G08G11G07G28
  -7062802.29747  -5254051.91143  23780347.1024                   23780339.2894
        42.5004         22.0004
  -3999492.17346  -3106938.52645  24410208.1564                   24410202.2074
        40.0004         33.7504
 -17810946.93247 -13846562.88445  22256777.8284                   22256773.2274
        44.7504         31.7504
 -26191198.70748 -20395083.42148  20578121.8134                   20578117.0664
        49.0004         53.0004
 -15016950.25947 -11686486.46746  22907815.1804                   22907810.7854
        43.2504         41.0004
 -16551385.50847 -12883422.38847  22028143.0394                   22028138.4064
        45.5004         46.0004
 -19072923.80147 -14844348.26848  21344276.1484                   21344272.5944
        46.7504         49.0004
  -4745262.05346  -3580944.04942  24807466.9774                   24807461.4024
        39.2504         17.7504
 -23259828.82348 -18056348.23648  21185310.7034                   21185303.4694
        48.0004         49.5004
  -2945725.66146  -2180530.68942  24185442.3914                   24185436.1644
        36.5004         17.2504
 20  5 22  1 52  0.0000000  0 10G16G05G04G09G30G27G08G11G07G28
  -6956057.69146  -5170874.32943  23800659.6884                   23800652.3054
        41.5004         22.5004
  -4013311.54246  -3117706.88745  24407578.4694                   24407572.8054
        39.7504         33.7504
 -17717179.81047 -13773497.62345  22274621.1644                   22274616.9144
        44.7504         31.7504
 -26151063.26148 -20363809.06948  20585759.4924                   20585754.6414
        49.0004         53.2504
 -15094497.73547 -11746913.06346  22893058.1884                   22893054.4344
        43.2504         41.0004
 -16522737.05747 -12861098.93747  22033594.3364                   22033590.5234
        45.5004         46.0004
 -19108662.28147 -14872196.42748  21337475.7034                   21337471.8794
        46.5004         49.0004
  -4835606.46346  -3651342.22143  24790275.3054                   24790269.6214
        39.7504         21.0004
 -23303087.15048 -18090055.99448  21177078.8364                   21177071.7304
        48.0004         49.7504
  -3039422.05146  -2253540.86143  24167612.3444                   24167606.6844
        36.5004         19.5004
 20  5 22  1 52 30.0000000  0 10G16G05G04G09G30G27G08G11G07G28
  -6849241.33846  -5087640.85243  23820985.2114                   23820978.8484
        41.5004         22.5004
  -4026586.22146  -3128050.82245  24405052.0084                   24405046.1134
        40.5004         34.7504
 -17623102.24847 -13700190.47645  22292524.3984                   22292518.5944
        45.2504         32.5004
 -26110385.55048 -20332112.18248  20593500.4224                   20593495.3834
        49.0004         53.0004
 -15171954.15147 -11807268.71146  22878319.0634                   22878314.3954
        43.2504         41.0004
 -16493457.13147 -12838283.42347  22039166.6334                   22039161.8054
        45.7504         45.7504
 -19143811.46847 -14899585.39948  21330786.6414                   21330782.7114
        47.0004         49.2504
  -4925936.78546  -3721729.53443  24773085.6024                   24773079.9734
        38.7504         19.5004
 -23346154.47548 -18123614.94848  21168883.4844                   21168876.2894
        48.2504         50.0004
  -3132934.08746  -2326407.37743  24149817.5084                   24149811.2934
        37.2504         19.0004
 20  5 22  1 53  0.0000000  0 10G16G05G04G09G30G27G08G11G07G28
  -6742355.10746  -5004352.95243  23841325.0314                   23841318.9574
        40.2504         22.0004
  -4039315.89346  -3137970.06745  24402629.4064                   24402623.8794
        41.0004         33.5004
 -17528716.03947 -13626642.82745  22310484.8834                   22310480.0784
        45.2504         31.7504
 -26069166.25748 -20299993.28548  20601344.0784                   20601339.1994
        49.7504         53.0004
 -15249318.69747 -11867552.75146  22863597.0314                   22863592.2934
        43.2504         41.2504
 -16463546.66247 -12814976.57147  22044858.1414                   22044853.6174
        45.0004         45.7504
 -19178370.43747 -14926514.46148  21324210.3444                   21324206.3914
        47.7504         49.0004
  -5016250.30346  -3792103.63843  24755899.8914                   24755894.0864
        37.7504         20.5004
 -23389029.56348 -18157024.09948  21160724.8054                   21160717.1254
        48.5004         49.7504
  -3226260.62546  -2399129.35943  24132058.2664                   24132052.4614
        37.0004         20.5004
 20  5 22  1 53 30.0000000  0 10G16G05G04G09G30G27G08G11G07G28
  -6635401.19446  -4921012.32343  23861678.2274                   23861671.7384
        40.7504         22.5004
  -4051500.67046  -3147464.72845  24400311.1884                   24400305.6254
        40.5004         33.5004
 -17434023.48947 -13552856.45645  22328504.4844                   22328499.3554
        45.0004         33.0004
 -26027406.58248 -20267453.30648  20609290.4614                   20609285.6954
        49.2504         53.2504
 -15326590.88247 -11927764.84046  22848891.8204                   22848888.4964
        44.0004         41.0004
 -16433006.94647 -12791179.39847  22050669.6954                   22050665.1454
        45.0004         45.7504
 -19212337.38347 -14952982.20348  21317747.1884                   21317743.0634
        46.5004         49.2504
  -5106544.11146  -3862462.43543  24738717.1484                   24738711.2304
        37.7504         20.2504
 -23431711.93647 -18190283.08848  21152602.6334                   21152594.9304
        47.7504         50.0004
  -3319400.38346  -2471705.81943  24114335.0394                   24114328.3014
        38.0004         19.5004
 20  5 22  1 54  0.0000000  0 10G16G05G04G09G30G27G08G11G07G28
  -6528381.37946  -4837620.32443  23882043.2664                   23882036.3674
        40.5004         21.0004
  -4063140.23546  -3156534.51945  24398096.4384                   24398090.3484
        41.0004         33.0004
 -17339026.13947 -13478832.57445  22346581.6484                   22346577.2154
        44.0004         31.7504
 -25985106.84048 -20234492.49448  20617340.0084                   20617335.1134
        49.5004         53.0004
 -15403769.49347 -11987904.00946  22834206.0474                   22834201.5634
        44.5004         41.5004
 -16401838.67547 -12766892.44047  22056601.1564                   22056596.4884
        45.2504         45.7504
 -19245710.59647 -14978987.29748  21311396.0784                   21311392.3984
        47.0004         49.2504
  -5196814.99246  -3932803.35043  24721539.3134                   24721533.7894
        36.0004         18.2504
 -23474200.10747 -18223390.76148  21144517.2424                   21144510.0124
        47.7504         50.0004
  -3412351.97246  -2544135.57343  24096646.7274                   24096640.4024
        37.7504         20.2504
 20  5 22  1 54 30.0000000  0 10G16G05G04G09G30G27G08G11G07G28
  -6421298.90646  -4754179.50243  23902420.3054                   23902413.8874
        38.7504         20.7504
  -4074236.00746  -3165180.59145  24395985.3444                   24395979.3094
        41.0004         34.0004
 -17243727.12147 -13404573.62945  22364716.2664                   22364711.2544
        43.7504         31.2504
 -25942269.11248 -20201112.48248  20625491.4144                   20625487.0744
        49.5004         53.0004
 -15480854.84147 -12047970.51546  22819537.0314                   22819532.5984
        44.2504         41.7504
 -16370043.99747 -12742117.37847  22062650.6564                   22062646.8484
        45.0004         45.7504
 -19278489.83947 -15004529.56348  21305158.3054                   21305154.6254
        47.2504         49.2504
  -5287060.80346  -4003124.73143  24704367.3364                   24704361.1054
        38.0004         21.2504
 -23516494.45348 -18256347.39148  21136468.8594                   21136461.6914
        48.0004         49.7504
  -3505115.16746  -2616418.62943  24078994.5784                   24078987.8984
        38.0004         18.5004
 20  5 22  1 55  0.0000000  0 10G16G05G04G09G30G27G08G11G07G28
  -6314155.00646  -4670690.77343  23922808.6804                   23922802.8014
        39.2504         21.2504
  -4084786.93646  -3173402.11245  24393975.7034                   24393971.3594
        38.7504         34.0004
 -17148127.67147 -13330080.59045  22382908.7344                   22382903.0984
        44.5004         31.2504
 -25898893.51548 -20167313.33748  20633745.9384                   20633741.0904
        49.0004         53.2504
 -15557845.43447 -12107963.16547  22804886.3364                   22804881.6414
        43.7504         42.0004
 -16337623.33547 -12716854.53447  22068820.7344                   22068816.3404
        45.5004         45.7504
 -19310672.89647 -15029607.25748  21299033.8594                   21299030.5314
        47.0004         49.2504
  -5377278.18346  -4073423.95043  24687197.2814                   24687192.6644
        36.5004         19.7504
 -23558592.95348 -18289151.41248  21128457.6954                   21128450.4264
        48.0004         50.0004
  -3597687.98446  -2688553.28943  24061378.5554                   24061371.6134
        38.5004         20.2504
 20  5 22  1 55 30.0000000  0 10G16G05G04G09G30G27G08G11G07G28
  -6206951.34946  -4587155.53143  23943209.1564                   23943202.3164
        39.5004         20.7504
  -4094793.18646  -3181199.22845  24392072.7274                   24392066.9654
        38.5004         33.0004
 -17052229.75247 -13255354.97445  22401157.3364                   22401152.3484
        44.2504         31.2504
 -25854980.87148 -20133095.72848  20642102.1334                   20642097.5314
        48.5004         53.0004
 -15634740.38647 -12167881.29847  22790253.4144                   22790249.5704
        44.0004         42.0004
 -16304577.71247 -12691104.70647  22075108.7974                   22075104.4304
        45.7504         45.5004
 -19342258.31147 -15054219.26248  21293023.7504                   21293019.8954
        47.2504         49.2504
  -5467464.12946  -4143698.70043  24670035.5944                   24670030.5004
        38.5004         18.5004
 -23600494.68447 -18321802.11748  21120484.1334                   21120476.7544
        46.7504         49.7504
  -3690069.29746  -2760538.74543  24043799.2504                   24043791.8914
        38.2504         19.5004
 20  5 22  1 56  0.0000000  0 10G16G05G04G09G30G27G08G11G07G28
  -6099690.69046  -4503575.83943  23963620.2734                   23963613.5124
        39.5004         20.2504
  -4104255.42246  -3188572.41645  24390273.5394                   24390266.6564
        41.7504         33.2504
 -16956035.95647 -13180398.79845  22419463.0704                   22419456.9654
        44.2504         31.5004
 -25810532.73248 -20098460.83748  20650560.4694                   20650555.6454
        48.0004         53.2504
 -15711539.42747 -12227724.69547  22775639.5784                   22775635.5084
        43.5004         42.2504
 -16270908.93147 -12664869.29847  22081515.6884                   22081511.3874
        44.7504         45.7504
 -19373245.43647 -15078365.06548  21287126.8524                   21287123.1994
        46.7504         49.2504
  -5557616.04346  -4213946.84643  24652880.3524                   24652875.7584
        38.0004         21.5004
 -23642199.35947 -18354299.26448  21112548.2424                   21112540.6374
        47.0004         49.7504
  -3782258.49646  -2832374.47343  24026255.4694                   24026248.8874
        37.5004         18.5004
 20  5 22  1 56 30.0000000  0 10G16G05G04G09G30G27G08G11G07G28
  -5992374.42746  -4419952.84143  23984042.4774                   23984035.6684
        39.5004         20.5004
  -4113173.20946  -3195521.38445  24388574.7274                   24388569.6954
        38.5004         33.2504
 -16859547.68647 -13105213.17645  22437823.7114                   22437818.6764
        44.0004         31.2504
 -25765549.42648 -20063408.94348  20659120.2894                   20659115.6954
        48.0004         53.0004
 -15788241.23147 -12287492.31446  22761043.2114                   22761039.4344
        43.0004         41.7504
 -16236617.54847 -12638148.74047  22088041.0394                   22088037.0904
        45.0004         45.5004
 -19403632.17047 -15102043.03148  21281344.5704                   21281340.6484
        46.5004         49.5004
  -5647730.64246  -4284166.03943  24635733.1484                   24635726.2854
        40.7504         19.7504
 -23683705.30847 -18386641.56948  21104649.6724                   21104642.2154
        46.7504         49.7504
  -3874253.70046  -2904059.01943  24008749.6254                   24008743.0204
        37.0004         18.2504
 20  5 22  1 57  0.0000000  0 10G16G05G04G09G30G27G08G11G07G28
  -5885005.12946  -4336288.56043  24004473.7814                   24004466.9654
        39.2504         19.0004
  -4121547.17946  -3202046.57345  24386982.7734                   24386976.0124
        40.2504         33.0004
 -16762767.65647 -13029800.20945  22456240.8594                   22456235.4104
        44.7504         31.0004
 -25720032.67448 -20027941.36948  20667782.0164                   20667777.4104
        48.5004         52.7504
 -15864845.66847 -12347184.06446  22746465.7584                   22746461.9064
        43.0004         41.7504
 -16201705.50947 -12610944.55647  22094684.7344                   22094680.4414
        45.7504         45.5004
 -19433417.67747 -15125252.50848  21275676.5394                   21275672.5354
        47.0004         49.2504
  -5737805.41746  -4354354.20443  24618592.2114                   24618586.2664
        40.2504         19.2504
 -23725012.24647 -18418828.79848  21096788.9144                   21096782.0824
        47.0004         49.7504
  -3966054.36046  -2975592.01843  23991280.6094                   23991274.0044
        37.5004         19.2504
 20  5 22  1 57 30.0000000  0 10G16G05G04G09G30G27G08G11G07G28
  -5777584.50046  -4252584.19343  24024915.1804                   24024908.8984
        38.2504         20.0004
  -4129376.93446  -3208147.70945  24385492.1484                   24385486.1954
        40.0004         32.7504
 -16665697.51047 -12954161.17845  22474711.6414                   22474707.4964
        44.5004         32.0004
 -25673982.98448 -19992058.52348  20676544.9384                   20676540.3554
        48.5004         52.7504
 -15941351.42547 -12406798.92346  22731907.3914                   22731903.1804
        43.2504         41.7504
 -16166173.62947 -12583257.38147  22101446.5704                   22101441.7664
        45.7504         45.5004
 -19462600.80547 -15147992.59948  21270123.1334                   21270119.4774
        46.5004         49.2504
  -5827837.42646  -4424508.96143  24601459.5554                   24601453.9384
        40.5004         19.7504
 -23766118.75447 -18450859.84348  21088966.9224                   21088959.5664
        47.0004         50.0004
  -4057658.77946  -3046972.05143  23973848.4924                   23973843.0704
        38.0004         20.2504
 20  5 22  1 58  0.0000000  0 10G16G05G04G09G30G27G08G11G07G28
  -5670114.48446  -4168841.40143  24045365.9454                   24045360.1094
        39.0004         20.2504
  -4136663.39246  -3213825.48045  24384105.6564                   24384099.3524
        39.2504         33.2504
 -16568339.49647 -12878297.83245  22493239.1884                   22493234.3874
        45.0004         31.2504
 -25627401.63448 -19955761.39048  20685409.3674                   20685404.7934
        48.0004         52.7504
 -16017757.92947 -12466336.44747  22717367.5394                   22717363.5704
        44.2504         42.2504
 -16130023.40547 -12555088.37647  22108325.6564                   22108320.8594
        46.0004         45.5004
 -19491179.96847 -15170262.07148  21264684.9694                   21264681.2894
        46.7504         49.2504
  -5917823.59346  -4494628.15043  24584336.0234                   24584328.9774
        39.5004         18.5004
 -23807023.92247 -18482734.00348  21081182.9844                   21081175.6804
        46.7504         50.0004
  -4149066.30046  -3118198.68743  23956454.7194                   23956447.8014
        39.0004         21.0004
 20  5 22  1 58 30.0000000  0 10G16G05G04G09G30G27G08G11G07G28
  -5562597.17146  -4085061.74243  24065826.8984                   24065819.9184
        39.5004         20.0004
  -4143406.41946  -3219079.83645  24382821.3984                   24382816.3524
        39.5004         32.5004
 -16470695.51047 -12802211.65745  22511819.9454                   22511814.7774
        44.5004         31.0004
 -25580289.54948 -19919050.70148  20694374.0004                   20694369.6764
        48.2504         52.7504
 -16094064.26947 -12525795.91347  22702847.3834                   22702842.5514
        44.5004         42.2504
 -16093256.02447 -12526438.47947  22115322.1484                   22115317.6954
        46.2504         45.5004
 -19519153.84147 -15192059.88148  21259361.3364                   21259357.6914
        46.7504         49.2504
  -6007761.19746  -4564709.31443  24567221.0314                   24567216.0744
        38.7504         19.5004
 -23847726.81047 -18514450.53348  21073437.7114                   21073430.3954
        46.7504         50.0004
  -4240275.51646  -3189270.81843  23939098.1954                   23939091.2384
        39.5004         21.2504
 20  5 22  1 59  0.0000000  0 10G16G05G04G09G30G27G08G11G07G28
  -5455034.81646  -4001247.00643  24086295.3284                   24086288.5354
        39.2504         21.2504
  -4149606.76346  -3223911.26645  24381641.6414                   24381636.6254
        39.2504         33.0004
 -16372768.35947 -12725904.83445  22530454.4224                   22530450.2854
        45.0004         31.0004
 -25532648.46748 -19881927.80948  20703440.1024                   20703435.2734
        49.0004         52.7504
 -16170270.20347 -12585177.15647  22688345.5474                   22688340.8954
        44.5004         42.2504
 -16055873.50147 -12497309.23847  22122435.8204                   22122431.5354
        45.7504         45.5004
 -19546521.92747 -15213385.66448  21254153.6174                   21254149.8404
        46.2504         49.2504
  -6097647.25546  -4634750.42543  24550116.2664                   24550111.1764
        38.7504         21.7504
 -23888226.80647 -18546009.01048  21065730.7734                   21065723.4304
        46.7504         50.0004
  -4331285.88446  -3260187.99443  23921779.6564                   23921772.9144
        39.2504         21.5004
 20  5 22  1 59 30.0000000  0 10G16G05G04G09G30G27G08G11G07G28
  -5347428.31746  -3917397.82243  24106771.2504                   24106765.0904
        38.5004         19.2504
  -4155263.31346  -3228319.01745  24380566.4224                   24380560.0474
        40.5004         33.0004
 -16274558.81547 -12649377.96245  22549143.7194                   22549138.5664
        44.5004         30.2504
 -25484478.22148 -19844392.57048  20712606.6564                   20712601.9614
        48.7504         52.7504
 -16246373.74047 -12644478.60947  22673863.9844                   22673858.8984
        45.0004         42.7504
 -16017875.90547 -12467700.72547  22129666.4454                   22129662.1884
        46.0004         45.5004
 -19573281.68347 -15234237.41348  21249061.6024                   21249057.1524
        46.7504         49.2504
  -6187478.32546  -4704748.58943  24533021.7664                   24533017.2114
        37.5004         21.0004
 -23928521.60447 -18577407.55848  21058062.4844                   21058055.4574
        47.5004         50.0004
  -4422095.12446  -3330948.45643  23904498.8134                   23904492.4144
        39.2504         20.5004
 20  5 22  2  0  0.0000000  0 10G16G05G04G09G30G27G08G11G07G28
  -5239780.59446  -3833516.56843  24127257.3284                   24127249.0664
        39.5004         19.2504
  -4160377.55746  -3232304.15945  24379592.9144                   24379587.1884
        38.5004         33.5004
 -16176069.81647 -12572633.32045  22567885.2194                   22567880.5434
        43.7504         30.7504
 -25435780.70448 -19806446.48748  20721873.5634                   20721868.7854
        48.5004         52.7504
 -16322374.79847 -12703700.20547  22659401.0864                   22659396.4384
        44.5004         42.7504
 -15979265.45147 -12437614.66447  22137013.9454                   22137009.5124
        46.2504         45.5004
 -19599432.97847 -15254615.03348  21244084.7894                   21244081.2894
        47.0004         49.5004
  -6277251.74246  -4774701.87843  24515939.2894                   24515933.6724
        38.2504         21.2504
 -23968611.69447 -18608646.59848  21050434.1884                   21050426.7814
        47.2504         50.0004
  -4512702.70646  -3401551.77643  23887256.6174                   23887250.0784
        38.5004         19.7504
 20  5 22  2  0 30.0000000  0 10G16G05G04G09G30G27G08G11G07G28
  -5132093.43946  -3749604.60143  24147750.2034                   24147742.2034
        40.0004         19.7504
  -4164949.31346  -3235866.58345  24378723.5474                   24378716.8794
        40.7504         33.0004
 -16077303.30547 -12495672.45845  22586679.7114                   22586675.1644
        43.5004         30.2504
 -25386556.93348 -19768090.32848  20731240.2114                   20731235.7734
        49.0004         53.0004
 -16398272.39647 -12762841.17947  22644957.7034                   22644953.6524
        44.5004         43.0004
 -15940043.44247 -12407052.06647  22144477.4774                   22144473.0704
        46.5004         45.5004
 -19624974.48547 -15274517.50548  21239224.1414                   21239220.8674
        47.5004         49.5004
  -6366964.65246  -4844608.06743  24498866.4534                   24498861.4184
        39.7504         22.2504
 -24008495.54647 -18639724.92548  21042844.4844                   21042836.8634
        47.0004         50.0004
  -4603107.46946  -3471997.03743  23870052.5634                   23870046.5744
        37.5004         19.7504
 20  5 22  2  1  0.0000000  0 10G16G05G04G09G30G27G08G11G07G28
  -5024369.27346  -3665663.72743  24168249.2114                   24168242.1914
        39.2504         18.5004
  -4168979.97146  -3239007.38845  24377956.1254                   24377950.4384
        39.5004         32.7504
 -15978262.18347 -12418497.59745  22605526.5704                   22605522.3134
        43.7504         30.5004
 -25336808.88648 -19729325.63548  20740707.3674                   20740702.5864
        49.5004         52.7504
 -16474066.54347 -12821901.53447  22630534.6564                   22630530.8634
        44.5004         43.0004
 -15900212.12947 -12376014.68547  22152057.8594                   22152052.6644
        46.0004         45.2504
 -19649905.80248 -15293944.49548  21234479.8674                   21234476.6604
        48.0004         49.5004
  -6456614.85646  -4914465.35243  24481807.8364                   24481801.7664
        40.7504         22.7504
 -24048172.81747 -18670642.28248  21035294.0084                   21035286.5984
        47.5004         50.2504
  -4693309.25146  -3542284.13143  23852887.9224                   23852881.5664
        38.0004         20.0004
 20  5 22  2  1 30.0000000  0 10G16G05G04G09G30G27G08G11G07G28
  -4916609.32046  -3581694.99443  24188754.5084                   24188747.2304
        39.0004         19.7504
  -4172469.26046  -3241726.34645  24377291.6254                   24377286.1294
        38.7504         33.0004
 -15878947.83547 -12341109.84345  22624425.9614                   22624421.0394
        44.5004         30.0004
 -25286536.96848 -19690152.74348  20750273.8834                   20750268.9694
        49.5004         52.5004
 -16549755.63347 -12880880.02747  22616131.7424                   22616127.6564
        44.7504         43.0004
 -15859772.21147 -12344503.06547  22159752.6564                   22159747.9774
        46.2504         45.2504
 -19674225.39647 -15312894.82248  21229852.3594                   21229848.6524
        47.2504         49.5004
  -6546198.76146  -4984271.02143  24464760.0004                   24464754.9654
        40.2504         22.5004
 -24087641.64447 -18701397.21848  21027783.0394                   21027775.8984
        47.2504         50.2504
  -4783306.40446  -3612411.77043  23835762.6254                   23835756.4734
        38.0004         20.7504
 20  5 22  2  2  0.0000000  0 10G16G05G04G09G30G27G08G11G07G28
  -4808815.21346  -3497699.68443  24209267.5704                   24209259.4924
        38.2504         19.0004
  -4175417.44846  -3244023.64345  24376730.8834                   24376724.7704
        40.0004         32.7504
 -15779362.39447 -12263510.85145  22643376.7194                   22643371.4574
        43.7504         30.5004
 -25235742.45348 -19650572.62548  20759940.0164                   20759935.3014
        49.0004         52.5004
 -16625338.84547 -12939776.02947  22601748.5784                   22601744.8094
        44.0004         43.0004
 -15818725.25247 -12312518.43047  22167563.8524                   22167559.1914
        45.7504         45.0004
 -19697932.24847 -15331367.69148  21225340.7664                   21225337.3524
        47.5004         49.5004
  -6635713.18346  -5054022.51143  24447725.0314                   24447720.7704
        39.0004         21.5004
 -24126901.29347 -18731989.17048  21020312.5234                   21020305.0044
        47.5004         50.2504
  -4873097.32746  -3682378.76543  23818675.7194                   23818669.7274
        38.5004         20.5004
 20  5 22  2  2 30.0000000  0 10G16G05G04G09G30G27G08G11G07G28
  -4700989.50946  -3413679.71643  24229786.5004                   24229778.6454
        40.0004         20.0004
  -4177825.12546  -3245899.76445  24376272.3284                   24376266.5554
        39.2504         33.0004
 -15679508.27947 -12185702.50545  22662377.7664                   22662373.4884
        43.5004         30.7504
 -25184426.81848 -19610586.44348  20769704.4924                   20769699.7504
        49.2504         52.2504
 -16700815.57847 -12998589.06447  22587386.2114                   22587381.7274
        44.5004         43.2504
 -15777072.98047 -12280062.12047  22175489.8674                   22175485.4574
        45.7504         45.2504
 -19721025.63747 -15349362.52748  21220946.8444                   21220943.1334
        47.5004         49.5004
  -6725155.44346  -5123717.83243  24430706.4534                   24430699.7664
        39.5004         20.7504
 -24165950.66247 -18762417.26148  21012881.2194                   21012874.1174
        47.2504         50.2504
  -4962681.49346  -3752184.58643  23801628.1644                   23801621.8834
        38.7504         20.7504
 20  5 22  2  3  0.0000000  0 10G16G05G04G09G30G27G08G11G07G28
  -4593133.96546  -3329636.52543  24250309.7974                   24250303.2154
        38.2504         20.5004
  -4179692.91446  -3247355.20345  24375918.6254                   24375910.7854
        40.2504         33.0004
 -15579387.46947 -12107686.33145  22681430.3674                   22681425.8834
        43.5004         30.5004
 -25132591.14748 -19570195.04148  20779568.4534                   20779563.8754
        48.2504         52.2504
 -16776184.85847 -13057318.37147  22573043.7424                   22573039.5474
        45.0004         43.2504
 -15734816.85647 -12247135.28347  22183530.7114                   22183526.4924
        45.0004         45.0004
 -19743503.89248 -15366878.03748  21216669.3054                   21216665.2934
        48.0004         49.5004
  -6814522.43746  -5193354.49643  24413698.6094                   24413693.4494
        38.5004         19.2504
 -24204789.13947 -18792681.01548  21005490.9694                   21005483.5434
        47.0004         50.2504
  -5052057.78046  -3821828.46143  23784620.3594                   23784614.1294
        39.0004         21.7504
 20  5 22  2  3 30.0000000  0 10G16G05G04G09G30G27G08G11G07G28
  -4485250.40646  -3245571.50443  24270839.3054                   24270833.5984
        39.0004         19.7504
  -4181021.03846  -3248390.10845  24375665.3054                   24375658.7854
        39.7504         33.5004
 -15479002.09147 -12029464.00645  22700533.5704                   22700528.0274
        43.7504         30.2504
 -25080236.66348 -19529399.35948  20789531.5554                   20789526.8834
        48.2504         52.5004
 -16851445.71647 -13115963.19747  22558722.2734                   22558717.6684
        44.2504         43.0004
 -15691958.39147 -12213739.07547  22191686.5314                   22191682.2384
        45.5004         45.0004
 -19765366.56348 -15383913.88148  21212508.6254                   21212505.1914
        48.0004         49.5004
  -6903811.29046  -5262930.24543  24396708.3204                   24396702.6884
        37.5004         19.5004
 -24243415.25047 -18822779.29548  20998140.4064                   20998133.4694
        47.2504         50.5004
  -5141225.10646  -3891309.51843  23767652.8364                   23767646.8324
        39.7504         21.7504
 20  5 22  2  4  0.0000000  0 10G16G05G04G09G30G27G08G11G07G28
  -4377340.25046  -3161485.78143  24291374.2034                   24291368.4104
        38.7504         18.5004
  -4181810.09746  -3249004.99145  24375514.4694                   24375508.9884
        39.0004         33.5004
 -15378354.40647 -11951037.28044  22719685.5314                   22719680.8524
        43.2504         29.2504
 -25027364.84748 -19488200.56048  20799592.9454                   20799587.9304
        48.0004         52.5004
 -16926597.45847 -13174522.98547  22544421.4844                   22544416.4614
        45.0004         43.0004
 -15648499.32947 -12179874.88447  22199956.7274                   22199952.2584
        45.0004         45.0004
 -19786612.50147 -15400469.14748  21208465.6644                   21208462.2384
        47.7504         49.5004
  -6993019.09046  -5332442.80343  24379732.8984                   24379728.0944
        39.2504         20.5004
 -24281828.36147 -18852711.59948  20990830.8754                   20990823.5634
        47.0004         50.2504
  -5230182.12546  -3960626.64643  23750724.9534                   23750718.6884
        38.7504         22.0004
 20  5 22  2  4 30.0000000  0 10G16G05G04G09G30G27G08G11G07G28
  -4269405.82246  -3077381.06443  24311912.5234                   24311907.2504
        37.5004         18.5004
  -4182060.52246  -3249200.12545  24375467.5704                   24375461.3134
        39.0004         33.7504
 -15277446.22147 -11872407.59044  22738888.3754                   22738883.0904
        43.2504         29.0004
 -24973976.55548 -19446599.32148  20809752.0864                   20809747.5084
        48.0004         52.5004
 -17001638.87247 -13232996.81347  22530140.9614                   22530136.8014
        44.7504         43.0004
 -15604440.92747 -12145543.66647  22208340.2274                   22208336.3484
        45.5004         45.0004
 -19807240.72447 -15416543.07548  21204539.8914                   21204536.5124
        47.5004         49.5004
  -7082142.45346  -5401889.57743  24362773.3984                   24362767.4804
        39.7504         21.5004
 -24320026.97747 -18882476.76048  20983561.6094                   20983554.1374
        47.0004         50.2504
  -5318928.03846  -4029779.31843  23733837.4064                   23733831.0904
        39.0004         21.5004
 20  5 22  2  5  0.0000000  0 10G16G05G04G09G30G27G08G11G07G28
  -4161449.01946  -2993259.00843  24332456.7034                   24332450.4694
        38.0004         18.5004
  -4181773.01546  -3248976.11845  24375521.4384                   24375515.6094
        39.0004         33.5004
 -15176280.27547 -11793577.02644  22758138.9614                   22758134.4964
        43.5004         29.5004
 -24920073.73648 -19404597.15748  20820009.2814                   20820004.8634
        48.0004         52.5004
 -17076569.64347 -13291384.41947  22515882.3134                   22515878.0864
        44.7504         42.7504
 -15559785.41547 -12110747.17647  22216838.4774                   22216833.9774
        45.2504         44.5004
 -19827250.59948 -15432135.18648  21200732.7274                   21200728.5634
        48.5004         49.5004
  -7171178.94646  -5471268.69643  24345829.7274                   24345824.8914
        39.5004         21.7504
 -24358010.55547 -18912074.36448  20976333.8204                   20976326.3404
        47.0004         50.5004
  -5407461.98346  -4098766.78143  23716989.5234                   23716983.2464
        38.2504         22.2504
 20  5 22  2  5 30.0000000  0 10G16G05G04G09G30G27G08G11G07G28
  -4053471.37146  -2909120.66643  24353004.7974                   24352998.1764
        39.2504         19.2504
  -4180947.85246  -3248333.16145  24375679.4844                   24375672.9104
        39.5004         33.7504
 -15074858.54247 -11714547.15345  22777439.8594                   22777434.6214
        43.5004         30.5004
 -24865657.31247 -19362194.77348  20830364.5004                   20830359.6724
        47.7504         52.5004
 -17151388.65847 -13349684.94347  22501644.7584                   22501640.6054
        45.2504         43.2504
 -15514534.20647 -12075486.50047  22225449.2424                   22225445.1174
        45.2504         44.5004
 -19846641.63648 -15447245.07748  21197042.4694                   21197038.2424
        48.2504         49.5004
  -7260125.51446  -5540577.67443  24328904.0474                   24328899.3674
        40.0004         22.0004
 -24395777.80247 -18941503.39648  20969147.1094                   20969139.6684
        46.7504         50.2504
  -5495782.80546  -4167588.19243  23700181.9614                   23700176.0234
        38.7504         21.5004
 20  5 22  2  6  0.0000000  0 10G16G05G04G09G30G27G08G11G07G28
  -3945475.09246  -2824967.77243  24373555.1884                   24373549.2194
        38.5004         18.5004
  -4179586.02246  -3247272.01545  24375937.8674                   24375931.7544
        39.5004         34.0004
 -14973183.20547 -11635319.66845  22796787.5704                   22796783.1174
        43.5004         30.5004
 -24810729.05048 -19319393.55048  20840817.2274                   20840812.7584
        48.0004         52.5004
 -17226095.07747 -13407897.72347  22487428.7584                   22487424.5314
        44.7504         43.7504
 -15468689.02447 -12039762.99447  22234173.4844                   22234169.1174
        45.0004         44.7504
 -19865412.75148 -15461871.91148  21193470.5784                   21193466.7854
        48.0004         49.5004
  -7348978.87446  -5609814.02543  24311996.7034                   24311990.9494
        39.7504         23.7504
 -24433327.84847 -18970763.15348  20962001.2034                   20961994.0904
        47.5004         50.5004
  -5583889.77746  -4236242.97543  23683416.3054                   23683409.8634
        39.2504         20.7504
 20  5 22  2  6 30.0000000  0 10G16G05G04G09G30G27G08G11G07G28
  -3837461.83746  -2740801.72543  24394110.8054                   24394103.5354
        38.2504         21.5004
  -4177687.93846  -3245793.03545  24376298.5704                   24376293.6844
        38.7504         35.2504
 -14871256.52046 -11555896.31244  22816183.8524                   22816179.2814
        41.5004         27.2504
 -24755290.20247 -19276194.46448  20851366.7194                   20851362.4184
        47.0004         51.0004
 -17300687.98847 -13466022.07647  22473234.2274                   22473229.7194
        45.2504         44.5004
 -15422251.63647 -12003578.05347  22243010.2894                   22243005.9534
        45.2504         45.5004
 -19883562.95647 -15476014.92448  21190016.7344                   21190012.9104
        47.5004         49.0004
  -7437736.27346  -5678975.65243  24295105.9304                   24295101.0164
        39.7504         20.7504
 -24470659.52247 -18999852.78448  20954897.4384                   20954889.7664
        47.2504         50.5004
  -5671781.67146  -4304730.17643  23666691.2034                   23666684.5314
        37.5004         18.5004
 20  5 22  2  7  0.0000000  0 10G16G05G04G09G30G27G08G11G07G28
  -3729433.32646  -2656623.74543  24414669.1414                   24414660.5784
        40.7504         20.5004
  -4175254.39346  -3243896.78645  24376762.5164                   24376756.3594
        39.5004         35.5004
 -14769080.52346 -11476278.69444  22835626.9534                   22835622.3594
        41.5004         27.0004
 -24699342.00547 -19232598.50248  20862013.1884                   20862009.0234
        46.7504         51.0004
 -17375166.36147 -13524057.16947  22459061.2894                   22459056.7504
        45.0004         44.5004
 -15375223.65747 -11966932.87847  22251959.2194                   22251954.8754
        45.5004         45.5004
 -19901091.59947 -15489673.59748  21186681.3834                   21186676.8484
        47.7504         49.2504
  -7526394.47846  -5748059.92143  24278235.4614                   24278229.0084
        40.7504         19.5004
 -24507771.87747 -19028771.50548  20947835.5164                   20947828.1484
        47.5004         51.0004
  -5759457.50846  -4373048.99543  23650007.1094                   23650000.5864
        38.5004         19.0004
 20  5 22  2  7 30.0000000  0 10G16G05G04G09G30G27G08G11G07G28
  -3621390.97246  -2572434.96343  24435227.3524                   24435220.3674
        39.2504         20.2504
  -4172286.21346  -3241583.94045  24377327.0314                   24377320.9184
        40.0004         35.5004
 -14666657.37246 -11396468.50444  22855117.8754                   22855113.2274
        40.5004         26.7504
 -24642885.93247 -19188606.78448  20872756.4844                   20872752.3874
        47.0004         51.0004
 -17449529.35747 -13582002.35747  22444910.9304                   22444906.0044
        45.0004         44.5004
 -15327606.85947 -11929828.88847  22261020.7114                   22261016.4264
        45.5004         45.5004
 -19917997.86747 -15502847.31048  21183463.7344                   21183459.8954
        47.5004         49.5004
  -7614950.42646  -5817064.53642  24261383.1334                   24261377.5744
        38.7504         16.7504
 -24544663.56247 -19057518.28348  20940814.9224                   20940807.6134
        47.7504         51.0004
  -5846916.27146  -4441198.67943  23633364.4924                   23633357.6844
        38.2504         19.7504
 20  5 22  2  8  0.0000000  0 10G16G05G04G09G30G27G08G11G07G28
  -3513337.15446  -2488237.25642  24455789.1254                   24455782.2974
        37.0004         17.2504
  -4168783.68146  -3238854.69345  24377993.4614                   24377987.8364
        40.0004         35.0004
 -14563989.49046 -11316467.61244  22874655.2424                   22874650.1604
        41.5004         26.0004
 -24585923.52647 -19144220.52148  20883596.6564                   20883591.6024
        47.7504         51.0004
 -17523776.17747 -13639857.01547  22430781.6564                   22430777.2114
        45.5004         44.7504
 -15279403.19447 -11892267.60247  22270193.5704                   22270189.1764
        45.5004         45.5004
 -19934281.08447 -15515535.52048  21180365.5704                   21180361.1334
        47.7504         49.2504
  -7703401.62546  -5885987.48443  24244551.2504                   24244545.8284
        39.2504         20.5004
 -24581333.81348 -19086092.51948  20933836.8364                   20933829.5594
        48.0004         50.7504
  -5934157.03546  -4509178.49743  23616762.5474                   23616756.0784
        38.2504         19.5004
 20  5 22  2  8 30.0000000  0 10G16G05G04G09G30G27G08G11G07G28
  -3405273.43346  -2404031.83242  24476351.7974                   24476346.0864
        36.7504         17.7504
  -4164747.33146  -3235709.50545  24378761.3754                   24378755.9694
        39.7504         34.7504
 -14461078.78046 -11236277.49444  22894238.0944                   22894233.2384
        41.5004         25.0004
 -24528455.96647 -19099440.62448  20894531.5554                   20894527.3404
        47.0004         51.0004
 -17597905.57647 -13697620.17447  22416675.2814                   22416670.9694
        45.0004         44.5004
 -15230614.07847 -11854250.11747  22279477.4454                   22279473.2234
        45.2504         44.7504
 -19949940.49148 -15527737.64548  21177385.4534                   21177381.4224
        48.2504         49.5004
  -7791744.55846  -5954826.04343  24227740.4064                   24227734.0904
        39.2504         18.5004
 -24617781.35748 -19114493.21048  20926901.1484                   20926893.8164
        48.0004         51.0004
  -6021178.51746  -4576987.44943  23600203.3444                   23600196.4494
        38.5004         19.5004
 20  5 22  2  9  0.0000000  0 10G16G05G04G09G30G27G08G11G07G28
  -3297201.73846  -2319820.20043  24496918.6804                   24496911.7934
        37.0004         19.2504
  -4160178.54946  -3232149.42245  24379630.0234                   24379625.3364
        39.2504         34.7504
 -14357927.76746 -11155900.10744  22913866.7194                   22913862.1254
        40.5004         26.0004
 -24470485.03747 -19054268.49748  20905563.2734                   20905558.6954
        47.0004         51.0004
 -17671916.95247 -13755291.36047  22402591.5634                   22402587.0234
        45.2504         44.0004
 -15181241.70247 -11815778.16247  22288872.3754                   22288868.2384
        43.7504         44.7504
 -19964976.00548 -15539453.61648  21174524.6804                   21174520.5784
        48.0004         49.7504
  -7879976.50846  -6023578.20743  24210949.3754                   24210944.3714
        40.0004         19.5004
 -24654005.28148 -19142719.65748  20920007.8914                   20920000.7894
        48.2504         50.5004
  -6107980.12546  -4644625.02543  23583685.5314                   23583679.0124
        39.0004         21.5004
 20  5 22  2  9 30.0000000  0 10G16G05G04G09G30G27G08G11G07G28
  -3189123.16646  -2235603.20943  24517484.7504                   24517478.9614
        37.5004         19.2504
  -4155078.12446  -3228175.13545  24380602.0234                   24380595.9304
        40.7504         34.7504
 -14254538.79846 -11075337.32444  22933540.9224                   22933536.5434
        40.0004         26.2504
 -24412012.37147 -19008705.40848  20916690.7424                   20916686.1994
        47.0004         50.7504
 -17745809.58147 -13812870.03047  22388530.0084                   22388525.7194
        46.0004         43.5004
 -15131288.05047 -11776853.24947  22298378.7894                   22298374.1414
        45.7504         44.5004
 -19979386.46548 -15550682.53948  21171781.8364                   21171778.1994
        48.2504         49.7504
  -7968094.31646  -6092241.39743  24194181.5634                   24194175.9804
        39.0004         20.0004
 -24690004.95748 -19170771.37448  20913157.3984                   20913150.3134
        48.5004         50.5004
  -6194561.23146  -4712090.80443  23567209.9924                   23567202.9184
        39.5004         22.7504
 20  5 22  2 10  0.0000000  0 10G16G05G04G09G30G27G08G11G07G28
  -3081040.20746  -2151382.75843  24538053.1484                   24538046.6454
        36.5004         18.5004
  -4149446.20546  -3223786.64445  24381672.7504                   24381667.4774
        39.0004         34.7504
 -14150913.82146 -10994590.65444  22953261.0234                   22953255.8554
        40.7504         26.2504
 -24353039.27847 -18962752.36948  20927912.8054                   20927908.1604
        47.0004         51.0004
 -17819582.19347 -13870355.18547  22374491.7814                   22374486.9774
        46.5004         45.0004
 -15080754.77947 -11737476.68047  22307994.8364                   22307990.3054
        44.7504         44.7504
 -19993171.90548 -15561424.42748  21169159.0864                   21169154.7934
        49.0004         49.7504
  -8056095.15847  -6160813.38143  24177436.6804                   24177430.7304
        42.0004         21.5004
 -24725778.67548 -19198647.00848  20906349.9924                   20906342.6844
        48.0004         51.0004
  -6280920.58746  -4779383.79443  23550775.5234                   23550769.6884
        38.7504         20.7504
 20  5 22  2 10 30.0000000  0 10G16G05G04G09G30G27G08G11G07G28
  -2972954.32446  -2067160.03343  24558621.8134                   24558614.6214
        39.0004         19.0004
  -4143283.91146  -3218984.87345  24382845.3834                   24382839.8094
        39.7504         33.5004
 -14047055.26247 -10913661.99744  22973024.3284                   22973020.0664
        43.0004         28.2504
 -24293567.39248 -18916410.67948  20939229.8204                   20939225.0744
        48.0004         51.7504
 -17893234.00547 -13927746.19247  22360476.4534                   22360471.7504
        45.7504         44.2504
 -15029643.92247 -11697650.04547  22317720.8674                   22317716.1604
        45.2504         43.5004
 -20006331.14148 -15571678.36248  21166654.5004                   21166650.7234
        48.0004         49.7504
  -8143975.74746  -6229291.70943  24160713.2894                   24160707.1094
        41.2504         22.5004
 -24761325.83147 -19226346.09748  20899585.3594                   20899578.2624
        47.7504         50.5004
  -6367057.24046  -4846503.28043  23534384.6644                   23534378.9454
        39.5004         22.0004
 20  5 22  2 11  0.0000000  0 10G16G05G04G09G30G27G08G11G07G28
  -2864867.14746  -1982936.32643  24579189.0864                   24579182.4804
        38.2504         18.5004
  -4136592.07046  -3213770.49245  24384120.2584                   24384113.6214
        41.5004         34.7504
 -13942965.11047 -10832552.85744  22992832.4304                   22992827.6484
        42.5004         28.0004
 -24233598.02948 -18869681.34048  20950641.8444                   20950636.9224
        48.0004         52.0004
 -17966763.87647 -13985042.18547  22346484.0864                   22346479.6914
        44.7504         44.5004
 -14977957.13147 -11657374.63247  22327556.7974                   22327552.1914
        44.5004         44.0004
 -20018863.47847 -15581443.80848  21164270.0084                   21164265.8244
        47.5004         50.0004
  -8231733.18846  -6297674.08543  24144013.1094                   24144007.7114
        40.5004         22.5004
 -24796644.69547 -19253867.30348  20892864.6174                   20892857.1334
        47.2504         50.5004
  -6452970.34646  -4913448.58043  23518035.7974                   23518029.8674
        40.0004         22.2504
 20  5 22  2 11 30.0000000  0 10G16G05G04G09G30G27G08G11G07G28
  -2756780.14345  -1898712.76843  24599755.3444                   24599750.4804
        35.0004         18.2504
  -4129371.50646  -3208144.11345  24385493.8914                   24385487.5234
        40.2504         34.0004
 -13838645.50847 -10751264.90544  23012682.6024                   23012678.7664
        42.0004         27.7504
 -24173132.75947 -18822565.57348  20962147.6414                   20962143.1604
        47.7504         51.7504
 -18040170.77147 -14042242.35447  22332515.2734                   22332510.8794
        45.2504         44.5004
 -14925696.27347 -11616651.89347  22337501.7894                   22337496.7544
        44.5004         44.0004
 -20030768.66147 -15590720.56548  21162004.3204                   21162000.5904
        47.5004         50.0004
  -8319364.11746  -6365957.87743  24127337.4144                   24127331.6954
        40.7504         23.7504
 -24831734.44847 -19281209.98748  20886187.0314                   20886179.9184
        47.0004         50.5004
  -6538658.60446  -4980218.64743  23501730.5234                   23501723.6414
        40.2504         22.0004
 20  5 22  2 12  0.0000000  0 10G16G05G04G09G30G27G08G11G07G28
  -2648695.02545  -1814490.61143  24620323.2664                   24620320.0124
        34.0004         18.2504
  -4121623.21846  -3202106.52745  24386967.1724                   24386962.1214
        38.2504         33.5004
 -13734098.92147 -10669800.08744  23032578.4384                   23032573.6134
        43.0004         28.2504
 -24112173.25447 -18775064.68948  20973748.1564                   20973743.9024
        47.7504         51.7504
 -18113453.90347 -14099346.09147  22318569.8594                   22318565.4224
        44.7504         44.7504
 -14872863.51247 -11575483.52547  22347555.4614                   22347550.9774
        44.2504         43.7504
 -20042046.15747 -15599508.21248  21159857.9924                   21159854.2894
        47.2504         50.0004
  -8406866.02646  -6434141.12743  24110685.7584                   24110680.2734
        40.2504         22.2504
 -24866594.10847 -19308373.37648  20879553.6954                   20879546.2894
        47.0004         50.5004
  -6624121.44846  -5046813.05143  23485466.6024                   23485460.1134
        40.2504         21.5004
 20  5 22  2 12 30.0000000  0 10G16G05G04G09G30G27G08G11G07G28
  -2540614.14246  -1730271.92142  24640892.1254                   24640886.8954
        36.2504         15.5004
  -4113348.31346  -3195658.58045  24388542.7424                   24388536.8554
        40.2504         33.0004
 -13629328.04647 -10588160.49144  23052514.9924                   23052510.5824
        43.0004         28.0004
 -24050721.58947 -18727180.30848  20985441.5704                   20985437.3134
        47.5004         51.7504
 -18186612.72747 -14156352.96047  22304648.0234                   22304644.0594
        45.2504         44.7504
 -14819461.18447 -11533871.33947  22357717.6024                   22357712.9804
        43.7504         43.7504
 -20052696.07047 -15607806.83148  21157831.6724                   21157827.6374
        47.0004         50.0004
  -8494236.10746  -6502221.63343  24094060.5314                   24094054.2894
        41.0004         22.7504
 -24901223.14347 -19335357.05248  20872963.7504                   20872956.5514
        47.5004         50.7504
  -6709358.21846  -5113231.36043  23469247.1254                   23469240.0744
        40.0004         22.2504
 20  5 22  2 13  0.0000000  0 10G16G05G04G09G30G27G08G11G07G28
  -2432538.74146  -1646057.32542  24661457.5784                   24661452.8674
        36.5004         16.7504
  -4104547.01746  -3188800.47745  24390217.1484                   24390211.6884
        39.0004         33.0004
 -13524334.37047 -10506347.29344  23072495.6954                   23072489.8954
        43.2504         28.7504
 -23988778.73647 -18678913.18048  20997229.3364                   20997225.1214
        47.7504         51.7504
 -18259645.55647 -14213261.65047  22290750.5634                   22290746.3754
        45.5004         44.7504
 -14765490.66547 -11491816.39947  22367987.5864                   22367983.3204
        43.7504         43.5004
 -20062717.36247 -15615615.60948  21155924.8594                   21155920.8364
        47.5004         50.0004
  -8581470.32446  -6570196.26943  24077460.3364                   24077454.8594
        40.2504         22.0004
 -24935619.41247 -19362159.35748  20866418.7114                   20866411.3984
        46.7504         50.7504
  -6794367.43846  -5179472.30543  23453070.1564                   23453062.8834
        40.7504         22.5004
 20  5 22  2 13 30.0000000  0 10G16G05G04G09G30G27G08G11G07G28
  -2324470.62446  -1561848.50443  24682023.5784                   24682018.2504
        38.2504         19.0004
  -4095221.05246  -3181533.50745  24391992.0944                   24391986.8094
        40.0004         33.7504
 -13419120.72547 -10424362.68644  23092516.2974                   23092512.0004
        42.7504         27.5004
 -23926346.76547 -18630264.92448  21009109.4454                   21009105.3874
        47.7504         51.7504
 -18332551.97447 -14270071.82147  22276876.4694                   22276872.6374
        45.2504         44.5004
 -14710954.45247 -11449320.66747  22378365.6174                   22378361.2704
        44.2504         43.5004
 -20072110.16747 -15622934.67248  21154137.6334                   21154133.2814
        47.5004         50.0004
  -8668566.72846  -6638063.55343  24060886.5864                   24060880.2734
        40.5004         22.0004
 -24969782.45847 -19388779.92548  20859917.4844                   20859910.6174
        46.5004         50.7504
  -6879148.99246  -5245535.88143  23436936.8914                   23436930.1134
        40.2504         22.7504
 20  5 22  2 14  0.0000000  0 10G16G05G04G09G30G27G08G11G07G28
  -2216411.02646  -1477646.24443  24702586.7274                   24702580.1994
        39.2504         18.2504
  -4085370.75646  -3173858.01945  24393867.4924                   24393861.4884
        39.5004         33.5004
 -13313688.96546 -10342208.12744  23112578.8984                   23112575.2344
        41.7504         27.2504
 -23863426.99548 -18581236.56448  21021083.0234                   21021078.4344
        48.0004         51.5004
 -18405330.59747 -14326782.42347  22263027.8054                   22263023.0554
        46.0004         44.5004
 -14655854.19947 -11406385.41347  22388850.9844                   22388846.4024
        44.0004         43.7504
 -20080873.85347 -15629763.50748  21152469.3054                   21152465.4884
        47.7504         49.7504
  -8755521.52246  -6705820.51643  24044338.7344                   24044333.1954
        40.0004         22.2504
 -25003710.99847 -19415217.77248  20853461.3594                   20853453.7384
        47.7504         51.0004
  -6963701.32646  -5311420.79043  23420846.9454                   23420840.3634
        39.5004         22.5004
 20  5 22  2 14 30.0000000  0 10G16G05G04G09G30G27G08G11G07G28
  -2108361.93246  -1393452.20043  24723147.8914                   24723142.5234
        37.5004         18.5004
  -4074997.35046  -3165774.86445  24395840.8524                   24395835.1604
        39.5004         33.5004
 -13208041.50847 -10259885.50644  23132682.7894                   23132679.3364
        42.7504         28.0004
 -23800021.23748 -18531829.51648  21033148.9064                   21033144.5124
        48.5004         51.5004
 -18477980.56047 -14383392.77247  22249202.8834                   22249198.6724
        46.0004         44.5004
 -14600192.09947 -11363012.36047  22399443.6954                   22399438.6214
        44.0004         43.5004
 -20089007.72448 -15636101.57448  21150921.8594                   21150918.0274
        48.0004         49.7504
  -8842332.02746  -6773465.00243  24027819.2424                   24027814.0984
        41.0004         22.5004
 -25037403.88547 -19441471.98848  20847049.7424                   20847042.2544
        46.7504         51.0004
  -7048023.67446  -5377126.53043  23404800.9614                   23404794.3794
        39.7504         22.7504
 20  5 22  2 15  0.0000000  0 10G16G05G04G09G30G27G08G11G07G28
  -2000325.11945  -1309267.68443  24743705.9694                   24743701.3524
        35.5004         19.0004
  -4064101.89546  -3157284.92645  24397914.1954                   24397908.5744
        40.0004         33.7504
 -13102180.87247 -10177396.76844  23152828.2344                   23152823.6374
        42.5004         27.7504
 -23736131.42747 -18482045.28048  21045306.5554                   21045302.3984
        47.5004         51.2504
 -18550501.07447 -14439902.26347  22235402.6094                   22235398.2154
        46.2504         45.0004
 -14543970.44947 -11319203.27747  22410141.7114                   22410137.0084
        43.7504         43.5004
 -20096512.07147 -15641949.09848  21149493.4924                   21149489.6994
        47.5004         50.0004
  -8928995.23346  -6840994.75644  24011328.8524                   24011322.3634
        41.2504         24.5004
 -25070860.08547 -19467541.77348  20840683.1884                   20840675.8634
        47.0004         51.0004
  -7132115.71146  -5442652.79143  23388798.9384                   23388792.8984
        39.0004         22.2504
 20  5 22  2 15 30.0000000  0 10G16G05G04G09G30G27G08G11G07G28
  -1892301.70345  -1225093.61942  24764260.5704                   24764256.0164
        35.0004         17.7504
  -4052685.23246  -3148388.84945  24400087.2664                   24400080.8014
        41.2504         32.7504
 -12996108.85247 -10094743.31744  23173013.1334                   23173008.7894
        42.7504         27.2504
 -23671758.84248 -18431884.84948  21057556.2344                   21057552.0664
        48.0004         51.2504
 -18622890.74347 -14496309.77947  22221626.6884                   22221622.9304
        46.0004         45.0004
 -14487190.96947 -11274959.53247  22420945.9384                   22420941.9224
        43.5004         43.5004
 -20103385.87248 -15647305.29948  21148185.5944                   21148182.0314
        48.0004         50.0004
  -9015507.67546  -6908407.01944  23994864.8984                   23994859.4614
        40.2504         24.5004
 -25104078.43347 -19493426.22048  20834361.8054                   20834355.0554
        46.7504         51.0004
  -7215976.09846  -5507998.52743  23372840.6644                   23372834.3914
        40.0004         22.2504
 20  5 22  2 16  0.0000000  0 10G16G05G04G09G30G27G08G11G07G28
  -1784293.39546  -1140931.30542  24784815.3204                   24784810.0784
        37.5004         17.2504
  -4040748.98746  -3139087.88545  24402357.2424                   24402352.4534
        38.5004         33.0004
 -12889828.30647 -10011927.36644  23193238.5004                   23193233.2624
        43.0004         28.0004
 -23606905.68447 -18381349.95848  21069897.6174                   21069893.0664
        47.7504         51.2504
 -18695149.05147 -14552614.93347  22207877.0704                   22207872.4454
        46.5004         45.2504
 -14429856.13147 -11230283.04447  22431856.5784                   22431852.6684
        44.5004         43.2504
 -20109629.76847 -15652170.66048  21146997.5394                   21146993.6484
        47.2504         50.0004
  -9101866.69446  -6975699.70944  23978432.2034                   23978426.8204
        40.5004         24.7504
 -25137058.13347 -19519124.71048  20828086.0704                   20828079.0474
        46.7504         50.7504
  -7299604.40446  -5573163.41143  23356925.9534                   23356920.2624
        40.2504         23.2504
 20  5 22  2 16 30.0000000  0 10G16G05G04G09G30G27G08G11G07G28
  -1676301.98845  -1056782.32442  24805365.7034                   24805360.1604
        35.5004         16.2504
  -4028293.51746  -3129382.36645  24404728.6484                   24404722.8324
        39.7504         33.5004
 -12783340.98547  -9928950.30244  23213501.6564                   23213496.9574
        42.5004         26.7504
 -23541573.14647 -18330441.52048  21082329.7274                   21082325.4384
        47.7504         51.2504
 -18767274.43247 -14608816.50847  22194151.7974                   22194147.5904
        45.5004         45.0004
 -14371967.66147 -11185175.15447  22442872.5784                   22442868.2934
        44.0004         43.2504
 -20115242.91647 -15656544.54048  21145929.3204                   21145925.3404
        47.0004         50.0004
  -9188068.83646  -7042870.19943  23962028.2584                   23962022.2774
        41.0004         22.7504
 -25169797.42247 -19544635.86848  20821855.5474                   20821849.0434
        47.2504         51.0004
  -7382999.35446  -5638146.48343  23341057.6564                   23341050.9104
        40.5004         22.5004
