     2.11           OBSERVATION DATA    G (GPS)             RINEX VERSION / TYPE
teqc  2019Feb25     Salamtina Y.M.      20200909 02:44:17UTCPGM / RUN BY / DATE
Linux 2.6.32-573.12.1.x86_64|x86_64|gcc|Linux 64|=+         COMMENT
BIT 2 OF LLI FLAGS DATA COLLECTED UNDER A/S CONDITION       COMMENT
Kazarman                                                    MARKER NAME
kaza                                                        MARKER NUMBER
Matix A.I.          RS_RAS                                  OBSERVER / AGENCY
4752143407          TRIMBLE NETRS       1.3-2               REC # / TYPE / VERS
30895097            TRM55971.00                             ANT # / TYPE
  1325807.7298  4606496.6894  4195524.6396                  APPROX POSITION XYZ
        0.0890        0.0000        0.0000                  ANTENNA: DELTA H/E/N
     1     1                                                WAVELENGTH FACT L1/2
     7    L1    L2    C1    P1    P2    S1    S2            # / TYPES OF OBSERV
    30.0000                                                 INTERVAL
    18                                                      LEAP SECONDS
TIME: 2020.05.20                                            COMMENT
TOUR: cont                                                  COMMENT
RSET: RAS03                                                 COMMENT
ASET: RAS03                                                 COMMENT
OPER: matx (Matix A.I.)                                     COMMENT
SOUR: KAZA202005200000A.dat                                 COMMENT
SUPP: KAZA202005200000A.eph                                 COMMENT
SUPP: KAZA202005200000A.ion                                 COMMENT
SUPP: KAZA202005200000A.mes                                 COMMENT
Forced Modulo Decimation to 30 seconds                      COMMENT
 SNR is mapped to RINEX snr flag value [0-9]                COMMENT
  L1 & L2: min(max(int(snr_dBHz/6), 0), 9)                  COMMENT
  2020     5    20     0     0    0.0000000     GPS         TIME OF FIRST OBS
                                                            END OF HEADER
 20  5 20  0  0  0.0000000  0  9G16G09G22G04G27G31G07G26G03
 -25332471.38647 -19609165.11546  20425074.4224                   20425066.4224
        47.0004         39.5004
 -20048733.66747 -15609938.15648  21563254.5944                   21563248.8954
        47.2504         49.2504
  -4261000.76446  -3316283.55043  24640219.5554                   24640210.0594
        40.5004         22.0004
 -27442734.39448 -21287256.21546  20254433.9064                   20254426.7504
        48.0004         41.5004
  -5710265.57146  -4425685.46146  23905629.3674                   23905625.7664
        40.2504         37.7504
    958518.31445    889437.69143  25403794.5704                   25403788.3404
        35.7504         22.0004
  -7830788.38347  -6012977.42746  23938566.9304                   23938559.1094
        43.0004         37.0004
 -13139019.48647 -10206055.80547  22261811.0474                   22261806.7664
        44.2504         43.5004
 -13540957.97947 -10534706.77747  22716225.2194                   22716220.2544
        44.0004         42.0004
 20  5 20  0  0 30.0000000  0  9G16G09G22G04G27G31G07G26G03
 -25315882.45947 -19596238.68146  20428231.0394                   20428222.7424
        47.7504         39.5004
 -20119512.35747 -15665090.38348  21549785.3674                   21549779.5004
        47.0004         49.5004
  -4156494.25346  -3234849.94143  24660107.3284                   24660097.1724
        39.0004         22.0004
 -27452417.78647 -21294801.72047  20252590.7734                   20252584.0864
        47.0004         42.0004
  -5801438.85246  -4496729.51346  23888281.8054                   23888276.5084
        41.2504         38.5004
   1050451.96046    961074.30843  25421289.4454                   25421282.2464
        41.0004         19.2504
  -7905109.41347  -6070889.92246  23924424.3674                   23924416.0314
        43.2504         37.5004
 -13057063.78747 -10142194.24347  22277406.7034                   22277402.0984
        44.5004         43.0004
 -13442654.88647 -10458106.98447  22734932.2734                   22734926.9964
        44.2504         42.2504
 20  5 20  0  1  0.0000000  0  9G16G09G22G04G27G31G07G26G03
 -25298644.06747 -19582806.16746  20431511.4064                   20431503.4224
        47.2504         39.5004
 -20190025.42247 -15720035.63048  21536366.9694                   21536361.7624
        47.0004         49.5004
  -4051987.08246  -3153415.83043  24679993.6954                   24679984.5394
        40.0004         21.5004
 -27461683.65847 -21302021.89947  20250827.8134                   20250821.1884
        47.0004         42.0004
  -5892430.35646  -4567632.07846  23870965.8524                   23870961.5904
        40.2504         37.2504
   1142333.57446   1032670.38843  25438773.8834                   25438767.0084
        39.0004         21.5004
  -7979327.83747  -6128722.46646  23910300.4694                   23910293.0004
        42.7504         37.2504
 -12974762.22147 -10078063.17547  22293068.2974                   22293063.7194
        44.5004         43.2504
 -13344106.05347 -10381315.70747  22753685.0394                   22753679.8324
        44.5004         42.5004
 20  5 20  0  1 30.0000000  0  9G16G09G22G04G27G31G07G26G03
 -25280755.66747 -19568867.16846  20434915.4614                   20434907.8284
        47.0004         39.0004
 -20260269.46447 -15774771.25348  21523000.5164                   21522994.5864
        46.5004         49.7504
  -3947479.79146  -3071981.62943  24699881.2734                   24699871.0044
        39.5004         21.2504
 -27470529.54247 -21308914.80846  20249144.3754                   20249138.2304
        47.0004         41.7504
  -5983235.55146  -4638389.30346  23853686.9454                   23853681.9454
        40.5004         36.7504
   1234164.11346   1104226.55343  25456249.0944                   25456242.9184
        37.5004         22.0004
  -8053442.85647  -6186474.45146  23896197.1724                   23896189.8874
        43.5004         38.0004
 -12892115.99547 -10013663.54147  22308795.0944                   22308791.1054
        43.7504         43.2504
 -13245313.05047 -10304334.16847  22772484.7504                   22772480.1804
        44.0004         42.2504
 20  5 20  0  2  0.0000000  0  9G16G09G22G04G27G31G07G26G03
 -25262219.22747 -19554423.18946  20438442.9304                   20438434.8714
        46.7504         39.5004
 -20330243.33447 -15829296.34648  21509684.7424                   21509679.3204
        47.2504         49.5004
  -3842976.00346  -2990550.12643  24719766.3524                   24719757.5784
        39.5004         20.5004
 -27478955.21447 -21315480.27347  20247541.3754                   20247534.8834
        47.0004         42.0004
  -6073851.64146  -4708999.29246  23836441.6174                   23836438.5234
        39.7504         36.5004
   1325942.34746   1175741.95843  25473713.2034                   25473707.1994
        36.5004         20.2504
  -8127454.59046  -6244145.92746  23882112.7504                   23882105.5704
        41.7504         37.2504
 -12809128.65547  -9948998.10347  22324587.5234                   22324583.0314
        44.2504         43.2504
 -13146279.69147 -10227165.33947  22791330.0554                   22791325.7074
        44.0004         42.0004
 20  5 20  0  2 30.0000000  0 10G16G09G22G04G27G08G31G07G26G03
 -25243036.64247 -19539475.72346  20442093.2034                   20442085.2114
        47.2504         39.0004
 -20399945.15747 -15883609.45248  21496420.8134                   21496415.6094
        47.0004         49.7504
  -3738478.36946  -2909123.41343  24739652.2274                   24739642.3674
        39.2504         19.0004
 -27486959.66847 -21321717.52047  20246018.2664                   20246011.5274
        47.0004         42.0004
  -6164275.57546  -4779459.44645  23819236.2894                   23819230.3094
        40.5004         34.7504
   -450410.58056   -333559.04154  24995675.1024                   24995670.8284
        36.7504         29.2504
   1417667.94446   1247216.45642  25491167.7424                   25491161.8054
        36.5004         16.7504
  -8201363.25046  -6301737.11146  23868047.4694                   23868040.6684
        41.2504         36.5004
 -12725802.86747  -9884068.94047  22340443.1484                   22340439.8284
        44.0004         43.5004
 -13047009.04347 -10149811.62047  22810221.2664                   22810215.8634
        44.7504         42.5004
 20  5 20  0  3  0.0000000  0 10G16G09G22G04G27G08G31G07G26G03
 -25223209.51747 -19524026.02046  20445866.4224                   20445858.3634
        47.5004         39.7504
 -20469373.49747 -15937709.46348  21483208.6174                   21483203.4224
        47.2504         49.7504
  -3633989.87246  -2827703.82043  24759534.8444                   24759526.3134
        39.0004         20.0004
 -27494542.45047 -21327626.19147  20244575.2424                   20244568.1174
        47.0004         42.0004
  -6254504.34146  -4849767.66146  23802064.5474                   23802060.9264
        39.5004         37.7504
   -550630.83346   -411652.79644  24976604.0164                   24976599.5664
        37.5004         29.5004
   1509339.54746   1318648.72943  25508612.9064                   25508606.5474
        36.2504         19.0004
  -8275169.93447  -6359248.81246  23854003.2274                   23853995.6024
        42.7504         36.5004
 -12642141.88747  -9818878.59547  22356364.1484                   22356359.8484
        43.7504         43.0004
 -12947504.68947 -10072275.77046  22829155.8834                   22829150.9264
        44.5004         41.5004
 20  5 20  0  3 30.0000000  0 10G16G09G22G04G27G08G31G07G26G03
 -25202736.77547 -19508073.24646  20449762.0234                   20449754.1174
        47.0004         39.0004
 -20538524.16847 -15991593.10948  21470050.4924                   21470044.6024
        47.2504         49.7504
  -3529510.96946  -2746291.70643  24779416.4224                   24779407.5744
        39.0004         20.0004
 -27501700.21547 -21333203.68147  20243212.9304                   20243206.3324
        46.7504         42.0004
  -6344532.42447  -4919919.41846  23784933.1414                   23784928.5514
        42.0004         38.0004
   -650931.47745   -489809.21044  24957515.9614                   24957512.4804
        35.7504         27.0004
   1600959.112 5                  25526047.039
        32.750
  -8348871.24347  -6416678.37746  23839979.1334                   23839971.3984
        43.0004         36.5004
 -12558146.16447  -9753427.40647  22372347.6334                   22372343.4064
        43.7504         43.0004
 -12847767.36547  -9994558.39646  22848135.4144                   22848130.8094
        43.7504         41.2504
 20  5 20  0  4  0.0000000  0 10G16G09G22G04G27G08G31G07G26G03
 -25181621.99447 -19491620.16646  20453780.2114                   20453771.6024
        47.2504         39.2504
 -20607397.41047 -16045260.57448  21456943.8674                   21456938.4494
        47.5004         49.7504
  -3425046.58046  -2664890.92143  24799297.1564                   24799286.5864
        40.5004         20.0004
 -27508434.20447 -21338450.96046  20241931.5944                   20241925.2154
        47.0004         41.7504
  -6434358.68746  -4989913.90146  23767840.9384                   23767834.9614
        41.7504         38.5004
   -751311.45146   -568027.37344  24938415.7194                   24938410.8364
        36.2504         28.0004
   1692523.502 7                  25543472.352
        42.500
  -8422469.92547  -6474028.03446  23825972.4614                   23825965.6914
        42.5004         37.0004
 -12473820.58047  -9687719.17647  22388394.0634                   22388390.1484
        43.5004         42.5004
 -12747802.30547  -9916663.56846  22867157.4224                   22867153.0944
        43.5004         41.0004
 20  5 20  0  4 30.0000000  0 10G16G09G22G04G27G08G31G07G26G03
 -25159865.20447 -19474666.83146  20457920.0784                   20457912.2504
        47.5004         39.0004
 -20675990.08547 -16098709.42648  21443891.7344                   21443885.9024
        47.2504         50.0004
  -3320598.04146  -2583502.43643  24819171.8914                   24819163.1134
        38.0004         19.7504
 -27514742.22347 -21343366.31947  20240731.3754                   20240724.9104
        47.0004         42.0004
  -6523978.64846  -5059747.64246  23750786.1804                   23750781.4454
        41.2504         39.0004
   -851767.04146   -646304.60744  24919299.7194                   24919294.3204
        37.0004         29.2504
   1784033.73046   1401297.17853  25560886.3204                   25560880.0664
        37.2504         22.5004
  -8495964.87147  -6531296.84446  23811987.6024                   23811980.6374
        43.7504         37.2504
 -12389166.64647  -9621755.10347  22404503.5474                   22404499.0784
        43.5004         42.5004
 -12647611.35647  -9838592.72546  22886223.6564                   22886219.3404
        43.7504         41.2504
 20  5 20  0  5  0.0000000  0 10G16G09G22G04G27G08G31G07G26G03
 -25137467.63447 -19457214.18546  20462182.7274                   20462174.5354
        47.2504         39.0004
 -20744299.85547 -16151937.81948  21430892.3204                   21430886.8284
        47.0004         49.7504
  -3216167.62246  -2502128.11443  24839044.6254                   24839035.7934
        38.5004         19.5004
 -27520622.90447 -21347948.68146  20239612.2664                   20239605.6804
        47.0004         41.7504
  -6613388.52246  -5129417.68146  23733770.9144                   23733767.2624
        40.0004         37.2504
   -952294.90046   -724637.97644  24900169.4924                   24900165.9694
        36.2504         29.0004
   1875489.75946   1472561.40642  25578289.4924                   25578282.8524
        38.2504         16.7504
  -8569355.39047  -6588484.28146  23798021.5394                   23798014.9734
        43.7504         38.0004
 -12304186.66847  -9555536.96547  22420674.8914                   22420670.4024
        43.7504         42.5004
 -12547197.10247  -9760347.87546  22905332.1804                   22905327.2114
        44.5004         41.5004
 20  5 20  0  5 30.0000000  0 10G16G09G22G04G27G08G31G07G26G03
 -25114431.35347 -19439263.84346  20466565.8914                   20466558.0744
        47.2504         39.5004
 -20812325.54547 -16204944.86148  21417947.9694                   21417941.5554
        47.2504         50.0004
  -3111758.38146  -2420770.27643  24858912.6724                   24858904.5314
        37.5004         19.5004
 -27526076.04447 -21352197.89446  20238574.1644                   20238567.8484
        47.0004         41.7504
  -6702585.93746  -5198922.13146  23716798.2974                   23716794.7894
        41.7504         38.5004
  -1052893.13945   -803026.25244  24881027.2424                   24881022.1054
        35.5004         26.0004
   1966889.79545   1543782.46242  25595682.3054                   25595675.3674
        35.2504         17.2504
  -8642642.69247  -6645591.27346  23784076.0554                   23784068.8524
        44.0004         38.5004
 -12218884.18347  -9489067.51547  22436907.2424                   22436902.3554
        43.5004         42.5004
 -12446563.51347  -9681932.12747  22924481.3054                   22924477.0394
        44.0004         42.0004
 20  5 20  0  6  0.0000000  0 10G16G09G22G04G27G08G31G07G26G03
 -25090757.23947 -19420816.48546  20471071.0634                   20471063.0864
        47.0004         39.0004
 -20880064.44847 -16257728.42548  21405057.2344                   21405051.4064
        47.0004         50.0004
  -3007372.05346  -2339430.32943  24878778.0704                   24878767.9304
        37.7504         20.0004
 -27531099.90447 -21356112.60647  20237618.4454                   20237611.7774
        47.2504         42.0004
  -6791566.57646  -5268257.65846  23699865.6334                   23699861.2344
        40.7504         36.7504
  -1153558.15146   -881466.55144  24861870.7274                   24861867.1024
        36.2504         29.7504
  28840375.10156  22484160.25653  25613064.8284                   25613058.4844
        38.0004         21.0004
  -8715825.37547  -6702616.74146  23770149.9534                   23770142.2194
        44.2504         38.2504
 -12133261.06047  -9422348.22047  22453201.2424                   22453196.2704
        43.5004         42.0004
 -12345712.69947  -9603347.10246  22943673.1414                   22943668.5704
        43.7504         41.7504
 20  5 20  0  6 30.0000000  0 10G16G09G22G04G27G08G31G07G26G03
 -25066447.35647 -19401873.72246  20475696.9224                   20475688.6954
        47.0004         39.5004
 -20947515.47447 -16310287.67248  21392221.5394                   21392216.2934
        47.2504         50.0004
  -2903012.74246  -2258111.38943  24898634.6484                   24898627.4064
        37.5004         21.5004
 -27535694.42247 -21359692.76247  20236744.2734                   20236737.7664
        47.2504         42.7504
  -6880328.10446  -5337422.48146  23682974.7974                   23682970.5234
        40.0004         38.2504
  -1254288.45846   -959957.75144  24842702.9224                   24842697.4734
        37.0004         29.0004
  28931663.24846  22555293.88343  25630437.0004                   25630429.8554
        40.5004         21.2504
  -8788904.61947  -6759561.59046  23756243.4454                   23756236.1214
        44.0004         38.7504
 -12047320.95547  -9355381.92347  22469554.8984                   22469550.1214
        43.5004         42.5004
 -12244648.65747  -9524595.92246  22962905.0554                   22962900.3794
        44.2504         41.0004
 20  5 20  0  7  0.0000000  0 10G16G09G22G04G27G08G31G07G26G03
 -25041502.09247 -19382435.85646  20480443.8914                   20480435.9654
        47.0004         39.2504
 -21014675.31947 -16362620.02148  21379441.9844                   21379436.0634
        47.2504         50.0004
  -2798680.94346  -2176813.97043  24918491.0864                   24918481.3054
        40.5004         20.5004
 -27539857.31347 -21362936.57947  20235952.2664                   20235945.5904
        47.0004         42.0004
  -6968865.75146  -5406412.90346  23666126.1334                   23666122.3094
        40.5004         37.5004
  -1355079.90546  -1038496.59144  24823522.3364                   24823518.2114
        36.5004         29.7504
  29022895.78045  22626384.37642  25647796.2504                   25647790.3984
        34.5004         15.5004
  -8861879.72147  -6816425.30946  23742356.1564                   23742349.3284
        44.0004         38.5004
 -11961065.16747  -9288169.64447  22485968.3284                   22485964.0434
        43.5004         42.0004
 -12143373.09147  -9445679.91746  22982177.3284                   22982171.9144
        43.7504         40.7504
 20  5 20  0  7 30.0000000  0 10G16G09G22G04G27G08G31G07G26G03
 -25015923.19747 -19362504.25746  20485311.6254                   20485303.3134
        47.0004         39.0004
 -21081542.30547 -16414724.17148  21366716.9924                   21366711.8794
        47.0004         50.2504
  -2694379.65646  -2095540.22343  24938336.1254                   24938328.8054
        36.0004         19.7504
 -27543587.95147 -21365843.59147  20235242.3524                   20235235.7034
        47.0004         42.0004
  -7057176.54146  -5475226.53946  23649320.7894                   23649316.2074
        40.7504         37.2504
  -1455929.49046  -1117080.65645  24804331.4064                   24804327.9884
        37.0004         31.5004
  29114071.79746  22697430.29043  25665148.2114                   25665141.3714
        39.2504         21.5004
  -8934749.89147  -6873207.24646  23728489.9924                   23728482.4184
        43.5004         38.5004
 -11874496.70247  -9220713.72447  22502442.3364                   22502437.9774
        43.5004         42.2504
 -12041889.32247  -9366601.66846  23001488.4534                   23001483.6994
        43.2504         40.0004
 20  5 20  0  8  0.0000000  0 10G16G09G22G04G27G08G31G07G26G03
 -24989713.21847 -19342080.89446  20490299.0474                   20490291.0704
        47.2504         39.0004
 -21148115.22847 -16466599.18848  21354049.4694                   21354043.4884
        47.2504         50.5004
  -2590112.25446  -2014292.93443  24958179.6254                   24958169.9184
        40.0004         20.2504
 -27546886.06247 -21368413.55447  20234614.5084                   20234608.0594
        47.0004         42.0004
  -7145257.89246  -5543861.36246  23632559.0474                   23632556.8014
        40.2504         39.0004
  -1556835.06846  -1195708.45545  24785129.5704                   24785125.9384
        37.0004         30.5004
  29205190.12046  22768431.40943  25682486.3754                   25682481.3484
        40.5004         20.7504
  -9007516.38147  -6929908.40746  23714642.3054                   23714635.7154
        43.5004         38.5004
 -11787618.98747  -9153016.82946  22518974.4304                   22518969.9494
        43.7504         41.7504
 -11940201.07847  -9287364.11446  23020839.4534                   23020834.4694
        43.7504         40.0004
 20  5 20  0  8 30.0000000  0 10G16G09G22G04G27G08G31G07G26G03
 -24962869.80447 -19321163.95946  20495407.1564                   20495399.2774
        46.7504         39.0004
 -21214388.45248 -16518240.65748  21341437.8834                   21341432.2974
        48.0004         50.5004
  -2485877.69546  -1933071.16643  24978015.4534                   24978005.2194
        40.7504         18.2504
 -27549747.11447 -21370642.95047  20234069.9064                   20234063.4304
        47.0004         42.2504
  -7233102.76546  -5612311.87546  23615843.1564                   23615839.5744
        41.0004         38.7504
  -1657790.92746  -1274375.41745  24765917.9304                   24765914.7934
        36.7504         30.7504
  29296253.961 5                  25699813.883
        32.250
  -9080175.42447  -6986525.81946  23700816.2734                   23700808.8524
        43.5004         37.7504
 -11700431.12347  -9085078.25647  22535565.4144                   22535561.4264
        43.2504         42.0004
 -11838307.81047  -9207966.78146  23040229.2734                   23040224.0124
        43.0004         40.2504
 20  5 20  0  9  0.0000000  0 10G16G09G22G04G27G08G31G07G26G03
 -24935399.66947 -19299758.66046  20500634.7504                   20500626.8794
        47.2504         39.2504
 -21280365.14648 -16569651.08048  21328882.6804                   21328876.8524
        48.5004         50.5004
  -2381683.79146  -1851881.12643  24997841.2114                   24997832.7854
        38.7504         18.2504
 -27552175.38247 -21372535.12547  20233608.0084                   20233601.5314
        47.0004         42.0004
  -7320712.99146  -5680579.61446  23599171.8284                   23599168.2464
        40.5004         39.0004
  -1758798.91746  -1353082.98245  24746698.6484                   24746692.3134
        39.5004         31.0004
  29387257.54346  22788730.34653  25717132.6094                   25717126.3984
        36.2504         21.5004
  -9152732.13247  -7043063.50546  23687008.6564                   23687001.2344
        43.2504         37.2504
 -11612940.92847  -9016904.09747  22552214.1724                   22552210.2034
        43.0004         42.0004
 -11736217.68947  -9128416.06946  23059656.2814                   23059651.3444
        44.2504         40.5004
 20  5 20  0  9 30.0000000  0 10G16G09G22G04G27G08G31G07G26G03
 -24907302.30847 -19277864.62046  20505981.6414                   20505973.6414
        47.2504         39.2504
 -21346041.02247 -16620827.08148  21316385.1564                   21316379.7774
        47.5004         50.5004
  -2277530.43646  -1770722.65443  25017659.4774                   25017651.9414
        36.2504         18.5004
 -27554167.64047 -21374087.53547  20233229.0004                   20233222.3444
        47.0004         42.2504
  -7408083.00446  -5748660.10146  23582545.5704                   23582543.0944
        39.5004         39.2504
  -1859853.97646  -1431827.21644  24727466.9844                   24727463.7584
        38.5004         29.2504
  29478202.91245  22859596.75243  25734438.8754                   25734433.4064
        33.5004         22.2504
  -9225184.34747  -7099519.77446  23673221.5234                   23673214.0554
        42.7504         37.0004
 -11525148.75947  -8948494.63446  22568921.3444                   22568916.3984
        43.2504         41.7504
 -11633931.45547  -9048712.53046  23079120.5164                   23079116.1374
        44.2504         40.5004
 20  5 20  0 10  0.0000000  0 10G16G09G22G04G27G08G31G07G26G03
 -24878575.85247 -19255480.37346  20511447.8204                   20511440.2934
        47.7504         39.5004
 -21411410.82647 -16671764.60348  21303945.6024                   21303939.7384
        47.7504         50.5004
  -2173417.02946  -1689595.40443  25037473.2584                   25037464.9454
        38.5004         18.5004
 -27555719.67347 -21375296.93347  20232933.9614                   20232927.1094
        47.2504         42.5004
  -7495206.06646  -5816548.15846  23565966.9064                   23565962.9614
        40.7504         38.2504
  -1960949.70646  -1510603.13845  24708228.8914                   24708225.5164
        36.7504         30.0004
                                  25751735.984
        36.000
  -9297528.92347  -7155892.19246  23659454.8594                   23659447.2584
        44.0004         37.5004
 -11437054.02547  -8879849.42247  22585684.0864                   22585680.4964
        43.2504         42.0004
 -11531448.79947  -8968855.94846  23098622.8754                   23098617.6644
        43.5004         40.5004
 20  5 20  0 10 30.0000000  0 10G16G09G22G04G27G08G31G07G26G03
 -24849231.38147 -19232614.55546  20517032.2344                   20517023.9064
        47.0004         39.5004
 -21476482.07347 -16722469.47148  21291562.5234                   21291557.2734
        47.5004         50.5004
  -2069355.44146  -1608508.40542  25057275.4774                   25057266.4494
        39.5004         17.7504
 -27556840.09548 -21376170.00247  20232720.4614                   20232713.7934
        48.5004         42.2504
  -7582088.41646  -5884248.70046  23549434.5004                   23549429.8134
        41.0004         39.0004
  -2062093.25846  -1589416.38144  24688982.0474                   24688978.0314
        37.5004         29.5004
    711056.11346  24149175.87953  25769019.3914                   25769012.0784
        39.5004         20.5004
  -9369775.07647  -7212187.89146  23645706.8134                   23645699.9964
        44.0004         38.0004
 -11348669.04747  -8810978.03346  22602503.6174                   22602499.5474
        43.0004         41.5004
 -11428782.28147  -8888856.09246  23118158.9534                   23118154.9494
        43.0004         40.2504
 20  5 20  0 11  0.0000000  0 10G16G09G22G04G27G08G31G07G26G03
 -24819261.27547 -19209261.23346  20522735.1724                   20522727.1564
        47.0004         39.2504
 -21541243.18347 -16772932.67748  21279239.3284                   21279233.6094
        47.5004         50.7504
  -1965338.71946  -1527456.52543  25077069.0394                   25077060.8984
        38.7504         19.2504
 -27557518.41347 -21376698.58147  20232591.4924                   20232584.6914
        47.0004         42.0004
  -7668717.01046  -5951751.49746  23532950.0004                   23532945.1884
        41.5004         38.5004
  -2163272.02846  -1668256.85244  24669729.0944                   24669726.2664
        36.0004         28.5004
    801825.20046  24219905.00243  25786291.9064                   25786285.2114
        40.2504         22.5004
  -9441912.87247  -7268399.17046  23631979.3754                   23631972.2154
        43.7504         39.2504
 -11259986.66947  -8741874.91147  22619379.6334                   22619375.5784
        43.5004         42.0004
 -11325925.37147  -8808707.87546  23137731.9144                   23137727.7734
        43.0004         39.7504
 20  5 20  0 11 30.0000000  0 10G16G09G22G04G27G08G31G07G26G03
 -24788669.69647 -19185423.64346  20528556.3364                   20528548.2854
        47.0004         39.0004
 -21605694.71448 -16823154.66648  21266974.4694                   21266968.9804
        48.0004         50.5004
  -1861372.18546  -1446443.63043  25096855.2584                   25096844.2154
        39.7504         19.0004
 -27557756.39247 -21376884.03547  20232545.8054                   20232539.8364
        47.0004         42.5004
  -7755091.13647  -6019056.01446  23516513.7814                   23516508.6604
        43.0004         38.5004
  -2264485.23346  -1747124.39545  24650469.6484                   24650466.5354
        38.2504         31.0004
    892535.23546  24290588.08343  25803553.1564                   25803546.3984
        39.0004         22.0004
  -9513945.38347  -7324528.39646  23618272.8754                   23618265.4384
        44.7504         39.7504
 -11171012.28847  -8672544.24746  22636310.7274                   22636306.7734
        43.0004         41.0004
 -11222883.62647  -8728415.63246  23157340.4384                   23157335.5274
        43.5004         39.7504
 20  5 20  0 12  0.0000000  0 10G16G09G22G04G27G08G31G07G26G03
 -24757458.38747 -19161103.14246  20534495.7894                   20534487.8014
        47.2504         38.7504
 -21669834.70248 -16873133.88848  21254769.0314                   21254763.2344
        48.0004         50.7504
  -1757458.18846  -1365471.74043  25116628.3674                   25116619.3484
        40.0004         19.5004
 -27557553.08947 -21376725.62947  20232585.0944                   20232578.3754
        47.0004         42.2504
  -7841207.51646  -6086159.72246  23500125.9774                   23500119.6764
        41.2504         36.7504
  -2365730.50146  -1826016.93445  24631202.9144                   24631199.3244
        37.0004         30.5004
    983185.54345  24361224.63442  25820802.6024                   25820797.9384
        35.5004         17.7504
  -9585872.52847  -7380575.50446  23604585.5784                   23604578.0314
        44.7504         39.7504
 -11081748.56347  -8602988.12346  22653297.4064                   22653292.9384
        43.0004         41.5004
 -11119660.23347  -8647981.86146  23176983.0314                   23176978.5084
        43.0004         39.5004
 20  5 20  0 12 30.0000000  0  9G16G09G22G04G27G08G07G26G03
 -24725626.83347 -19136299.33946  20540553.0554                   20540545.0434
        47.0004         38.7504
 -21733658.79047 -16922866.95448  21242623.5394                   21242618.0044
        47.5004         50.7504
  -1653596.50446  -1284540.67043  25136392.2114                   25136383.0664
        39.2504         20.2504
 -27556905.35447 -21376220.91847  20232707.8914                   20232701.5234
        47.0004         42.0004
  -7927060.37846  -6153058.07846  23483788.9224                   23483783.8364
        41.5004         38.7504
  -2467002.43445  -1904930.14545  24611928.9844                   24611926.6094
        34.2504         30.0004
  -9657691.45247  -7436538.30046  23590918.7734                   23590911.2624
        44.7504         39.5004
 -10992195.80747  -8533206.78346  22670338.8134                   22670334.2854
        43.0004         41.5004
 -11016255.55947  -8567406.82046  23196660.7274                   23196656.1294
        43.0004         39.5004
 20  5 20  0 13  0.0000000  0 10G16G09G22G04G27G08G31G07G26G03
 -24693184.84147 -19111019.87546  20546726.6724                   20546718.7504
        47.0004         39.2504
 -21797173.05048 -16972358.60048  21230537.6254                   21230531.3834
        48.0004         50.7504
  -1549797.87346  -1203658.68943  25156145.3054                   25156136.8754
        38.0004         20.0004
 -27555820.36347 -21375375.48847  20232914.4384                   20232907.6414
        47.0004         42.2504
  -8012654.48046  -6219754.74946  23467499.9534                   23467496.2304
        39.7504         37.5004
  -2568306.24546  -1983868.16845  24592654.5784                   24592649.0944
        38.2504         30.7504
   1164302.11015                  25855269.438
        35.250
  -9729410.41247  -7492423.23546  23577270.2584                   23577263.2384
        44.2504         39.0004
 -10902364.73747  -8463208.56646  22687432.3674                   22687428.5944
        42.5004         40.5004
 -10912680.85747  -8486699.27846  23216370.2584                   23216365.7154
        43.5004         39.7504
 20  5 20  0 13 30.0000000  0 10G16G09G22G04G27G08G31G07G26G03
 -24660126.20747 -19085259.90346  20553017.3524                   20553009.7074
        47.5004         39.2504
 -21860367.43448 -17021600.99048  21218512.5004                   21218506.3404
        48.0004         51.0004
  -1446056.56946  -1122821.27643  25175887.8524                   25175877.9414
        40.5004         19.2504
 -27554289.29547 -21374182.45647  20233206.2114                   20233199.5514
        47.0004         42.5004
  -8097978.52146  -6286241.03546  23451263.1804                   23451259.2504
        40.0004         38.0004
  -2669631.12146  -2062822.66845  24573370.8444                   24573369.1054
        37.7504         32.2504
   1254771.16946  24362398.89153  25872484.6644                   25872479.0314
        36.5004         19.7504
  -9801021.41847  -7548223.99646  23563643.4844                   23563636.1524
        43.2504         39.0004
 -10812250.03347  -8392989.33146  22704581.1174                   22704576.7974
        42.7504         40.5004
 -10808931.12947  -8405855.36246  23236113.7034                   23236108.7234
        44.0004         40.0004
 20  5 20  0 14  0.0000000  0 10G16G09G22G04G27G08G31G07G26G03
 -24626454.81747 -19059022.46046  20559425.1564                   20559417.1724
        47.7504         38.7504
 -21923242.12547 -17070594.26448  21206547.3754                   21206541.6994
        47.5004         51.0004
  -1342377.81246  -1042032.62743  25195614.6644                   25195606.3714
        36.7504         19.0004
 -27552313.49947 -21372642.88347  20233581.6174                   20233575.2664
        47.0004         42.0004
  -8183031.19847  -6352515.78746  23435079.8524                   23435076.0084
        42.7504         41.0004
  -2770976.26146  -2141792.87945  24554086.4384                   24554082.6524
        37.5004         32.2504
   1345179.81146  24432847.06743  25889689.5164                   25889683.1884
        38.5004         21.7504
  -9872527.07647  -7603942.69246  23550037.1174                   23550029.0594
        42.5004         39.0004
 -10721856.51447  -8322552.83746  22721781.9844                   22721777.7464
        42.5004         41.0004
 -10705011.51347  -8324879.07446  23255888.7114                   23255883.7304
        43.0004         39.7504
 20  5 20  0 14 30.0000000  0 10G16G09G22G04G27G08G31G07G26G03
 -24592172.81747 -19032309.21246  20565948.5474                   20565940.2894
        47.5004         38.5004
 -21985795.37948 -17119337.06648  21194643.6334                   21194638.2194
        48.0004         51.0004
  -1238763.68346   -961294.39143  25215332.2344                   25215323.6454
        37.5004         18.2504
 -27549892.33947 -21370756.28647  20234042.7034                   20234036.0634
        47.0004         42.5004
  -8267809.51547  -6418576.80146  23418946.0004                   23418941.7034
        42.2504         40.5004
  -2872338.92646  -2220776.83845  24534798.2424                   24534793.6564
        38.0004         33.0004
   1435527.32846  24503247.66943  25906882.0164                   25906875.9304
        36.7504         20.5004
  -9943926.69847  -7659578.74046  23536449.3134                   23536442.8554
        42.7504         39.5004
 -10631187.07847  -8251901.34946  22739035.4384                   22739031.5984
        42.5004         40.7504
 -10600925.34347  -8243772.98846  23275695.4844                   23275691.2734
        43.2504         39.5004
 20  5 20  0 15  0.0000000  0 10G16G09G22G04G27G08G31G07G26G03
 -24557282.22848 -19005121.74746  20572587.9694                   20572579.7974
        48.0004         39.0004
 -22048025.45748 -17167828.04248  21182801.9144                   21182796.1804
        48.0004         51.0004
  -1135216.77945   -880608.57042  25235035.6334                   25235028.0514
        35.2504         17.2504
 -27547025.27447 -21368522.21947  20234588.3914                   20234581.5864
        47.0004         42.0004
  -8352310.28347  -6484421.63447  23402867.5234                   23402861.9774
        44.0004         42.0004
  -2973716.22546  -2299772.12245  24515506.3524                   24515502.9844
        37.7504         32.2504
   1525813.401 4                  25924063.695
        29.500
 -10015220.63447  -7715132.43946  23522882.7584                   23522876.0044
        44.0004         39.5004
 -10540244.63847  -8181037.15046  22756342.0004                   22756338.1454
        42.2504         41.0004
 -10496675.87347  -8162539.66746  23295532.7344                   23295529.1564
        42.0004         39.0004
 20  5 20  0 15 30.0000000  0  9G16G09G22G04G27G08G07G26G03
 -24521782.52647 -18977459.64446  20579343.6804                   20579335.4574
        47.0004         39.0004
 -22109927.91647 -17216063.73148  21171022.1174                   21171016.4414
        47.7504         51.0004
  -1031737.64946   -799975.47342  25254728.1024                   25254719.3714
        36.0004         16.2504
 -27543709.27147 -21365938.33447  20235219.3364                   20235213.0274
        47.0004         42.2504
  -8436528.04046  -6550045.75546  23386840.3914                   23386836.4304
        41.2504         40.2504
  -3075103.28646  -2378775.03345  24496212.2194                   24496210.7114
        36.7504         32.5004
 -10086407.23947  -7770602.50146  23509335.9224                   23509329.4024
        43.2504         39.5004
 -10449029.53947  -8109960.48046  22773699.9844                   22773695.6454
        43.0004         40.5004
 -10392263.74747  -8081179.59846  23315402.2344                   23315398.2154
        42.5004         39.2504
 20  5 20  0 16  0.0000000  0  9G16G09G22G04G27G08G07G26G03
 -24485679.46847 -18949327.39246  20586213.6174                   20586205.9184
        47.0004         39.0004
 -22171504.55848 -17264045.53348  21159304.8754                   21159299.3404
        48.0004         51.2504
   -928332.30646   -719399.94042  25274407.0634                   25274397.4774
        38.2504         16.2504
 -27539947.18047 -21363006.85147  20235935.3364                   20235928.4964
        47.0004         42.2504
  -8520462.92247  -6615449.60246  23370868.1884                   23370862.3954
        42.5004         38.7504
  -3176500.72045  -2457786.03445  24476916.4924                   24476914.2234
        35.7504         30.0004
 -10157489.82647  -7825991.50346  23495810.7734                   23495802.5824
        44.0004         39.2504
 -10357548.16747  -8038676.32246  22791108.2664                   22791103.7854
        42.2504         40.5004
 -10287695.71747  -7999698.04946  23335299.9224                   23335296.3914
        42.0004         38.5004
 20  5 20  0 16 30.0000000  0  9G16G09G22G04G27G08G07G26G03
 -24448972.84747 -18920724.82946  20593198.6094                   20593190.4964
        47.5004         38.7504
 -22232751.27548 -17311770.25248  21147649.7194                   21147644.2974
        48.5004         51.5004
   -825001.31946   -638882.37443  25294071.2504                   25294061.6914
        39.0004         18.5004
 -27535736.18547 -21359725.59247  20236736.4064                   20236730.3284
        47.0004         42.0004
  -8604109.78146  -6680628.99046  23354949.1954                   23354945.3554
        39.5004         36.7504
  -3277903.36545  -2536801.12445  24457620.8364                   24457618.1804
        35.2504         30.5004
 -10228466.10447  -7881297.67346  23482303.6334                   23482296.0864
        44.0004         39.7504
 -10265801.01447  -7967185.06546  22808567.6174                   22808563.2424
        42.5004         41.0004
 -10182972.73647  -7918095.76946  23355229.0634                   23355224.5004
        42.5004         39.0004
 20  5 20  0 17  0.0000000  0  9G16G09G22G04G27G08G07G26G03
 -24411664.54747 -18891653.43946  20600298.4304                   20600290.0944
        47.5004         39.0004
 -22293666.20248 -17359236.43748  21136058.2114                   21136052.6724
        48.0004         51.5004
   -721747.47346   -558424.86943  25313719.0314                   25313710.1054
        40.0004         18.2504
 -27531075.62947 -21356094.02347  20237623.4924                   20237616.9844
        46.7504         42.7504
  -8687465.20646  -6745581.25946  23339087.9844                   23339084.2814
        40.7504         38.0004
  -3379308.44946  -2615818.10744  24438324.1954                   24438320.1254
        36.7504         29.5004
 -10299336.20347  -7936521.11846  23468817.6884                   23468809.9844
        45.0004         40.0004
 -10173790.87747  -7895488.88846  22826076.0634                   22826071.7154
        42.0004         40.5004
 -10078097.87147  -7836375.13046  23375186.7504                   23375181.8054
        42.2504         38.7504
 20  5 20  0 17 30.0000000  0  9G16G09G22G04G27G08G07G26G03
 -24373756.78148 -18862114.92146  20607511.5314                   20607503.7894
        48.0004         39.0004
 -22354247.29147 -17406442.48348  21124529.8284                   21124524.2194
        47.7504         51.5004
   -618572.48846   -478028.81143  25333351.7584                   25333344.2584
        38.5004         19.5004
 -27525964.70547 -21352111.50947  20238596.2274                   20238589.4494
        47.5004         42.2504
  -8770526.03546  -6810303.98646  23323282.4224                   23323275.5744
        41.5004         36.0004
  -3480713.26846  -2694834.87645  24419027.4224                   24419023.6604
        37.5004         31.2504
 -10370100.32247  -7991661.97046  23455351.7664                   23455343.8874
        43.0004         40.5004
 -10081520.43347  -7823589.86446  22843634.5784                   22843630.4964
        42.7504         40.5004
  -9973074.20946  -7754538.53146  23395172.5084                   23395167.1804
        41.5004         38.0004
 20  5 20  0 18  0.0000000  0  9G16G09G22G04G27G08G07G26G03
 -24335251.34248 -18832110.69546  20614839.2194                   20614831.1054
        48.0004         39.0004
 -22414492.42448 -17453386.74648  21113065.6644                   21113059.5864
        48.5004         51.5004
   -515478.49446   -397695.81443  25352967.5634                   25352960.9844
        36.0004         19.5004
 -27520402.58847 -21347777.42447  20239654.2664                   20239647.8954
        47.0004         42.2504
  -8853288.63147  -6874794.33747  23307534.1724                   23307530.3094
        44.0004         43.0004
  -3582114.44146  -2773848.83245  24399731.8754                   24399727.5004
        38.2504         32.2504
 -10440758.01847  -8046719.91146  23441905.6484                   23441897.9804
        44.5004         39.7504
  -9988992.16647  -7751489.94446  22861242.3364                   22861237.3014
        42.0004         40.0004
  -9867904.54147  -7672588.17446  23415185.1484                   23415180.0864
        42.5004         38.2504
 20  5 20  0 18 30.0000000  0  9G16G09G22G04G27G08G07G26G03
 -24296149.45848 -18801641.69746  20622280.2424                   20622271.8054
        48.5004         38.5004
 -22474398.94148 -17500067.15648  21101665.8984                   21101659.8524
        48.5004         51.5004
   -412467.98146   -317427.96943  25372571.0864                   25372562.9884
        38.2504         19.7504
 -27514387.92547 -21343090.70447  20240799.1564                   20240792.6644
        47.7504         42.2504
  -8935749.18247  -6939049.27346  23291841.4224                   23291836.3954
        42.0004         39.5004
  -3683508.36246  -2852857.08045  24380437.7114                   24380433.9534
        39.2504         32.5004
 -10511309.06347  -8101694.72646  23428480.3594                   23428473.1094
        44.5004         40.0004
  -9896208.04047  -7679190.66046  22878897.9844                   22878894.0394
        42.0004         39.7504
  -9762591.28947  -7590525.92946  23435225.7584                   23435220.5664
        42.2504         38.5004
 20  5 20  0 19  0.0000000  0  9G16G09G22G04G27G08G07G26G03
 -24256454.03047 -18770710.20446  20629833.5704                   20629825.2894
        47.2504         39.0004
 -22533965.58847 -17546482.72748  21090330.8834                   21090325.0784
        47.7504         51.5004
   -309543.45146   -237227.10243  25392158.4844                   25392149.9144
        37.7504         19.7504
 -27507920.75847 -21338051.38447  20242029.9844                   20242023.1174
        47.7504         42.5004
  -9017905.05647  -7003066.89347  23276208.6334                   23276203.8674
        44.5004         43.5004
  -3784893.13546  -2931858.23245  24361144.5314                   24361140.4734
        38.2504         32.0004
 -10581753.49247  -8156586.46446  23415075.1414                   23415067.3634
        43.0004         40.2504
  -9803171.47846  -7606694.66246  22896602.1954                   22896598.5044
        41.5004         39.2504
  -9657138.24047  -7508354.74846  23455292.7584                   23455287.8984
        42.0004         38.5004
 20  5 20  0 19 30.0000000  0  9G16G09G22G04G27G08G07G26G03
 -24216166.55848 -18739317.37646  20637500.2274                   20637491.9844
        48.0004         39.0004
 -22593189.92048 -17592631.56248  21079060.7034                   21079054.8014
        48.5004         51.5004
   -206707.51346   -157095.18242  25411727.1564                   25411718.6804
        37.0004         17.7504
 -27500999.84048 -21332658.48747  20243346.7344                   20243340.2384
        48.0004         42.0004
  -9099752.60246  -7066844.12046  23260632.1414                   23260629.5634
        41.0004         40.2504
  -3886264.62246  -3010849.00645  24341853.9534                   24341850.5204
        38.0004         32.0004
 -10652091.28647  -8211395.11846  23401690.6644                   23401683.0124
        43.2504         40.5004
  -9709884.39547  -7534003.46646  22914354.8754                   22914350.5744
        42.5004         40.2504
  -9551547.85947  -7426076.57346  23475386.2584                   23475380.7704
        42.2504         38.7504
 20  5 20  0 20  0.0000000  0  9G16G09G22G04G27G08G07G26G03
 -24175289.87648 -18707465.42446  20645278.8594                   20645270.5474
        48.2504         38.5004
 -22652070.50448 -17638512.54248  21067855.8594                   21067850.1254
        48.0004         51.5004
   -103962.54246    -77034.31542  25431279.1564                   25431270.0474
        36.2504         16.7504
 -27493625.09847 -21326911.95347  20244750.1644                   20244743.6564
        47.5004         42.2504
  -9181288.93846  -7130379.02046  23245116.1414                   23245110.9304
        41.7504         40.0004
  -3987620.68146  -3089827.81345  24322566.4774                   24322562.6604
        36.7504         32.7504
 -10722322.42647  -8266120.65246  23388326.1094                   23388318.7034
        44.7504         40.5004
  -9616350.45846  -7461119.90446  22932153.2274                   22932149.5314
        41.5004         40.2504
  -9445823.77647  -7343694.20346  23495503.8444                   23495499.6134
        42.2504         37.5004
 20  5 20  0 20 30.0000000  0  9G16G09G22G04G27G08G07G26G03
 -24133824.41248 -18675154.67646  20653169.6804                   20653161.4494
        48.0004         38.2504
 -22710603.95447 -17684123.01948  21056717.5314                   21056711.9304
        47.7504         51.5004
     -1309.86046    -34742.01652  25450813.5864                   25450805.7934
        38.0004         17.2504
 -27485794.51647 -21320810.22347  20246239.9064                   20246233.3794
        47.7504         42.2504
  -9262509.59446  -7193667.75446  23229660.6094                   23229657.3554
        41.0004         39.2504
  -4088957.32246  -3168791.40045  24303282.5234                   24303279.5434
        36.7504         31.2504
 -10792446.07047  -8320762.41546  23374981.5084                   23374974.6724
        44.5004         40.5004
  -9522570.69647  -7388044.81046  22949999.0394                   22949995.2074
        42.0004         40.0004
  -9339967.58347  -7261208.89446  23515648.4614                   23515643.1954
        42.7504         37.7504
 20  5 20  0 21  0.0000000  0  9G16G09G22G04G27G08G07G26G03
 -24091773.77947 -18642387.95946  20661171.6484                   20661163.5864
        47.7504         38.5004
 -22768789.46348 -17729462.37648  21045645.3594                   21045639.1134
        48.0004         51.5004
    101247.10746     45172.40042  25470328.8134                   25470321.0554
        37.5004         16.7504
 -27477508.56647 -21314353.66346  20247817.2194                   20247810.8014
        47.0004         41.7504
  -9343412.29247  -7256708.83546  23214264.9774                   23214259.6684
        42.0004         38.2504
  -4190272.32646  -3247738.14345  24284003.9454                   24284000.3284
        38.0004         32.5004
 -10862463.60047  -8375321.51046  23361657.8674                   23361650.3634
        45.0004         41.0004
  -9428548.90647  -7314781.10546  22967891.2194                   22967886.6954
        42.2504         40.0004
  -9233983.47646  -7178623.91246  23535816.1644                   23535811.1684
        41.7504         37.0004
 20  5 20  0 21 30.0000000  0  9G16G09G22G04G27G08G07G26G03
 -24049139.04948 -18609166.10446  20669284.6484                   20669276.5164
        48.0004         38.5004
 -22826624.55148 -17774528.69648  21034639.5234                   21034633.7974
        48.7504         52.5004
    203706.55646    104015.10152  25489827.2584                   25489817.1484
        38.5004         16.7504
 -27468766.17948 -21307541.43146  20249480.7424                   20249474.3244
        48.0004         41.0004
  -9423993.39747  -7319499.34146  23198931.1884                   23198926.9884
        43.2504         39.2504
  -4291562.24246  -3326665.37745  24264729.0004                   24264725.0824
        39.2504         33.0004
 -10932374.16847  -8429797.26846  23348355.0164                   23348347.1954
        44.7504         41.0004
  -9334287.26647  -7241330.50146  22985828.7584                   22985823.9304
        42.0004         39.0004
  -9127874.02346  -7095941.23646  23556008.2274                   23556003.4454
        41.0004         37.2504
 20  5 20  0 22  0.0000000  0  9G16G09G22G04G27G08G07G26G03
 -24005922.86348 -18575491.16246  20677508.3524                   20677500.4844
        48.0004         39.2504
 -22884107.13648 -17819320.31648  21023700.9304                   21023694.9804
        48.2504         52.0004
    306065.98346    141112.53453  25509304.4304                   25509291.2234
        36.0004         21.0004
 -27459566.49347 -21300372.85747  20251231.4924                   20251224.9024
        47.2504         42.0004
  -9504249.37647  -7382036.48346  23183659.7664                   23183654.9414
        43.5004         40.2504
  -4392823.83646  -3405570.50545  24245459.3284                   24245455.3874
        39.2504         33.5004
 -11002177.15147  -8484189.17746  23335071.0864                   23335064.1094
        43.2504         40.5004
  -9239788.18747  -7167694.88846  23003811.2814                   23003806.3444
        42.0004         39.5004
  -9021642.02147  -7013163.10046  23576223.5164                   23576218.6684
        42.0004         38.5004
 20  5 20  0 22 30.0000000  0  9G16G09G22G04G27G08G07G26G03
 -23962127.76148 -18541365.11446  20685842.2664                   20685834.5554
        48.5004         39.0004
 -22941235.50148 -17863835.93248  21012829.6564                   21012823.9024
        48.2504         51.7504
    408323.05246    220793.41042  25528763.4384                   25528754.0204
        37.5004         17.2504
 -27449909.32547 -21292847.81646  20253068.9064                   20253062.7344
        47.7504         41.7504
  -9584177.38447  -7444318.07446  23168449.0554                   23168445.1484
        43.0004         40.0004
  -4494054.27346  -3484451.40845  24226196.1724                   24226191.8594
        39.0004         34.0004
 -11071873.06647  -8538497.67046  23321807.9384                   23321800.8054
        44.2504         41.5004
  -9145054.70447  -7093876.62446  23021838.5704                   23021834.1454
        42.2504         39.0004
  -8915290.90146  -6930292.13446  23596462.0164                   23596457.0394
        41.5004         38.0004
 20  5 20  0 23  0.0000000  0  9G16G09G22G04G27G08G07G26G03
 -23917754.85148 -18506788.82246  20694286.4064                   20694278.1804
        48.0004         39.0004
 -22998007.10948 -17908073.54648  21002026.5704                   21002020.7814
        48.7504         52.0004
    510475.51446    300392.75342  25548202.2664                   25548193.5354
        37.0004         17.2504
 -27439793.43548 -21284965.30346  20254994.0554                   20254987.3244
        48.2504         41.7504
  -9663773.63847  -7506341.12046  23153303.1334                   23153298.7424
        44.0004         41.2504
  -4595250.47246  -3563305.56745  24206939.4454                   24206935.0204
        39.0004         33.5004
 -11141461.57647  -8592722.47746  23308565.9534                   23308558.7344
        44.7504         41.0004
  -9050088.80047  -7019877.24446  23039909.8674                   23039905.3164
        42.0004         39.5004
  -8808822.95346  -6847330.13546  23616721.6024                   23616717.0784
        40.7504         37.7504
 20  5 20  0 23 30.0000000  0  9G16G09G22G04G27G08G07G26G03
 -23872805.83948 -18471763.63446  20702839.9694                   20702831.8014
        48.7504         39.0004
 -23054419.38048 -17952031.17148  20991291.7424                   20991286.1134
        48.7504         52.0004
    612521.98846    379909.48742  25567620.7194                   25567611.6684
        36.0004         17.7504
 -27429217.66148 -21276724.46447  20257006.3754                   20257000.0394
        49.0004         42.0004
  -9743034.16647  -7568102.54846  23138219.5554                   23138216.0554
        43.0004         41.7504
  -4696408.54346  -3642130.06145  24187688.8984                   24187685.2424
        38.5004         32.5004
 -11210942.15347  -8646863.17446  23295343.3054                   23295336.7854
        44.5004         41.0004
  -8954892.47347  -6945698.32146  23058025.0554                   23058020.6564
        42.7504         39.0004
  -8702240.67346  -6764279.04946  23637004.0944                   23636998.6844
        41.7504         37.0004
 20  5 20  0 24  0.0000000  0  9G16G09G22G04G27G08G07G26G03
 -23827283.84448 -18436291.95246  20711502.3914                   20711494.0824
        48.5004         39.0004
 -23110471.17348 -17995707.89748  20980625.0704                   20980619.3794
        48.7504         52.2504
    714459.41545    459341.19542  25587018.6954                   25587009.9534
        34.7504         17.2504
 -27418182.20548 -21268125.42547  20259106.5944                   20259100.0474
        48.2504         42.0004
  -9821956.60247  -7629600.53046  23123202.0704                   23123197.2114
        44.2504         41.5004
  -4797526.33946  -3720923.17945  24168446.7114                   24168442.7974
        36.7504         32.2504
 -11280315.13047  -8700920.04646  23282143.2344                   23282136.1414
        44.0004         40.5004
  -8859469.14246  -6871342.50246  23076183.3754                   23076178.7384
        41.5004         38.2504
  -8595547.87346  -6681141.83746  23657307.2734                   23657301.5004
        41.5004         36.5004
 20  5 20  0 24 30.0000000  0  8G16G09G04G27G08G07G26G03
 -23781186.92148 -18400372.28846  20720274.2344                   20720266.1684
        48.5004         38.5004
 -23166156.30548 -18039098.90548  20970028.7974                   20970023.0744
        49.0004         52.2504
 -27406682.29948 -21259164.47047  20261295.0084                   20261288.6684
        48.2504         42.2504
  -9900533.54147  -7690829.28746  23108249.3444                   23108245.7234
        44.2504         41.7504
  -4898596.06746  -3799678.81545  24149213.7114                   24149210.8794
        36.7504         32.5004
 -11349576.58847  -8754890.01346  23268963.2584                   23268955.5514
        43.2504         40.7504
  -8763817.34447  -6796808.65846  23094385.2114                   23094381.0594
        42.5004         39.0004
  -8488743.31846  -6597917.53046  23677630.7034                   23677626.2504
        41.2504         36.2504
 20  5 20  0 25  0.0000000  0  8G16G09G04G27G08G07G26G03
 -23734524.94948 -18364012.31946  20729154.1954                   20729145.9614
        48.5004         38.7504
 -23221480.45348 -18082208.64048  20959500.7664                   20959495.1884
        49.5004         52.2504
 -27394725.12448 -21249847.21046  20263570.1884                   20263564.0274
        48.5004         41.7504
  -9978769.42247  -7751792.28146  23093361.2734                   23093356.8134
        44.0004         40.5004
  -4999623.62946  -3878401.58445  24129989.7504                   24129984.7194
        37.5004         32.7504
 -11418734.13247  -8808779.01646  23255802.9384                   23255795.1764
        43.5004         40.5004
  -8667947.22047  -6722104.70046  23112628.7424                   23112624.7274
        42.5004         39.5004
  -8381837.68246  -6514614.46546  23697974.4694                   23697969.3634
        41.5004         36.0004
 20  5 20  0 25 30.0000000  0  8G16G09G04G27G08G07G26G03
 -23687296.60548 -18327211.01646  20738141.0704                   20738132.8594
        48.7504         39.0004
 -23276437.87148 -18125032.60348  20949042.7034                   20949036.8984
        49.2504         52.2504
 -27382306.28248 -21240170.20346  20265933.5634                   20265927.1804
        48.2504         41.5004
 -10056657.16247  -7812484.04146  23078539.7664                   23078535.3164
        43.2504         41.0004
  -5100601.05146  -3957085.27745  24110774.1644                   24110769.7854
        38.0004         33.2504
 -11487783.93147  -8862584.03846  23242663.5234                   23242656.0904
        43.7504         41.2504
  -8571857.58047  -6647229.69446  23130913.9454                   23130909.8204
        43.0004         39.0004
  -8274830.15647  -6431232.02046  23718338.0004                   23718332.6884
        42.7504         37.2504
 20  5 20  0 26  0.0000000  0  8G16G09G04G27G08G07G26G03
 -23639503.68147 -18289969.78946  20747235.4924                   20747227.6174
        47.5004         39.0004
 -23331026.40848 -18167569.13248  20938654.8914                   20938649.0864
        49.5004         52.5004
 -27369425.12048 -21230132.94847  20268384.5634                   20268378.5124
        48.5004         42.0004
 -10134193.42447  -7872901.90046  23063785.2344                   23063779.9184
        44.0004         40.0004
  -5201525.28846  -4035727.52145  24091568.9844                   24091565.3404
        38.5004         35.0004
 -11556725.58347  -8916304.80446  23229544.3984                   23229536.9804
        43.5004         41.5004
  -8475550.83347  -6572185.51246  23149240.9384                   23149236.4304
        42.5004         38.7504
  -8167723.53147  -6347772.34046  23738719.3444                   23738714.2934
        42.0004         38.0004
 20  5 20  0 26 30.0000000  0  8G16G09G04G27G08G07G26G03
 -23591148.67847 -18252290.57946  20756437.3364                   20756429.0434
        47.7504         38.0004
 -23385244.02648 -18209816.63548  20928337.6724                   20928332.2234
        49.0004         52.5004
 -27356081.01747 -21219734.96347  20270924.2814                   20270917.7704
        47.5004         42.0004
 -10211374.86647  -7933043.29646  23049096.9454                   23049092.6454
        44.2504         40.7504
  -5302393.41546  -4114326.08245  24072373.5164                   24072370.0904
        38.5004         34.5004
 -11625559.03747  -8969941.24846  23216446.0234                   23216438.2384
        44.0004         41.5004
  -8379029.60147  -6496974.19846  23167607.6724                   23167604.2704
        42.2504         38.2504
  -8060520.81646  -6264237.79046  23759119.1564                   23759114.6454
        40.7504         37.2504
 20  5 20  0 27  0.0000000  0  8G16G09G04G27G08G07G26G03
 -23542234.09247 -18214175.32246  20765745.3754                   20765737.0904
        47.7504         38.2504
 -23439088.77748 -18251773.58748  20918091.3594                   20918085.7854
        49.7504         52.5004
 -27342273.49948 -21208975.87347  20273551.7034                   20273545.4844
        48.2504         42.0004
 -10288198.40447  -7992905.77346  23034479.4454                   23034474.3714
        44.7504         41.0004
  -5403202.27746  -4192878.42545  24053191.6174                   24053186.5434
        39.5004         34.7504
 -11694284.53347  -9023493.57146  23203367.4774                   23203360.6644
        43.7504         41.5004
  -8282296.31947  -6421597.65046  23186015.1484                   23186011.8754
        42.5004         39.0004
  -7953224.85146  -6180630.60046  23779536.5554                   23779532.7934
        41.5004         37.5004
 20  5 20  0 27 30.0000000  0  8G16G09G04G27G08G07G26G03
 -23492761.92347 -18175625.60346  20775159.7894                   20775151.9344
        47.5004         38.5004
 -23492558.69148 -18293438.46448  20907916.5554                   20907910.6054
        50.0004         52.2504
 -27328002.10948 -21197855.32946  20276267.4774                   20276261.1524
        48.2504         41.5004
 -10364660.77047  -8052486.83246  23019928.3674                   23019923.8054
        44.0004         41.2504
  -5503948.62346  -4271382.10445  24034019.0004                   24034016.0474
        39.7504         34.7504
 -11762901.70147  -9076961.47246  23190310.0474                   23190303.1524
        44.0004         41.7504
  -8185353.62247  -6346057.93746  23204463.4144                   23204459.2624
        43.5004         38.5004
  -7845838.74146  -6096953.15246  23799971.3984                   23799967.1454
        40.2504         36.2504
 20  5 20  0 28  0.0000000  0  8G16G09G04G27G08G07G26G03
 -23442733.51047 -18136642.43346  20784679.6174                   20784671.7734
        47.5004         37.7504
 -23545651.05248 -18334809.14348  20897813.1024                   20897807.4454
        49.7504         52.2504
 -27313265.56048 -21186372.31446  20279071.7424                   20279065.2624
        48.0004         41.5004
 -10440758.04447  -8111783.37846  23005447.6644                   23005443.2934
        43.7504         41.0004
  -5604629.19446  -4349834.54745  24014859.8204                   24014856.7704
        37.7504         34.0004
 -11831409.80147  -9130344.39546  23177273.5864                   23177265.9224
        43.7504         41.5004
  -8088203.36447  -6270356.47346  23222950.6954                   23222946.3914
        42.0004         38.0004
  -7738364.65746  -6013207.13646  23820423.2344                   23820419.2894
        39.0004         36.5004
 20  5 20  0 28 30.0000000  0  8G16G09G04G27G08G07G26G03
 -23392152.58647 -18097228.73946  20794305.0704                   20794297.1484
        47.5004         38.5004
 -23598364.64548 -18375884.68348  20887782.0314                   20887776.2154
        50.0004         52.5004
 -27298064.14548 -21174527.07246  20281964.1954                   20281957.8134
        48.0004         41.2504
 -10516487.74047  -8170793.52546  22991035.8364                   22991032.4534
        42.0004         41.0004
  -5705241.17646  -4428233.47445  23995715.6644                   23995710.1804
        38.5004         32.0004
 -11899809.34747  -9183642.73646  23164257.2504                   23164250.1994
        44.2504         41.5004
  -7990848.76547  -6194495.77546  23241477.1174                   23241472.7384
        42.0004         37.7504
  -7630806.21546  -5929395.39845  23840890.6254                   23840885.8364
        40.2504         35.5004
 20  5 20  0 29  0.0000000  0  8G16G09G04G27G08G07G26G03
 -23341020.52148 -18057385.58446  20804035.5004                   20804027.5274
        48.2504         38.7504
 -23650696.81848 -18416663.00848  20877823.9144                   20877818.2074
        50.0004         52.5004
 -27282396.71648 -21162318.70146  20284945.9454                   20284939.3754
        48.2504         41.7504
 -10591846.07047  -8229514.27846  22976696.0314                   22976692.2304
        43.7504         41.7504
  -5805780.92946  -4506576.14745  23976582.7664                   23976579.0394
        38.2504         33.2504
 -11968099.90347  -9236856.13746  23151261.2734                   23151254.6134
        44.5004         41.2504
  -7893291.71246  -6118477.33246  23260040.8364                   23260036.7544
        41.5004         37.5004
  -7523165.83846  -5845519.79345  23861373.0944                   23861369.7584
        40.0004         35.2504
 20  5 20  0 29 30.0000000  0  8G16G09G04G27G08G07G26G03
 -23289340.04348 -18017115.09546  20813869.9384                   20813861.8054
        48.5004         38.2504
 -23702645.94948 -18457142.86148  20867938.2344                   20867932.6644
        49.7504         52.5004
 -27266263.18648 -21149747.13846  20288015.8204                   20288009.5044
        48.0004         41.7504
 -10666830.17247  -8287943.41447  22962428.1174                   22962422.6254
        44.5004         42.5004
  -5906245.77646  -4584860.46745  23957464.2114                   23957461.1604
        37.2504         34.5004
 -12036281.61747  -9289984.73446  23138287.2424                   23138280.0004
        44.5004         41.5004
  -7795535.11847  -6042303.40846  23278643.8204                   23278639.1724
        42.5004         37.5004
  -7415446.76646  -5761582.88945  23881872.8594                   23881868.2664
        40.2504         35.2504
 20  5 20  0 30  0.0000000  0  8G16G09G04G27G08G07G26G03
 -23237113.97748 -17976419.47046  20823807.9384                   20823799.9734
        48.0004         38.0004
 -23754210.32848 -18497322.90348  20858125.6884                   20858120.1604
        48.7504         52.5004
 -27249663.36548 -21136812.23446  20291174.9454                   20291168.0474
        48.0004         41.5004
 -10741437.05747  -8346078.67347  22948229.0784                   22948226.0084
        42.5004         42.0004
  -6006632.54446  -4663083.94145  23938361.5554                   23938358.5904
        38.5004         34.5004
 -12104354.70447  -9343028.68646  23125333.3524                   23125326.1294
        43.7504         41.5004
  -7697581.75647  -5965976.13846  23297283.0004                   23297279.4344
        42.0004         37.0004
  -7307652.14546  -5677587.11645  23902385.3204                   23902380.5704
        40.7504         35.7504
 20  5 20  0 30 30.0000000  0  8G16G09G04G27G08G07G26G03
 -23184343.84647 -17935299.89946  20833849.7034                   20833841.6954
        47.7504         37.7504
 -23805387.38248 -18537201.12848  20848387.4694                   20848381.5634
        49.5004         52.5004
 -27232596.18747 -21123513.15346  20294422.5234                   20294416.2304
        47.0004         41.5004
 -10815663.03547  -8403917.08446  22934105.2664                   22934100.5664
        43.5004         41.7504
  -6106937.25746  -4741243.43546  23919275.1884                   23919271.8674
        39.7504         37.0004
 -12172318.57947  -9395987.53946  23112400.4224                   23112393.0394
        44.0004         41.7504
  -7599433.50747  -5889497.02846  23315960.7584                   23315956.2664
        42.0004         37.2504
  -7199784.36746  -5593534.35846  23922912.7814                   23922907.7544
        40.7504         36.0004
 20  5 20  0 31  0.0000000  0  8G16G09G04G27G08G07G26G03
 -23131032.63148 -17893758.69846  20843994.5944                   20843986.3984
        48.2504         38.2504
 -23856175.54348 -18576776.32548  20838722.3524                   20838716.6604
        50.0004         52.5004
 -27215061.65547 -21109849.89446  20297759.4924                   20297752.9064
        47.7504         41.2504
 -10889505.29247  -8461456.47846  22920054.7114                   22920049.3364
        45.2504         41.5004
  -6207157.62046  -4819337.25645  23900203.1174                   23900199.6954
        39.2504         35.7504
 -12240173.41747  -9448861.43046  23099488.2194                   23099480.3674
        44.5004         41.7504
  -7501093.28746  -5812868.31946  23334674.1644                   23334670.3984
        41.7504         37.2504
  -7091846.66546  -5509427.09946  23943452.3754                   23943447.5004
        40.2504         36.2504
 20  5 20  0 31 30.0000000  0  8G16G09G04G27G08G07G26G03
 -23077182.25248 -17851797.37446  20854242.0704                   20854233.9344
        48.0004         38.0004
 -23906572.27548 -18616046.50848  20829132.2814                   20829126.8554
        50.0004         52.5004
 -27197058.77247 -21095821.68946  20301184.8834                   20301178.9454
        47.7504         41.5004
 -10962960.12447  -8518694.01546  22906075.2894                   22906070.6884
        43.5004         41.0004
  -6307289.73446  -4897362.25946  23881148.8204                   23881145.7894
        40.0004         37.5004
 -12307918.63647  -9501649.90247  23086596.6254                   23086589.5084
        44.7504         42.0004
  -7402563.04946  -5736091.54646  23353423.2734                   23353419.5474
        41.7504         37.2504
  -6983841.46946  -5425267.28046  23964004.7034                   23964000.1134
        41.2504         36.0004
 20  5 20  0 32  0.0000000  0  9G16G09G04G30G27G08G07G26G03
 -23022795.66147 -17809418.22546  20864591.1564                   20864582.9654
        47.5004         37.5004
 -23956576.13448 -18655010.56148  20819616.9694                   20819611.1454
        49.7504         52.5004
 -27178587.66547 -21081428.63146  20304699.9454                   20304693.7384
        47.5004         41.5004
                                  25675174.789
        34.000
 -11036024.85347  -8575627.55146  22892172.5084                   22892167.1684
        44.5004         41.5004
  -6407330.91546  -4975316.43045  23862112.3674                   23862107.8984
        39.7504         35.5004
 -12375554.61947  -9554353.27247  23073725.8834                   23073718.4534
        44.2504         42.2504
  -7303845.74747  -5659169.02346  23372209.1254                   23372204.9144
        42.0004         37.5004
  -6875772.13546  -5341057.47245  23984570.0394                   23984565.0514
        41.5004         35.0004
 20  5 20  0 32 30.0000000  0  9G16G09G04G30G27G08G07G26G03
 -22967879.83948 -17766626.67846  20875041.5314                   20875033.4884
        48.0004         37.7504
 -24006189.60648 -18693670.40948  20810175.7034                   20810169.9104
        50.0004         52.7504
 -27159652.38547 -21066673.88346  20308303.1804                   20308296.9734
        47.0004         41.5004
    456324.45845    375701.31954  25658747.3834                   25658743.0944
        35.0004         26.7504
 -11108700.80847  -8632258.15547  22878342.5554                   22878337.9184
        44.0004         42.5004
  -6507282.81346  -5053201.07545  23843090.8914                   23843087.1374
        38.5004         34.5004
 -12443086.04747  -9606975.15647  23060875.1094                   23060867.5554
        44.2504         42.5004
  -7204948.30846  -5582106.12346  23391028.1254                   23391024.7854
        40.2504         37.7504
  -6767646.13646  -5256803.46345  24005144.9774                   24005140.7544
        40.7504         35.2504
 20  5 20  0 33  0.0000000  0  9G16G09G04G30G27G08G07G26G03
 -22912427.32947 -17723416.94246  20885593.7034                   20885585.7664
        47.7504         37.2504
 -24055401.00548 -18732016.96248  20800811.5164                   20800805.5274
        50.0004         52.7504
 -27140242.85247 -21051549.58646  20311996.9774                   20311990.4024
        47.5004         41.5004
    370029.67545    308458.47844  25642326.2664                   25642321.8594
        35.5004         26.5004
 -11180975.12347  -8688575.79647  22864588.9144                   22864584.5944
        43.5004         42.2504
  -6607132.33446  -5131005.85945  23824090.5394                   23824086.3014
        39.0004         34.0004
 -12510502.27347  -9659507.25647  23048046.3134                   23048039.0904
        44.2504         42.5004
  -7105863.55746  -5504897.27946  23409884.3134                   23409880.3014
        41.2504         37.2504
  -6659456.49446  -5172499.89045  24025733.0084                   24025728.7894
        40.7504         35.0004
 20  5 20  0 33 30.0000000  0  9G16G09G04G30G27G08G07G26G03
 -22856445.56647 -17679794.79446  20896246.8674                   20896238.2464
        47.5004         37.5004
 -24104213.41748 -18770052.60748  20791522.5394                   20791517.1524
        50.0004         53.0004
 -27120363.69547 -21036059.34646  20315779.7424                   20315773.3874
        46.5004         41.5004
    283758.99645    241234.46544  25625909.0944                   25625905.1094
        33.5004         25.5004
 -11252849.68647  -8744581.94747  22850911.5314                   22850907.2544
        43.7504         42.0004
  -6706880.98246  -5208732.08045  23805108.8834                   23805104.8204
        39.5004         34.5004
 -12577808.66147  -9711953.77747  23035238.2114                   23035231.0864
        44.5004         42.2504
  -7006598.91846  -5427548.24646  23428773.5944                   23428769.1454
        40.7504         37.2504
  -6551211.22946  -5088152.96845  24046330.6724                   24046326.9614
        40.7504         34.7504
 20  5 20  0 34  0.0000000  0  9G16G09G04G30G27G08G07G26G03
 -22799936.91147 -17635762.08646  20907000.1564                   20906991.7504
        47.2504         38.0004
 -24152624.66348 -18807775.66548  20782310.0944                   20782304.4064
        49.7504         53.0004
 -27100014.36947 -21020202.73446  20319651.9454                   20319646.1604
        46.2504         41.5004
    197512.97045    174029.73444  25609498.0164                   25609493.1954
        34.0004         26.0004
 -11324321.19947  -8800274.02846  22837310.5944                   22837306.1254
        42.5004         41.7504
  -6806526.05446  -5286377.60045  23786147.4454                   23786144.4614
        40.5004         35.5004
 -12645005.22047  -9764314.72047  23022451.0784                   23022443.6994
        44.5004         42.2504
  -6907156.60546  -5350060.78746  23447697.3914                   23447692.5864
        41.0004         37.0004
  -6442912.93946  -5003764.72245  24066939.2664                   24066935.4104
        40.5004         35.2504
 20  5 20  0 34 30.0000000  0  9G16G09G04G30G27G08G07G26G03
 -22742904.07947 -17591320.93346  20917852.9774                   20917844.8834
        47.5004         38.2504
 -24200632.87248 -18845184.66948  20773174.5474                   20773168.6564
        50.7504         52.7504
 -27079194.65047 -21003979.60046  20323614.0004                   20323607.4804
        46.5004         41.2504
    111291.53845    106844.22144  25593089.8284                   25593086.1254
        33.5004         28.0004
 -11395386.56047  -8855649.63247  22823787.0084                   22823783.5434
        43.5004         42.2504
  -6906063.61446  -5363939.35746  23767205.9844                   23767202.3794
        40.2504         36.0004
 -12712091.70047  -9816589.88647  23009685.1094                   23009677.5784
        44.5004         42.2504
  -6807539.23346  -5272436.89946  23466653.2664                   23466649.3364
        40.7504         37.0004
  -6334564.61446  -4919337.52745  24087558.7344                   24087553.9224
        40.7504         34.5004
 20  5 20  0 35  0.0000000  0  9G16G09G04G30G27G08G07G26G03
 -22685349.89747 -17546473.51646  20928805.2584                   20928796.8594
        47.7504         37.5004
 -24248236.26448 -18882278.22548  20764115.8914                   20764110.1414
        49.5004         53.0004
 -27057904.33247 -20987389.75546  20327665.5084                   20327659.4494
        46.2504         41.0004
     25094.98346     39678.03444  25576688.3364                   25576683.4844
        36.0004         26.0004
 -11466042.86047  -8910706.47247  22810342.6024                   22810338.0784
        43.7504         42.5004
  -7005491.05546  -5441415.27946  23748285.8364                   23748282.6254
        39.7504         37.0004
 -12779067.65547  -9868778.92547  22996939.7194                   22996932.7304
        44.2504         42.5004
  -6707749.33646  -5194678.59546  23485642.9694                   23485638.4844
        41.5004         37.0004
  -6226169.32346  -4834873.68245  24108184.1334                   24108180.7584
        39.0004         34.5004
 20  5 20  0 35 30.0000000  0  9G16G09G04G30G27G08G07G26G03
 -22627276.08747 -17501221.21046  20939856.2974                   20939847.9534
        47.5004         37.5004
 -24295432.42248 -18919054.46748  20755134.7504                   20755128.8954
        50.2504         53.0004
 -27036142.65947 -20970432.62346  20331806.3594                   20331800.3404
        46.5004         41.0004
    -61076.30046    -27468.56143  25560289.7344                   25560285.3594
        36.7504         22.7504
 -11536286.59847  -8965441.85647  22796975.1484                   22796970.8134
        43.2504         42.5004
  -7104804.84146  -5518802.61345  23729386.9224                   23729381.6094
        40.5004         35.5004
 -12845933.06447  -9920881.83347  22984215.5864                   22984208.4024
        44.5004         42.2504
  -6607788.92046  -5116787.40245  23504664.7584                   23504660.5634
        40.5004         35.7504
  -6117729.41546  -4750375.10045  24128819.6954                   24128816.0984
        38.5004         34.7504
 20  5 20  0 36  0.0000000  0  9G16G09G04G30G27G08G07G26G03
 -22568685.57047 -17455566.27346  20951005.8834                   20950997.4304
        47.2504         38.0004
 -24342219.78448 -18955512.15648  20746231.0554                   20746225.4534
        50.2504         52.7504
 -27013909.69547 -20953108.26246  20336037.4844                   20336031.0944
        46.5004         41.0004
   -147222.28845    -94595.35044  25543897.4694                   25543892.2704
        35.5004         26.2504
 -11606114.97147  -9019853.57147  22783687.7034                   22783682.7034
        43.7504         42.0004
  -7204002.22346  -5596099.26646  23710509.5084                   23710505.6884
        39.7504         36.0004
 -12912688.22647  -9972898.83047  22971512.7034                   22971505.5744
        44.0004         42.5004
  -6507660.72846  -5038765.48546  23523718.1024                   23523714.2734
        40.5004         36.2504
  -6009248.18146  -4665844.33445  24149464.1414                   24149459.6294
        39.5004         35.0004
 20  5 20  0 36 30.0000000  0  9G16G09G04G30G27G08G07G26G03
 -22509580.96347 -17409510.73646  20962253.0084                   20962245.2584
        47.0004         38.0004
 -24388596.27448 -18991649.69048  20737406.0784                   20737400.2854
        50.2504         52.7504
 -26991204.99147 -20935416.31046  20340358.3054                   20340351.6884
        46.5004         41.2504
   -233342.87446   -161702.34144  25527508.4304                   25527504.2974
        37.2504         27.5004
 -11675524.79247  -9073939.14746  22770479.0784                   22770474.6334
        43.0004         41.7504
  -7303079.52346  -5673302.31245  23691655.2894                   23691651.7974
        38.7504         34.5004
 -12979332.30447 -10024829.27047  22958830.9844                   22958823.2304
        44.2504         42.5004
  -6407367.08346  -4960614.63345  23542803.3984                   23542799.5864
        40.5004         35.5004
  -5900728.27546  -4581283.42145  24170114.0084                   24170110.4774
        39.2504         34.5004
 20  5 20  0 37  0.0000000  0  9G16G09G04G30G27G08G07G26G03
 -22449964.26448 -17363056.18246  20973597.6414                   20973589.4694
        48.0004         37.7504
 -24434559.82948 -19027465.45548  20728659.5864                   20728654.0434
        49.7504         53.0004
 -26968028.13647 -20917356.43546  20344768.6644                   20344762.1844
        46.7504         40.7504
   -319437.63046   -228789.22644  25511125.6094                   25511121.1374
        37.0004         28.5004
 -11744512.88047  -9127696.10947  22757350.9614                   22757346.7424
        43.5004         42.0004
  -7402033.35246  -5750409.16646  23672825.7584                   23672824.0514
        38.2504         36.2504
 -13045865.56547 -10076673.35447  22946170.1564                   22946162.3134
        44.7504         42.5004
  -6306910.24146  -4882336.62746  23561920.0084                   23561916.1684
        41.2504         36.0004
  -5792172.48946  -4496694.54345  24190772.4224                   24190768.0594
        40.5004         34.7504
 20  5 20  0 37 30.0000000  0  9G16G09G04G30G27G08G07G26G03
 -22389838.69847 -17316205.10746  20985039.0704                   20985031.5314
        47.2504         37.5004
 -24480108.77148 -19062958.14248  20719992.2034                   20719986.0664
        50.2504         53.0004
 -26944379.15347 -20898928.68246  20349268.6724                   20349262.4414
        47.0004         41.0004
   -405506.54846   -295855.94544  25494747.2734                   25494743.1454
        36.2504         24.5004
 -11813076.37947  -9181122.20947  22744303.8524                   22744299.3914
        43.5004         42.5004
  -7500860.93246  -5827417.68645  23654019.8054                   23654016.1374
        39.0004         35.5004
 -13112288.02247 -10128431.10447  22933530.3284                   22933522.8404
        44.5004         42.7504
  -6206292.78346  -4803933.44845  23581066.2344                   23581062.8524
        41.2504         35.5004
  -5683583.78246  -4412079.98845  24211434.5394                   24211431.4654
        38.5004         34.7504
 20  5 20  0 38  0.0000000  0  9G16G09G04G30G27G08G07G26G03
 -22329206.39847 -17268959.17146  20996577.1644                   20996569.5784
        47.5004         37.5004
 -24525240.92048 -19098126.06848  20711403.8524                   20711397.9104
        49.7504         53.0004
 -26920257.51047 -20880132.61246  20353858.8444                   20353852.5594
        46.2504         41.0004
   -491549.16546   -362902.18744  25478374.0164                   25478369.8794
        36.5004         28.5004
 -11881212.02347  -9234214.91847  22731338.2114                   22731333.9734
        44.0004         42.7504
  -7599558.71246  -5904325.00745  23635239.1804                   23635233.2734
        40.0004         35.0004
 -13178599.16047 -10180102.10447  22920912.0084                   22920903.8284
        45.2504         42.7504
  -6105516.90846  -4725406.83545  23600244.1954                   23600239.2814
        41.7504         35.2504
  -5574964.87246  -4327441.93645  24232105.8984                   24232101.0314
        40.2504         33.7504
 20  5 20  0 38 30.0000000  0  9G16G09G04G30G27G08G07G26G03
 -22268070.04447 -17221320.46446  21008210.5164                   21008202.9024
        47.2504         37.5004
 -24569954.49948 -19132967.83148  20702894.8834                   20702889.2624
        50.0004         53.0004
 -26895663.13447 -20860968.17746  20358539.2504                   20358532.8014
        46.0004         40.5004
   -577565.38646   -429927.86944  25462005.9774                   25462001.2074
        37.0004         28.7504
 -11948916.90247  -9286971.96047  22718454.2424                   22718450.0084
        43.0004         42.7504
  -7698123.46646  -5981128.73946  23616482.5394                   23616477.1844
        39.7504         36.0004
 -13244799.34947 -10231686.66147  22908313.5084                   22908306.7894
        45.2504         42.7504
  -6004585.23247  -4646758.84546  23619452.8284                   23619446.7154
        42.5004         36.0004
  -5466318.71046  -4242782.60945  24252780.7734                   24252775.9304
        39.7504         33.2504
 20  5 20  0 39  0.0000000  0  9G16G09G04G30G27G08G07G26G03
 -22206432.16147 -17173290.95546  21019940.2344                   21019932.4264
        47.5004         38.0004
 -24614247.43048 -19167481.80848  20694466.2344                   20694460.8834
        50.0004         53.0004
 -26870595.56847 -20841435.02646  20363309.3674                   20363303.2504
        46.2504         40.7504
   -663554.87945   -496932.72344  25445642.3364                   25445637.9924
        34.7504         27.0004
 -12016187.80747  -9339390.85447  22705653.1724                   22705648.5394
        43.7504         43.0004
  -7796551.94946  -6057826.24245  23597751.7034                   23597747.2624
        39.5004         35.5004
 -13310887.83547 -10283184.16747  22895737.8054                   22895730.5704
        44.5004         43.0004
  -5903499.77546  -4567990.98845  23638686.8914                   23638683.1564
        41.0004         35.2504
  -5357647.83346  -4158104.03645  24273459.5944                   24273455.2274
        38.7504         33.2504
 20  5 20  0 39 30.0000000  0  9G16G09G04G30G27G08G07G26G03
 -22144295.92147 -17124873.11046  21031764.6954                   21031756.9344
        47.2504         37.7504
 -24658118.22948 -19201666.85648  20686117.8674                   20686112.6254
        50.2504         53.2504
 -26845055.14247 -20821533.41146  20368169.5474                   20368163.4414
        46.0004         40.5004
   -749517.89545   -563916.82444  25429282.8984                   25429280.4844
        33.2504         25.2504
 -12083022.17947  -9391469.58447  22692935.2424                   22692930.6884
        44.0004         43.2504
  -7894841.36646  -6134415.40046  23579047.5164                   23579045.7194
        38.5004         37.0004
 -13376864.72647 -10334594.72147  22883182.1884                   22883175.1024
        44.2504         42.7504
  -5802263.41547  -4489105.57246  23657952.3674                   23657948.0784
        43.0004         36.2504
  -5248955.54146  -4073408.80345  24294143.3524                   24294138.6174
        39.5004         33.0004
 20  5 20  0 40  0.0000000  0  9G16G09G04G30G27G08G07G26G03
 -22081663.16347 -17076068.37146  21043683.3674                   21043675.2584
        47.5004         36.7504
 -24701564.22348 -19235520.88048  20677850.3364                   20677844.8594
        50.2504         53.2504
 -26819040.82347 -20801262.52146  20373119.6334                   20373113.2304
        46.0004         40.7504
   -835453.36745   -630879.59244  25412930.9454                   25412927.4264
        35.7504         27.2504
 -12149416.24547  -9443205.21947  22680300.4144                   22680296.1724
        43.7504         43.0004
  -7992987.95346  -6210893.26246  23560370.4304                   23560367.1604
        39.5004         36.7504
 -13442729.62047 -10385918.00847  22870648.6954                   22870641.6484
        44.7504         43.0004
  -5700877.73346  -4410103.79346  23677245.6174                   23677240.6334
        41.2504         36.5004
  -5140243.94746  -3988698.50045  24314831.3674                   24314825.8404
        40.0004         33.5004
 20  5 20  0 40 30.0000000  0  9G16G09G04G30G27G08G07G26G03
 -22018536.55547 -17026878.81746  21055695.6024                   21055687.6564
        47.7504         37.0004
 -24744584.08848 -19269042.85648  20669664.0864                   20669658.5124
        50.7504         53.2504
 -26792552.98647 -20780622.66646  20378160.0634                   20378153.8554
        46.0004         41.0004
   -921361.67246   -697821.21644  25396583.9844                   25396579.3984
        36.5004         29.7504
 -12215367.56247  -9494595.85447  22667750.1024                   22667745.8674
        43.2504         43.5004
  -8090988.86946  -6287257.57745  23541721.5554                   23541716.8094
        39.5004         35.5004
 -13508482.82747 -10437154.25247  22858136.9614                   22858129.3794
        44.5004         43.2504
  -5599345.67746  -4330987.94345  23696565.6564                   23696562.0864
        41.5004         35.0004
  -5031516.40146  -3903975.78745  24335520.7114                   24335515.7274
        40.5004         33.2504
 20  5 20  0 41  0.0000000  0  9G16G09G04G30G27G08G07G26G03
 -21954918.64047 -16977306.42846  21067801.8834                   21067794.0554
        47.5004         37.5004
 -24787175.58448 -19302231.03248  20661559.3444                   20661553.3164
        50.5004         53.5004
 -26765591.13547 -20759613.44446  20383290.9064                   20383284.4884
        46.0004         40.2504
  -1007242.30846   -764741.18045  25380240.7894                   25380236.7704
        36.0004         30.5004
 -12280872.79547  -9545638.88347  22655285.3914                   22655281.0164
        43.7504         43.2504
  -8188840.32746  -6363505.42746  23523101.0164                   23523097.3094
        39.7504         36.5004
 -13574123.47147 -10488302.79447  22845645.6564                   22845638.2384
        44.7504         43.2504
  -5497669.16746  -4251759.56745  23715913.8984                   23715910.2424
        41.5004         35.0004
  -4922775.29846  -3819242.48945  24356212.6804                   24356208.9224
        38.7504         32.7504
 20  5 20  0 41 30.0000000  0  9G16G09G04G30G27G08G07G26G03
 -21890813.06548 -16927354.03846  21080000.4844                   21079992.3524
        48.2504         36.5004
 -24829337.46348 -19335084.44848  20653535.9844                   20653530.2384
        50.7504         53.5004
 -26738155.74447 -20738235.23246  20388511.7664                   20388505.6604
        46.0004         40.5004
  -1093095.54346   -831639.92144  25363903.7504                   25363898.8204
        36.5004         28.0004
 -12345929.61347  -9596332.49047  22642905.2114                   22642900.9774
        43.2504         43.0004
  -8286539.88246  -6439634.95246  23504510.5164                   23504507.6524
        40.0004         38.0004
 -13639652.21347 -10539364.13247  22833176.0784                   22833168.4144
        45.2504         43.5004
  -5395851.23546  -4172420.95545  23735288.9224                   23735285.1374
        40.0004         34.7504
  -4814024.14846  -3734501.38145  24376908.0234                   24376903.4614
        40.5004         34.0004
 20  5 20  0 42  0.0000000  0  9G16G09G04G30G27G08G07G26G03
 -21826221.46047 -16877022.93446  21092291.7814                   21092283.6994
        47.7504         36.7504
 -24871067.23848 -19367601.15548  20645594.9224                   20645589.7074
        50.0004         53.5004
 -26710246.12547 -20716487.49046  20393822.5864                   20393815.9614
        46.0004         40.2504
  -1178920.79945   -898516.75744  25347571.7114                   25347567.7734
        35.5004         28.2504
 -12410534.48447  -9646673.93346  22630611.1644                   22630607.2974
        43.0004         41.5004
  -8384083.72146  -6515643.12745  23485948.0634                   23485943.5554
        38.7504         35.7504
 -13705068.88647 -10590338.15847  22820727.4064                   22820720.0234
        45.0004         43.7504
  -5293893.59446  -4092973.48145  23754690.5474                   23754687.2384
        39.5004         33.7504
  -4705265.10046  -3649754.13045  24397604.8674                   24397599.1564
        40.7504         32.5004
 20  5 20  0 42 30.0000000  0  9G16G09G04G30G27G08G07G26G03
 -21761147.08848 -16826315.63446  21104675.1804                   21104667.2664
        48.7504         37.2504
 -24912363.44148 -19399780.01048  20637736.7344                   20637731.1414
        49.7504         53.5004
 -26681862.47347 -20694370.37346  20399224.0634                   20399217.7304
        46.0004         40.2504
  -1264717.95246   -965371.74945  25331245.3834                   25331240.3874
        37.2504         30.7504
 -12474684.83847  -9696661.20747  22618404.0704                   22618399.7114
        43.7504         43.2504
  -8481468.53646  -6591527.41546  23467415.4224                   23467412.4304
        39.5004         37.0004
 -13770372.61747 -10641224.15747  22808300.6254                   22808293.1294
        44.7504         43.5004
  -5191798.87446  -4013419.21845  23774118.8204                   23774115.3834
        41.0004         34.5004
  -4596501.28146  -3565003.14445  24418300.8444                   24418296.5704
        40.5004         33.5004
 20  5 20  0 43  0.0000000  0  9G16G09G04G30G27G08G07G26G03
 -21695592.27648 -16775233.97746  21117149.8594                   21117141.8204
        48.5004         37.0004
 -24953223.82648 -19431619.27748  20629960.9924                   20629955.9184
        50.0004         53.5004
 -26653004.35047 -20671883.53946  20404715.3594                   20404709.2384
        46.2504         40.5004
  -1350486.53546  -1032204.45544  25314923.8284                   25314919.6644
        36.5004         28.7504
 -12538377.34247  -9746291.72347  22606283.9694                   22606279.6094
        44.5004         43.5004
  -8578691.20546  -6667285.28446  23448915.5704                   23448910.6994
        40.0004         36.2504
 -13835563.24947 -10692022.03047  22795895.5314                   22795887.6094
        44.7504         43.5004
  -5089569.09046  -3933759.71245  23793573.6174                   23793568.7584
        41.7504         35.5004
  -4487735.15846  -3480250.36945  24438999.1954                   24438994.1524
        39.7504         32.2504
 20  5 20  0 43 30.0000000  0  9G16G09G04G30G27G08G07G26G03
 -21629559.73048 -16723780.05346  21129715.5164                   21129707.4534
        48.5004         36.5004
 -24993646.78948 -19463117.69248  20622268.9224                   20622263.5084
        49.5004         53.5004
 -26623671.87947 -20649027.07546  20410297.3054                   20410290.7704
        46.0004         40.0004
  -1436226.64846  -1099014.96244  25298607.4614                   25298603.5784
        37.0004         27.7504
 -12601609.36547  -9795563.41347  22594251.3674                   22594246.6484
        44.0004         43.0004
  -8675748.10346  -6742914.08246  23430445.3674                   23430441.8674
        40.7504         36.5004
 -13900641.09247 -10742732.01247  22783511.3204                   22783503.8594
        45.0004         43.2504
  -4987206.74446  -3853996.87445  23813051.6564                   23813047.8674
        40.5004         34.7504
  -4378969.62746  -3395498.05845  24459695.5944                   24459691.7504
        38.0004         31.7504
 20  5 20  0 44  0.0000000  0  9G16G09G04G30G27G08G07G26G03
 -21563051.77448 -16671955.68346  21142371.9774                   21142363.9064
        48.5004         36.5004
 -25033630.12348 -19494273.53848  20614660.3594                   20614654.9184
        50.0004         53.5004
 -26593864.61247 -20625800.64546  20415969.4694                   20415963.5784
        45.7504         41.0004
  -1521937.52846  -1165802.67544  25282297.8284                   25282293.7504
        36.0004         27.0004
 -12664377.68947  -9844473.78147  22582306.5394                   22582302.5044
        44.0004         43.0004
  -8772636.36246  -6818411.40246  23412009.2344                   23412005.3284
        39.7504         37.7504
 -13965605.42847 -10793353.55247  22771148.9384                   22771141.8134
        44.7504         43.5004
  -4884713.77046  -3774132.27245  23832555.1884                   23832551.9844
        40.5004         35.0004
  -4270207.21546  -3310748.18045  24480393.2274                   24480388.4064
        39.7504         31.7504
 20  5 20  0 44 30.0000000  0  9G16G09G04G30G27G08G07G26G03
 -21496071.64948 -16619763.38546  21155117.4774                   21155109.3364
        48.7504         36.5004
 -25073172.58648 -19525085.85248  20607136.0004                   20607130.0124
        50.0004         53.5004
 -26563583.12947 -20602204.69846  20421731.6644                   20421725.6054
        46.0004         40.7504
  -1607619.72245  -1232568.15644  25265993.4224                   25265989.5664
        35.7504         28.5004
 -12726679.93647  -9893020.96547  22570450.8364                   22570446.2664
        43.5004         43.2504
  -8869352.67346  -6893774.72946  23393604.7814                   23393601.1994
        40.7504         38.5004
 -14030456.60547 -10843886.92647  22758807.8914                   22758801.0234
        44.5004         43.5004
  -4782093.00746  -3694168.11145  23852084.1094                   23852079.9024
        41.2504         34.2504
  -4161451.20346  -3226003.26645  24501087.1954                   24501083.8364
        36.7504         31.0004
 20  5 20  0 45  0.0000000  0  9G16G09G04G30G27G08G07G26G03
 -21428621.48348 -16567204.82946  21167953.0394                   21167944.7934
        48.5004         37.0004
 -25112271.63948 -19555552.65148  20599695.3914                   20599689.9534
        49.2504         53.2504
 -26532826.62847 -20578238.60246  20427584.1644                   20427578.5704
        45.7504         40.0004
  -1693272.15545  -1299310.36444  25249693.0704                   25249689.9344
        34.7504         28.2504
 -12788512.58147  -9941202.23347  22558683.9924                   22558679.4694
        43.5004         43.2504
  -8965893.39846  -6969001.28746  23375233.6174                   23375228.5474
        39.5004         37.2504
 -14095193.98247 -10894331.62547  22746489.0704                   22746481.6884
        44.7504         43.5004
  -4679346.12046  -3614105.66145  23871635.8364                   23871632.0124
        40.0004         34.7504
  -4052703.63746  -3141264.96645  24521780.6724                   24521778.2704
        37.2504         30.7504
 20  5 20  0 45 30.0000000  0  9G16G09G04G30G27G08G07G26G03
 -21360704.15848 -16514282.25246  21180877.4774                   21180869.3404
        48.5004         36.7504
 -25150925.95248 -19585672.90848  20592339.9384                   20592334.0634
        49.7504         53.5004
 -26501595.60147 -20553902.75446  20433527.3134                   20433521.6564
        45.5004         39.7504
  -1778895.18845  -1366029.63344  25233400.2194                   25233396.4534
        35.7504         28.7504
 -12849873.28347  -9989015.74647  22547007.8834                   22547003.4344
        43.7504         43.2504
  -9062255.78646  -7044088.83946  23356895.5944                   23356892.0514
        40.5004         37.7504
 -14159817.98647 -10944687.97447  22734191.5554                   22734184.0904
        45.0004         43.7504
  -4576475.84946  -3533947.05345  23891212.0784                   23891207.9534
        40.7504         34.5004
  -3943967.83146  -3056535.81245  24542474.9384                   24542469.9734
        39.7504         31.2504
 20  5 20  0 46  0.0000000  0  9G16G09G04G30G27G08G07G26G03
 -21292323.19348 -16460998.39346  21193889.4694                   21193881.6994
        48.7504         36.5004
 -25189133.81348 -19615445.27848  20585069.0704                   20585063.6684
        49.2504         53.5004
 -26469890.09147 -20529197.17546  20439560.8364                   20439554.7544
        46.0004         39.7504
  -1864488.60145  -1432725.88744  25217112.4064                   25217108.6374
        34.0004         28.0004
 -12910759.27847 -10036459.35747  22535422.1094                   22535417.0594
        43.7504         43.5004
  -9158436.66346  -7119034.96146  23338594.3204                   23338589.3954
        41.2504         38.0004
 -14224328.35947 -10994955.79347  22721915.3364                   22721908.3054
        44.7504         44.0004
  -4473484.44746  -3453694.07445  23910809.9384                   23910806.8634
        40.5004         34.0004
  -3835246.51946  -2971817.95645  24563163.4144                   24563158.7974
        39.5004         32.2504
 20  5 20  0 46 30.0000000  0  9G16G09G04G30G27G08G07G26G03
 -21223480.94248 -16407355.09446  21206990.0474                   21206981.6954
        48.0004         36.5004
 -25226893.30548 -19644868.26648  20577883.9774                   20577878.2854
        50.0004         53.5004
 -26437710.03647 -20504121.81646  20445684.8674                   20445678.6764
        45.5004         40.0004
  -1950052.08046  -1499398.70144  25200830.7974                   25200826.2274
        36.0004         29.2504
 -12971167.59247 -10083530.76147  22523926.3984                   22523921.4534
        44.5004         43.5004
  -9254432.40346  -7193836.84246  23320325.2504                   23320322.4304
        40.0004         38.0004
 -14288724.37947 -11045134.49947  22709661.5474                   22709654.1804
        45.2504         44.2504
  -4370374.17246  -3373348.43345  23930430.4454                   23930426.9964
        38.5004         33.7504
  -3726542.41346  -2887113.49245  24583849.4224                   24583844.7814
        39.7504         32.7504
 20  5 20  0 47  0.0000000  0  9G16G09G04G30G27G08G07G26G03
 -21154180.08448 -16353354.43646  21220177.1564                   21220169.3524
        48.7504         37.0004
 -25264202.73748 -19673940.56048  20570784.1484                   20570778.2464
        48.5004         53.2504
 -26405055.54247 -20478676.77046  20451898.2734                   20451892.1724
        46.2504         39.7504
  -2035585.54745  -1566048.20344  25184554.0944                   25184549.8284
        35.0004         27.5004
 -13031095.57347 -10130227.87747  22512522.6724                   22512517.7544
        43.5004         43.5004
  -9350240.15746  -7268492.23246  23302094.1414                   23302089.9844
        41.0004         38.0004
 -14353006.16047 -11095224.17947  22697428.8364                   22697421.8324
        45.0004         44.7504
  -4267147.34646  -3292912.00345  23950075.5004                   23950070.2624
        41.2504         34.5004
  -3617858.33446  -2802424.61545  24604529.5164                   24604527.3444
        37.5004         32.0004
 20  5 20  0 47 30.0000000  0  9G16G09G04G30G27G08G07G26G03
 -21084422.79848 -16298998.12746  21233451.9774                   21233443.6374
        48.7504         36.5004
 -25301059.98048 -19702660.49548  20563770.4144                   20563764.6804
        49.7504         53.5004
 -26371926.28547 -20452861.77646  20458202.8674                   20458196.6524
        45.7504         40.0004
  -2121088.42746  -1632673.88345  25168284.2344                   25168278.5824
        38.0004         30.0004
 -13090540.11047 -10176548.28247  22501210.8364                   22501206.0204
        43.7504         43.5004
  -9445856.16046  -7342998.19846  23283898.8674                   23283895.6684
        40.2504         38.0004
 -14417173.35847 -11145224.57247  22685218.1884                   22685211.3794
        45.2504         44.2504
  -4163805.87446  -3212386.23145  23969740.3754                   23969736.7034
        40.2504         33.7504
  -3509196.64946  -2717753.23945  24625207.1804                   24625204.9694
        38.2504         33.0004
 20  5 20  0 48  0.0000000  0  9G16G09G04G30G27G08G07G26G03
 -21014211.92448 -16244288.36846  21246812.3524                   21246804.3404
        48.5004         36.2504
 -25337463.24848 -19731026.68448  20556843.0554                   20556837.5044
        49.2504         53.7504
 -26338322.30347 -20426676.87446  20464597.4064                   20464591.3014
        46.0004         39.7504
  -2206560.42646  -1699275.42945  25152019.2194                   25152014.3524
        37.0004         30.5004
 -13149498.36047 -10222489.75847  22489991.1804                   22489986.4574
        43.7504         43.5004
  -9541277.08346  -7417352.14046  23265741.8054                   23265737.2624
        40.7504         37.7504
 -14481225.81247 -11195135.55847  22673029.8444                   22673021.8914
        45.0004         44.0004
  -4060351.97146  -3131772.83045  23989426.7974                   23989422.6294
        39.5004         33.0004
  -3400560.06046  -2633101.42745  24645881.5864                   24645877.4344
        38.5004         32.5004
 20  5 20  0 48 30.0000000  0  9G16G09G04G30G27G08G07G26G03
 -20943550.72048 -16189227.70346  21260259.0084                   21260251.0704
        48.5004         36.2504
 -25373410.97048 -19759037.90848  20550002.5704                   20549997.0554
        49.0004         53.7504
 -26304243.83747 -20400122.23546  20471082.4844                   20471076.2664
        46.2504         40.2504
  -2292001.54445  -1765853.00145  25135758.6884                   25135756.3014
        35.0004         31.0004
 -13207967.76047 -10268050.31147  22478864.6804                   22478860.0514
        44.2504         43.7504
  -9636499.90546  -7491551.75046  23247620.3204                   23247617.5124
        40.5004         38.7504
 -14545163.26847 -11244956.94347  22660862.3204                   22660855.1684
        44.7504         43.7504
  -3956787.93346  -3051073.65345  24009134.7194                   24009130.3794
        39.5004         33.0004
  -3291951.51246  -2548471.42345  24666548.8054                   24666545.1254
        39.2504         32.7504
 20  5 20  0 49  0.0000000  0  9G16G09G04G30G27G08G07G26G03
 -20872441.29948 -16133817.77746  21273790.3284                   21273782.6174
        49.0004         36.0004
 -25408901.34048 -19786692.74648  20543248.8204                   20543243.4414
        48.7504         53.7504
 -26269690.96047 -20373197.92546  20477657.5234                   20477651.5824
        46.5004         40.0004
  -2377411.39646  -1832406.14445  25119506.6174                   25119503.2234
        36.2504         30.5004
 -13265945.56447 -10313227.80047  22467831.7344                   22467827.1484
        44.0004         43.7504
  -9731521.07546  -7565594.19446  23229539.0474                   23229535.0904
        41.0004         39.5004
 -14608986.18447 -11294689.05647  22648717.6564                   22648710.4774
        45.2504         43.7504
  -3853116.13646  -2970290.45445  24028863.1644                   24028858.4734
        39.7504         33.2504
  -3183373.54246  -2463865.31245  24687211.8134                   24687206.9024
        40.0004         31.7504
 20  5 20  0 49 30.0000000  0  9G16G09G04G30G27G08G07G26G03
 -20800887.14848 -16078061.31045  21287407.0004                   21287398.8284
        48.7504         35.5004
 -25443932.83848 -19813990.03148  20536582.4304                   20536576.5314
        49.0004         53.7504
 -26234663.93147 -20345904.14846  20484323.0004                   20484316.8134
        46.2504         39.5004
  -2462790.01846  -1898934.98845  25103260.5784                   25103255.9414
        36.7504         30.5004
 -13323429.22047 -10358020.23147  22456893.4304                   22456888.4104
        44.5004         44.0004
  -9826337.57246  -7639477.15946  23211495.9454                   23211492.1724
        40.5004         39.5004
 -14672693.71747 -11344331.26947  22636594.3284                   22636586.7854
        44.7504         44.0004
  -3749338.81246  -2889425.08845  24048611.2504                   24048607.2734
        38.7504         33.5004
  -3074829.20146  -2379285.34445  24707866.3054                   24707862.5744
        38.2504         31.7504
 20  5 20  0 50  0.0000000  0  9G16G09G04G30G27G08G07G26G03
 -20728891.10748 -16021960.51046  21301107.0234                   21301099.0824
        49.0004         36.5004
 -25478503.65348 -19840928.33448  20530003.8054                   20529998.3244
        49.2504         53.7504
 -26199162.86747 -20318241.00246  20491078.6174                   20491072.6484
        46.0004         39.7504
  -2548137.23546  -1965439.29645  25087019.1174                   25087014.8594
        37.0004         30.7504
 -13380416.00147 -10402425.49747  22446048.8914                   22446044.3444
        45.2504         44.2504
  -9920946.77046  -7713198.58446  23193492.7194                   23193489.1804
        40.5004         39.0004
 -14736285.73647 -11393883.48147  22624493.0704                   22624485.7384
        45.0004         44.0004
  -3645458.26046  -2808479.23745  24068378.4924                   24068375.6054
        39.0004         33.7504
  -2966321.13546  -2294733.61745  24728513.3674                   24728510.1884
        37.7504         31.0004
 20  5 20  0 50 30.0000000  0  9G16G09G04G30G27G08G07G26G03
 -20656455.22248 -15965516.97645  21314891.2114                   21314883.3244
        49.0004         35.5004
 -25512611.87148 -19867506.16548  20523513.5394                   20523507.6804
        49.5004         53.7504
 -26163187.56147 -20290208.30246  20497924.6804                   20497918.4454
        46.7504         39.0004
  -2633452.40346  -2031918.68344  25070784.2814                   25070779.4144
        37.5004         29.5004
 -13436902.99047 -10446441.30247  22435300.1884                   22435295.3014
        44.7504         44.5004
 -10015344.14746  -7786754.96346  23175528.8914                   23175525.5434
        40.7504         39.0004
 -14799761.66247 -11443345.23147  22612414.7344                   22612406.5124
        45.7504         44.5004
  -3541476.27746  -2727454.40345  24088166.2814                   24088162.9694
        39.7504         34.7504
  -2857851.70946  -2210212.07645  24749156.1804                   24749151.1334
        38.5004         30.0004
 20  5 20  0 51  0.0000000  0  9G16G09G04G30G27G08G07G26G03
 -20583583.49548 -15908733.82446  21328758.7194                   21328750.0474
        49.0004         36.7504
 -25546256.95748 -19893723.11748  20517111.0314                   20517105.1174
        49.0004         53.7504
 -26126739.51147 -20261807.24746  20504860.3204                   20504854.1174
        47.0004         39.2504
  -2718736.67146  -2098373.91945  25054555.4614                   25054551.1294
        38.0004         31.5004
 -13492888.70847 -10490066.52347  22424646.0944                   22424641.6174
        44.5004         44.2504
 -10109528.31946  -7860145.20746  23157606.0314                   23157602.2894
        40.7504         37.5004
 -14863122.93847 -11492717.65047  22600356.7894                   22600349.8634
        45.2504         44.5004
  -3437396.48546  -2646353.27845  24107971.1804                   24107967.8874
        39.0004         33.7504
  -2749424.93446  -2125723.71745  24769788.6884                   24769784.3364
        39.5004         30.2504
 20  5 20  0 51 30.0000000  0  9G16G09G04G30G27G08G07G26G03
 -20510275.61448 -15851610.81946  21342708.5234                   21342700.5984
        48.5004         36.2504
 -25579433.66448 -19919575.09949  20510797.6884                   20510792.3244
        49.5004         54.0004
 -26089815.24147 -20233035.10046  20511886.7814                   20511880.7894
        46.2504         39.5004
  -2803986.13946  -2164802.07944  25038332.6724                   25038328.3204
        36.7504         28.5004
 -13548366.98047 -10533296.32347  22414089.0164                   22414084.0984
        44.5004         44.0004
 -10203492.38246  -7933363.94146  23139724.9454                   23139721.3954
        40.5004         37.5004
 -14926365.49147 -11541997.55647  22588322.2734                   22588314.9264
        46.0004         44.5004
  -3333217.28246  -2565174.72345  24127796.4304                   24127792.3364
        40.0004         33.5004
  -2641039.84346  -2041267.80945  24790413.2504                   24790409.5204
        38.5004         30.5004
 20  5 20  0 52  0.0000000  0  9G16G09G04G30G27G08G07G26G03
 -20436537.74848 -15794152.76645  21356740.3444                   21356732.3134
        48.2504         35.7504
 -25612143.80048 -19945063.52148  20504573.1174                   20504567.4694
        49.0004         53.7504
 -26052418.39747 -20203894.72246  20519003.5084                   20518997.1024
        47.0004         39.0004
  -2889204.09446  -2231205.70145  25022116.5474                   25022111.8324
        37.5004         30.2504
 -13603338.58347 -10576131.33047  22403628.1484                   22403623.7384
        44.2504         44.0004
 -10297236.53946  -8006411.30546  23121886.7664                   23121881.8244
        41.2504         38.0004
 -14989492.75547 -11591187.61447  22576309.8914                   22576302.0554
        45.5004         45.0004
  -3228944.48246  -2483923.18345  24147637.7034                   24147634.6374
        39.7504         32.5004
  -2532702.56146  -1956849.20745  24811030.0004                   24811025.2894
        39.0004         30.7504
 20  5 20  0 52 30.0000000  0  9G16G09G04G30G27G08G07G26G03
 -20362371.38948 -15736360.79545  21370853.3284                   21370845.7664
        48.0004         34.7504
 -25644384.49748 -19970186.15048  20498438.1174                   20498432.1334
        48.7504         53.5004
 -26014548.08647 -20174385.40246  20526210.1174                   20526203.3324
        47.0004         39.5004
  -2974389.20545  -2297583.70944  25005905.9844                   25005901.3834
        35.7504         27.2504
 -13657799.87247 -10618568.67647  22393264.6564                   22393259.7774
        44.5004         44.2504
 -10390756.27246  -8079283.81646  23104090.7114                   23104085.9184
        40.7504         38.5004
 -15052503.15847 -11640286.60947  22564319.0234                   22564311.6844
        45.2504         44.2504
  -3124578.93346  -2402599.44345  24167498.5314                   24167494.7704
        38.2504         31.5004
  -2424414.75446  -1872469.13145  24831635.9454                   24831631.9964
        37.2504         30.7504
 20  5 20  0 53  0.0000000  0  9G16G09G04G30G27G08G07G26G03
 -20287779.75948 -15678237.45945  21385047.8054                   21385040.1174
        48.5004         35.5004
 -25676154.43548 -19994941.95448  20492392.1954                   20492386.7274
        48.2504         53.5004
 -25976204.74347 -20144507.48046  20533506.5164                   20533500.0554
        47.0004         39.5004
  -3059541.45346  -2363936.14245  24989701.8444                   24989697.7154
        38.2504         31.0004
 -13711748.46847 -10660606.52147  22382998.4224                   22382993.7774
        45.0004         44.2504
 -10484048.49746  -8151979.05746  23086337.6024                   23086333.3794
        41.7504         39.7504
 -15115396.81647 -11689294.67047  22552351.0784                   22552343.3754
        45.5004         45.2504
  -3020123.29546  -2321205.48545  24187375.5394                   24187372.4884
        40.2504         33.2504
  -2316179.24046  -1788129.80245  24852233.9844                   24852228.5314
        38.7504         30.5004
 20  5 20  0 53 30.0000000  0  9G16G09G04G30G27G08G07G26G03
 -20212765.40948 -15619784.73745  21399322.6254                   21399315.0084
        48.5004         35.5004
 -25707451.67648 -20019329.42249  20486436.5634                   20486430.9534
        48.7504         54.0004
 -25937388.37147 -20114260.98446  20540893.1724                   20540886.8404
        46.0004         39.2504
  -3144660.38746  -2430262.61644  24973503.9304                   24973499.7424
        37.0004         28.7504
 -13765181.53647 -10702242.66347  22372830.1484                   22372825.5204
        44.5004         44.0004
 -10577109.65146  -8224494.22446  23068629.1414                   23068625.5084
        41.2504         39.5004
 -15178173.33547 -11738211.42447  22540404.5784                   22540397.3054
        45.0004         44.5004
  -2915579.23946  -2239742.67545  24207270.7664                   24207266.3444
        40.2504         31.2504
  -2207998.45246  -1703833.14545  24872818.4844                   24872815.2344
        37.5004         31.7504
 20  5 20  0 54  0.0000000  0  9G16G09G04G30G27G08G07G26G03
 -20137331.02248 -15561004.70946  21413677.6954                   21413669.8204
        49.0004         36.0004
 -25738274.60748 -20043347.30349  20480571.2194                   20480565.5274
        48.7504         54.0004
 -25898099.24747 -20083646.10346  20548369.3914                   20548363.3284
        46.7504         39.5004
  -3229745.74646  -2496562.86944  24957313.2974                   24957308.9184
        37.7504         28.7504
 -13818096.57547 -10743475.15147  22362760.7194                   22362756.1804
        44.0004         44.2504
 -10669936.89046  -8296827.10146  23050964.4694                   23050960.4614
        41.0004         39.2504
 -15240832.65847 -11787036.86447  22528480.9454                   22528473.7544
        45.0004         44.7504
  -2810949.12646  -2158212.74445  24227182.0394                   24227177.0864
        41.5004         33.5004
  -2099875.14046  -1619581.24945  24893392.9454                   24893390.6054
        37.0004         31.0004
 20  5 20  0 54 30.0000000  0  9G16G09G04G30G27G08G07G26G03
 -20061479.14248 -15501899.36345  21428111.6804                   21428103.7974
        48.5004         35.5004
 -25768621.57248 -20066994.29149  20474796.1644                   20474790.7934
        49.2504         54.0004
 -25858337.58347 -20052663.01346  20555935.7504                   20555929.7774
        47.0004         39.5004
  -3314797.34746  -2562836.88345  24941127.9224                   24941124.1994
        37.5004         31.0004
 -13870491.01047 -10784301.96247  22352790.6334                   22352785.9734
        45.0004         44.5004
 -10762526.74146  -8368975.02046  23033344.5004                   23033341.3484
        40.7504         39.2504
 -15303374.54347 -11835770.78347  22516579.5554                   22516572.0984
        45.0004         44.5004
  -2706234.89246  -2076617.30345  24247108.4454                   24247103.0744
        39.5004         32.0004
  -1991811.87045  -1535376.18045  24913956.7274                   24913954.8484
        33.7504         30.5004
 20  5 20  0 55  0.0000000  0  9G16G09G04G30G27G08G07G26G03
 -19985213.07448 -15442471.26645  21442624.5864                   21442616.9654
        48.5004         35.7504
 -25798491.00648 -20090269.17349  20469112.3134                   20469106.5824
        48.7504         54.0004
 -25818103.75147 -20021311.99446  20563591.8914                   20563585.8594
        47.2504         39.5004
  -3399814.98446  -2629084.37445  24924949.7424                   24924945.9344
        37.2504         30.5004
 -13922362.40347 -10824721.20247  22342920.0234                   22342915.2194
        44.2504         44.5004
 -10854876.08846  -8440935.49346  23015771.0784                   23015767.5944
        41.0004         39.2504
 -15365798.46747 -11884412.79647  22504701.0864                   22504693.7584
        45.2504         44.5004
  -2601438.81846  -1994958.05845  24267050.1484                   24267045.1134
        40.5004         33.0004
  -1883811.28946  -1451219.97545  24934510.4844                   24934505.9454
        37.7504         30.5004
 20  5 20  0 55 30.0000000  0  9G16G09G04G30G27G08G07G26G03
 -19908535.81848 -15382722.77745  21457215.8674                   21457207.8914
        48.0004         35.5004
 -25827881.44248 -20113170.82449  20463519.4614                   20463513.4104
        49.2504         54.0004
 -25777398.13347 -19989593.34746  20571337.7114                   20571331.9414
        46.7504         39.2504
  -3484798.44446  -2695305.27045  24908778.3674                   24908774.6054
        37.5004         32.0004
 -13973708.35347 -10864731.01047  22333148.8134                   22333143.8754
        44.2504         44.5004
 -10946981.35647  -8512705.79746  22998244.2584                   22998240.0124
        42.0004         39.5004
 -15428104.57847 -11932962.98747  22492844.7034                   22492836.9734
        45.2504         44.7504
  -2496563.25645  -1913236.77645  24287004.9844                   24287002.2344
        35.5004         30.7504
  -1775876.30846  -1367114.79245  24955048.7114                   24955044.5514
        38.5004         30.5004
 20  5 20  0 56  0.0000000  0  9G16G09G04G30G27G08G07G26G03
 -19831449.85748 -15322655.81045  21471884.8284                   21471876.7504
        48.0004         35.0004
 -25856791.02148 -20135697.78149  20458018.2344                   20458012.7664
        49.0004         54.0004
 -25736220.79847 -19957507.12946  20579174.0864                   20579167.6524
        46.7504         39.0004
  -3569747.40646  -2761499.30545  24892612.4534                   24892608.3324
        39.0004         30.2504
 -14024526.15747 -10904329.29047  22323478.3594                   22323473.8404
        45.5004         44.5004
 -11038839.28747  -8584283.37746  22980764.6484                   22980759.6294
        42.0004         39.5004
 -15490292.01647 -11981420.73247  22481010.6174                   22481002.8524
        45.5004         44.7504
  -2391609.74746  -1831454.94245  24306978.9384                   24306973.9694
        38.5004         31.2504
  -1668009.16746  -1283062.49044  24975575.7974                   24975571.2154
        38.2504         29.5004
 20  5 20  0 56 30.0000000  0  9G16G09G04G30G27G08G07G26G03
 -19753957.56047 -15262272.21745  21486631.0234                   21486623.1174
        47.5004         35.2504
 -25885217.97248 -20157848.65549  20452608.7664                   20452603.0824
        49.0004         54.0004
 -25694571.86547 -19925053.43746  20587099.2504                   20587093.1604
        46.0004         39.7504
  -3654661.35546  -2827665.97345  24876454.2274                   24876450.5554
        37.5004         31.2504
 -14074813.15247 -10943513.94347  22313909.2814                   22313905.0274
        45.0004         45.0004
 -11130446.66047  -8655665.73046  22963332.4454                   22963328.2194
        42.0004         39.2504
 -15552360.62747 -12029785.87447  22469199.2504                   22469191.8444
        45.5004         45.0004
  -2286580.45746  -1749613.98345  24326966.7814                   24326960.5864
        39.2504         32.5004
  -1560212.32346  -1199064.98944  24996088.1024                   24996084.8164
        37.7504         28.2504
 20  5 20  0 57  0.0000000  0  9G16G09G04G30G27G08G07G26G03
 -19676063.79347 -15201575.79645  21501453.9384                   21501445.7544
        47.7504         35.2504
 -25913162.49148 -20179623.61949  20447291.0554                   20447285.4574
        49.0004         54.0004
 -25652453.51047 -19892233.96046  20595114.2504                   20595107.7034
        46.5004         38.5004
  -3739541.76746  -2893806.58245  24860301.9064                   24860297.9344
        36.5004         30.7504
 -14124568.67347 -10982284.45947  22304441.3834                   22304436.5944
        46.2504         45.0004
 -11221801.85347  -8726851.60646  22945948.0944                   22945943.7114
        42.0004         39.7504
 -15614311.88947 -12078059.56747  22457410.4614                   22457403.0664
        46.0004         45.0004
  -2181479.10145  -1667716.79745  24346960.6484                   24346961.5594
        32.0004         31.0004
  -1452490.17146  -1115125.65344  25016586.7194                   25016584.5474
        38.0004         28.7504
 20  5 20  0 57 30.0000000  0  9G16G09G04G30G27G08G07G26G03
 -19597767.37948 -15140565.61145  21516352.9844                   21516345.1764
        48.0004         34.5004
 -25940618.77348 -20201018.13249  20442066.1484                   20442060.6454
        49.0004         54.0004
 -25609861.72947 -19859045.58646  20603219.5084                   20603213.2274
        46.0004         38.5004
  -3824384.21246  -2959917.58945  24844157.4534                   24844153.2624
        37.5004         30.5004
 -14173786.04747 -11020635.65047  22295075.9384                   22295070.7734
        45.7504         44.7504
 -11312897.46047  -8797835.19646  22928612.9384                   22928608.5124
        42.0004         39.5004
 -15676141.20447 -12126238.24447  22445644.2424                   22445636.8094
        45.5004         45.5004
  -2076303.55846  -1585761.94245  24366980.7894                   24366976.5474
        40.0004         33.2504
  -1344840.95846  -1031243.22644  25037074.5704                   25037068.7624
        39.0004         27.5004
 20  5 20  0 58  0.0000000  0  9G16G09G04G30G27G08G07G26G03
 -19519075.28548 -15079247.12245  21531327.7584                   21531319.5664
        48.0004         35.0004
 -25967589.57548 -20222034.34849  20436933.7274                   20436928.0514
        49.0004         54.0004
 -25566801.34047 -19825492.06146  20611413.1254                   20611407.1294
        46.0004         38.7504
  -3909192.80746  -3026002.22545  24828017.7814                   24828015.2894
        37.0004         31.0004
 -14222467.22547 -11058569.02847  22285811.5394                   22285806.6414
        45.5004         44.7504
 -11403734.54647  -8868617.33346  22911327.1174                   22911323.5044
        42.0004         40.0004
 -15737853.05947 -12174325.39847  22433901.3364                   22433893.6764
        46.0004         45.5004
  -1971060.34846  -1503754.24445  24387006.4224                   24387003.5084
        38.7504         32.7504
  -1237271.89846   -947423.13544  25057542.1884                   25057538.6524
        37.2504         29.2504
 20  5 20  0 58 30.0000000  0  9G16G09G04G30G27G08G07G26G03
 -19439988.07448 -15017620.74545  21546377.5634                   21546369.4614
        48.0004         35.5004
 -25994071.49348 -20242669.60649  20431894.6334                   20431888.8554
        49.5004         54.0004
 -25523270.69547 -19791572.09246  20619697.0704                   20619690.4454
        46.2504         38.7504
  -3993965.31646  -3092058.71244  24811886.7894                   24811882.8594
        36.5004         29.7504
 -14270607.84847 -11096081.19747  22276651.0634                   22276646.3674
        45.7504         44.7504
 -11494307.54446  -8939193.68046  22894091.0084                   22894088.0634
        40.7504         40.5004
 -15799444.77247 -12222318.93047  22422181.0784                   22422173.3674
        45.7504         45.5004
  -1865749.45946  -1421693.83545  24407046.4224                   24407043.1764
        38.5004         31.7504
  -1129783.27946   -863665.83744  25077996.1254                   25077992.4774
        36.0004         29.7504
 20  5 20  0 59  0.0000000  0  9G16G09G04G30G27G08G07G26G03
 -19360509.10247 -14955689.08945  21561501.9844                   21561493.6484
        47.7504         35.2504
 -26020063.18648 -20262922.88949  20426948.8364                   20426942.9844
        50.0004         54.0004
 -25479270.50947 -19757286.24746  20628070.1804                   20628064.0514
        46.5004         38.7504
  -4078701.78746  -3158087.08545  24795762.3984                   24795757.9694
        38.0004         30.0004
 -14318205.88647 -11133170.56447  22267592.7974                   22267588.2974
        45.7504         44.7504
 -11584613.98246  -9009562.31046  22876906.9304                   22876902.3014
        41.5004         40.2504
 -15860916.43747 -12270218.91447  22410483.0784                   22410476.0554
        45.5004         45.5004
  -1760373.15346  -1339582.54145  24427099.6254                   24427096.3054
        37.7504         33.2504
  -1022378.23045   -779973.64744  25098433.7114                   25098431.6644
        33.7504         29.7504
 20  5 20  0 59 30.0000000  0  9G16G09G04G30G27G08G07G26G03
 -19280641.63647 -14893454.72045  21576700.1254                   21576691.9924
        47.2504         35.2504
 -26045563.33048 -20282793.13549  20422096.4694                   20422090.2584
        49.2504         54.0004
 -25434801.31447 -19722634.95046  20636532.3914                   20636526.3014
        46.0004         38.5004
  -4163401.99646  -3224087.29545  24779645.1334                   24779640.1524
        38.2504         30.2504
 -14365259.09447 -11169835.39047  22258639.3444                   22258634.8484
        44.7504         44.7504
 -11674650.30146  -9079720.45046  22859773.6564                   22859769.2424
        41.5004         40.7504
 -15922267.88547 -12318025.23547  22398808.2814                   22398800.6914
        45.2504         45.2504
  -1654933.76846  -1257421.98045  24447164.6334                   24447160.9574
        39.5004         34.2504
   -915059.30046   -696348.56145  25118858.7584                   25118854.3014
        38.5004         33.0004
 20  5 20  1  0  0.0000000  0  9G16G09G04G30G27G08G07G26G03
 -19200388.07548 -14830919.49045  21591972.2034                   21591964.2734
        48.0004         34.5004
 -26070570.43748 -20302279.19549  20417337.5394                   20417331.8954
        50.0004         54.0004
 -25389863.58547 -19687618.57046  20645083.8204                   20645077.5824
        46.0004         38.7504
  -4248065.83246  -3290059.14144  24763533.2114                   24763529.1294
        38.2504         29.0004
 -14411765.15147 -11206073.86247  22249789.5784                   22249784.9024
        45.2504         44.7504
 -11764413.59847  -9149665.86246  22842692.3834                   22842687.8984
        43.0004         40.5004
 -15983499.11347 -12365737.86047  22387156.4694                   22387149.2384
        45.7504         45.2504
  -1549433.24546  -1175213.80445  24467238.9774                   24467236.6954
        37.2504         31.5004
   -807829.16546   -612792.62645  25139261.4064                   25139259.5784
        36.5004         31.0004
 20  5 20  1  0 30.0000000  0  9G16G09G04G30G27G08G07G26G03
 -19119751.11047 -14768085.49945  21607316.4924                   21607308.7774
        47.2504         35.0004
 -26095082.71948 -20321379.67549  20412673.0864                   20412667.1644
        50.7504         54.0004
 -25344457.44547 -19652237.17546  20653723.8054                   20653718.0664
        46.2504         38.5004
  -4332692.66446  -3356002.16145  24747429.1414                   24747425.4064
        37.2504         31.5004
 -14457721.48547 -11241883.98747  22241044.2114                   22241039.7234
        45.2504         44.7504
 -11853900.27447  -9219395.73246  22825663.3444                   22825658.7154
        42.5004         40.0004
 -16044609.32547 -12413356.20147  22375527.3444                   22375520.1254
        46.0004         45.5004
  -1443873.29646  -1092959.40345  24487327.2584                   24487324.6134
        37.2504         30.5004
   -700690.07146   -529307.64645  25159650.7194                   25159646.5124
        37.5004         30.0004
 20  5 20  1  1  0.0000000  0  9G16G09G04G30G27G08G07G26G03
 -19038734.02947 -14704955.32145  21622733.8284                   21622725.9344
        47.7504         34.2504
 -26119098.95048 -20340093.62349  20408102.6724                   20408097.1804
        50.0004         54.0004
 -25298583.60547 -19616491.35046  20662453.3754                   20662447.4694
        46.2504         37.7504
  -4417282.47746  -3421916.31045  24731333.2664                   24731328.5394
        40.0004         32.5004
 -14503126.10447 -11277264.20647  22232403.6254                   22232399.4384
        45.0004         45.0004
 -11943107.40747  -9288907.79846  22808687.5474                   22808683.0514
        42.0004         40.0004
 -16105598.37447 -12460880.12547  22363921.5314                   22363914.0824
        46.0004         45.2504
  -1338256.24646  -1010660.40945  24507425.9384                   24507421.7584
        39.0004         31.2504
   -593644.81646   -445895.76944  25180020.8524                   25180016.6844
        37.0004         28.7504
 20  5 20  1  1 30.0000000  0  9G16G09G04G30G27G08G07G26G03
 -18957339.50647 -14641531.03745  21638221.9384                   21638214.7584
        47.5004         34.0004
 -26142617.55248 -20358419.81349  20403627.4614                   20403621.4184
        49.7504         54.0004
 -25252242.43447 -19580381.36146  20671272.1724                   20671266.1954
        45.5004         38.2504
  -4501835.03446  -3487801.39745  24715242.9384                   24715237.8954
        38.7504         30.7504
 -14547976.59047 -11312212.62447  22223869.4924                   22223864.5864
        45.2504         45.0004
 -12032031.74046  -9358199.47746  22791765.5474                   22791761.5704
        41.5004         40.0004
 -16166466.02947 -12508309.45947  22352338.9304                   22352330.9654
        46.0004         45.5004
  -1232583.95946   -928318.41645  24527534.9454                   24527531.3714
        40.2504         32.0004
   -486695.85646   -362558.96245  25200374.0314                   25200370.5234
        37.5004         30.0004
 20  5 20  1  2  0.0000000  0  9G16G09G04G30G27G08G07G26G03
 -18875570.25247 -14577814.75345  21653782.5234                   21653775.0234
        46.5004         34.7504
 -26165636.96548 -20376357.02649  20399247.0784                   20399241.2704
        50.7504         54.0004
 -25205434.29747 -19543907.50446  20680179.0634                   20680173.4924
        46.0004         38.2504
  -4586349.67546  -3553656.96045  24699161.2274                   24699155.6374
        40.2504         31.5004
 -14592270.59047 -11346727.42847  22215440.8524                   22215435.3874
        46.5004         45.0004
 -12120669.56846  -9427267.90646  22774898.3984                   22774894.7274
        41.7504         40.2504
 -16227211.72647 -12555643.75847  22340779.6334                   22340771.7344
        46.0004         45.7504
  -1126858.28046   -845934.79745  24547653.1024                   24547649.7074
        37.7504         31.7504
  24826874.54215                  25220704.781
        35.000
 20  5 20  1  2 30.0000000  0  9G16G09G04G30G27G08G07G26G03
 -18793429.52547 -14513809.00145  21669413.4924                   21669405.8244
        47.0004         34.5004
 -26188156.41048 -20393904.65449  20394961.5634                   20394955.7584
        50.2504         54.0004
 -25158160.35147 -19507070.69146  20689175.3284                   20689169.1484
        46.0004         38.2504
  -4670827.00946  -3619483.50545  24683084.4224                   24683080.2304
        37.5004         32.0004
 -14636006.54747 -11380807.39347  22207117.6644                   22207112.9844
        46.2504         45.2504
 -12209018.26047  -9496111.03246  22758085.8054                   22758082.6954
        42.2504         40.5004
 -16287836.02947 -12602883.48047  22329243.0314                   22329235.2344
        46.5004         45.5004
  -1021081.90646   -763511.68745  24567781.8054                   24567777.7774
        37.7504         30.0004
  24933623.22145  19423838.74053  25241019.4454                   25241016.0354
        35.2504         22.7504
 20  5 20  1  3  0.0000000  0  9G16G09G04G30G27G08G07G26G03
 -18710919.03647 -14449515.13345  21685115.0704                   21685107.0004
        46.5004         34.2504
 -26210173.05748 -20411060.49049  20390772.2034                   20390766.3794
        50.5004         54.0004
 -25110419.72947 -19469870.22746  20698260.0084                   20698254.0354
        45.7504         38.5004
  -4755265.34646  -3685279.60345  24667016.0004                   24667012.0394
        36.2504         31.7504
 -14679180.87447 -11414449.72647  22198901.6484                   22198897.2814
        46.5004         45.0004
 -12297073.39247  -9564725.40046  22741330.4534                   22741326.5514
        42.2504         41.2504
 -16348337.45747 -12650027.43447  22317729.5944                   22317722.2274
        46.0004         45.5004
   -915255.30246   -681049.44345  24587920.1564                   24587915.6724
        38.5004         31.5004
  25040266.87255  19506937.37654  25261310.4534                   25261309.6804
        32.0004         26.0004
 20  5 20  1  3 30.0000000  0  9G16G09G04G30G27G08G07G26G03
 -18628043.04247 -14384936.44345  21700885.6644                   21700877.3754
        46.5004         34.0004
 -26231687.04548 -20427824.64549  20386678.0084                   20386672.0314
        49.7504         54.0004
 -25062214.53047 -19432307.75746  20707433.3054                   20707427.2814
        46.2504         39.0004
  -4839665.89746  -3751046.27345  24650955.7734                   24650951.2234
        36.7504         31.5004
 -14721792.98447 -11447653.96047  22190793.1724                   22190788.2424
        46.2504         45.2504
 -12384833.45347  -9633109.85046  22724629.9454                   22724626.8244
        42.5004         41.5004
 -16408716.54847 -12697076.06647  22306240.3364                   22306232.7074
        45.7504         45.5004
   -809382.10346   -598550.88845  24608067.8674                   24608062.5474
        39.0004         31.0004
  25146805.48145  19589954.43844  25281584.8594                   25281582.5434
        33.0004         27.2504
 20  5 20  1  4  0.0000000  0  9G16G09G04G30G27G08G07G26G03
 -18544803.80947 -14320074.71045  21716725.7274                   21716717.6374
        46.5004         34.0004
 -26252696.38248 -20444195.57149  20382679.9694                   20382674.6334
        49.5004         54.0004
 -25013544.64547 -19394383.19346  20716694.6414                   20716688.7464
        45.7504         38.2504
  -4924027.87146  -3816782.84245  24634902.0474                   24634897.9454
        38.0004         31.7504
 -14763840.04447 -11480417.90747  22182791.6094                   22182787.1604
        46.2504         45.2504
 -12472294.67147  -9701261.42346  22707986.8914                   22707983.0124
        42.0004         41.5004
 -16468972.83147 -12744028.99947  22294773.3984                   22294766.4264
        46.0004         45.7504
   -703463.53846   -516016.94745  24628222.2424                   24628218.1994
        37.5004         30.0004
  25253235.20646  19672886.61845  25301841.3134                   25301836.5784
        38.7504         31.7504
 20  5 20  1  4 30.0000000  0  9G16G09G04G30G27G08G07G26G03
 -18461204.37047 -14254932.29945  21732634.2034                   21732626.1334
        46.5004         34.0004
 -26273199.88748 -20460172.33649  20378778.0314                   20378772.5864
        50.0004         54.0004
 -24964410.89347 -19356097.16946  20726044.5234                   20726038.8914
        46.0004         38.0004
  -5008351.01446  -3882489.19445  24618855.5554                   24618851.8054
        37.5004         32.0004
 -14805320.22147 -11512740.11447  22174898.1884                   22174893.8324
        45.7504         45.2504
 -12559453.72447  -9769177.55046  22691401.0784                   22691396.7384
        42.5004         41.2504
 -16529105.88047 -12790885.90647  22283330.6724                   22283323.0434
        46.0004         46.0004
   -597501.84146   -433449.43744  24648385.7504                   24648382.7344
        36.0004         29.7504
  25359553.35546  19755731.97845  25322072.2034                   25322068.4494
        38.7504         33.0004
 20  5 20  1  5  0.0000000  0  9G16G09G04G30G27G08G07G26G03
 -18377247.47447 -14189511.35845  21748610.6414                   21748602.8674
        46.0004         34.2504
 -26293195.88748 -20475753.64649  20374973.2034                   20374967.5984
        50.5004         54.0004
 -24914813.65147 -19317449.99246  20735482.4144                   20735476.8874
        46.0004         38.5004
  -5092634.99346  -3948165.03045  24602816.3444                   24602813.4574
        36.2504         32.7504
 -14846231.03147 -11544618.66347  22167113.5554                   22167108.3914
        46.0004         45.2504
 -12646307.27047  -9836855.62746  22674873.3054                   22674869.6454
        42.7504         41.7504
 -16589115.27347 -12837646.46147  22271911.3054                   22271903.7774
        45.7504         46.0004
   -491498.58645   -350849.59444  24668556.9384                   24668554.6484
        34.2504         27.7504
  25465757.82945  19838488.54744  25342281.0944                   25342277.9884
        35.7504         27.5004
 20  5 20  1  5 30.0000000  0  9G16G09G04G30G27G08G07G26G03
 -18292936.30247 -14123814.35745  21764654.7734                   21764646.5824
        47.5004         34.0004
 -26312683.20948 -20490938.57849  20371264.9224                   20371259.4614
        50.5004         54.0004
 -24864753.45847 -19278442.06946  20745008.9844                   20745003.0204
        45.7504         38.2504
  -5176879.36146  -4013809.97645  24586787.1254                   24586782.4884
        40.2504         32.2504
 -14886570.57547 -11576052.07247  22159436.7114                   22159431.9804
        44.5004         45.5004
 -12732852.36147  -9904293.34746  22658404.0004                   22658399.9414
        43.0004         41.7504
 -16649001.32147 -12884310.89247  22260515.4694                   22260507.4774
        46.0004         46.0004
   -385455.78246   -268218.86345  24688736.9384                   24688733.8484
        37.2504         30.0004
  25571845.92146  19921154.60244  25362469.2344                   25362465.1134
        36.2504         29.5004
 20  5 20  1  6  0.0000000  0  9G16G09G04G30G27G08G07G26G03
 -18208272.84647 -14057842.85245  21780765.0164                   21780757.2034
        46.0004         33.7504
 -26331660.31348 -20505725.94848  20367653.7584                   20367647.8244
        50.0004         53.7504
 -24814230.83747 -19239073.81546  20754622.9844                   20754617.0944
        46.0004         38.0004
  -5261083.89846  -4079423.91945  24570763.2344                   24570758.3754
        39.7504         32.5004
 -14926336.60147 -11607038.57947  22151869.9694                   22151864.6954
        45.0004         45.0004
 -12819085.17547  -9971487.74746  22641994.1564                   22641990.8094
        43.7504         41.2504
 -16708762.67047 -12930878.17247  22249142.8914                   22249135.3014
        45.7504         46.2504
   -279375.30046   -185558.81945  24708924.0004                   24708920.7154
        38.2504         30.0004
  25677815.20346  20003727.92245  25382635.6564                   25382633.5634
        37.5004         31.5004
 20  5 20  1  6 30.0000000  0  9G16G09G04G30G27G08G07G26G03
 -18123259.48347 -13991598.69445  21796942.3134                   21796935.2114
        46.0004         33.5004
 -26350124.93248 -20520113.97749  20364139.8754                   20364134.3244
        50.2504         54.2504
 -24763245.50747 -19199345.00146  20764325.2424                   20764318.9184
        45.5004         37.5004
  -5345247.30646  -4145005.80045  24554746.1644                   24554743.0474
        38.5004         31.7504
 -14965526.22047 -11637575.93347  22144412.0314                   22144407.4654
        45.5004         45.2504
 -12905001.74247 -10038435.70146  22625644.5704                   22625640.8524
        43.0004         41.0004
 -16768398.20747 -12977347.39647  22237794.8594                   22237787.4264
        46.0004         46.0004
   -173258.04046   -102870.10844  24729118.0234                   24729114.3444
        38.5004         29.7504
                                  25402781.109
        41.000
 20  5 20  1  7  0.0000000  0  9G16G09G04G30G27G08G07G26G03
 -18037900.54947 -13925085.25645  21813185.8444                   21813178.3204
        45.7504         33.5004
 -26368077.40948 -20534102.92849  20360723.6564                   20360718.1804
        50.2504         54.2504
 -24711799.74347 -19159257.40746  20774115.6564                   20774109.3634
        45.5004         37.7504
  -5429370.94946  -4210556.69345  24538739.1094                   24538733.9804
        39.5004         31.0004
 -15004138.95147 -11667663.75947  22137063.8054                   22137059.6884
        44.7504         45.2504
 -12990601.23147 -10105136.59846  22609355.8444                   22609351.5044
        43.0004         41.5004
 -16827909.40447 -13023719.74747  22226470.4384                   22226463.0004
        46.5004         46.2504
    -67107.56946    -20155.49145  24749317.4304                   24749314.2304
        38.0004         30.7504
                                  25422899.6884                   25422895.3794
        41.0004         35.0004
 20  5 20  1  7 30.0000000  0  9G16G09G04G30G27G08G07G26G03
 -17952202.90447 -13858307.89445  21829494.0474                   21829486.0664
        45.7504         33.5004
 -26385520.35148 -20547694.84349  20357404.1484                   20357399.0664
        50.2504         54.0004
 -24659898.08547 -19118814.58046  20783991.4774                   20783985.5004
        45.7504         38.0004
  -5513458.34246  -4276079.35945  24522736.8054                   24522732.7154
        39.0004         31.5004
 -15042176.71347 -11697303.56547  22129826.1094                   22129821.3094
        44.7504         45.5004
 -13075883.38047 -10171590.19947  22593127.5784                   22593123.1454
        43.5004         42.0004
 -16887299.80847 -13069997.97147  22215168.5164                   22215160.7814
        46.5004         46.2504
     39070.30746     62580.53345  24769522.5634                   24769517.6484
        37.7504         30.0004
  25994981.64056  20172331.93053  25442991.9924                   25442992.7504
        37.7504         22.7504
 20  5 20  1  8  0.0000000  0  9G16G09G04G30G27G08G07G26G03
 -17866158.98247 -13791260.70445  21845867.4534                   21845859.4024
        46.0004         34.0004
 -26402442.35548 -20560880.83849  20354184.3444                   20354178.7894
        49.5004         54.0004
 -24607531.11747 -19078009.17546  20793956.5554                   20793950.7974
        45.5004         38.0004
  -5597499.24046  -4341565.77145  24506745.6414                   24506740.4924
        40.7504         32.2504
 -15079627.51847 -11726485.99847  22122698.9454                   22122694.6174
        45.0004         45.5004
 -13160835.24047 -10237786.44547  22576962.0704                   22576957.3444
        44.0004         42.0004
 -16946558.96347 -13116173.93347  22203891.8914                   22203884.5314
        46.5004         46.2504
    145283.89046    145344.33944  24789734.8364                   24789730.0514
        37.0004         29.7504
  26100453.08855  20254516.82853  25463059.2814                   25463057.1214
        32.2504         22.5004
 20  5 20  1  8 30.0000000  0  9G16G09G04G30G27G08G07G26G03
 -17779778.68847 -13723951.40245  21862305.2894                   21862296.9264
        45.7504         34.0004
 -26418848.89248 -20573665.16449  20351062.3914                   20351056.7704
        50.0004         54.2504
 -24554706.22647 -19036846.94446  20804008.8594                   20804003.3524
        45.5004         37.7504
  -5681499.95246  -4407020.88845  24490760.1804                   24490755.6054
        40.0004         33.0004
 -15116496.03947 -11755214.71147  22115683.5394                   22115678.6884
        45.5004         45.5004
 -13245460.49747 -10303728.18547  22560858.2424                   22560853.6524
        44.0004         42.5004
 -17005693.61247 -13162252.88247  22192639.2424                   22192631.4774
        47.0004         46.0004
    251524.61546    228129.22445  24809950.7974                   24809947.9924
        37.0004         30.2504
  26205792.62246  20336599.38344  25483107.2664                   25483103.0594
        37.5004         28.7504
 20  5 20  1  9  0.0000000  0  9G16G09G04G30G27G08G07G26G03
 -17693064.73847 -13656382.10645  21878806.2504                   21878798.6254
        45.7504         33.2504
 -26434738.75548 -20586046.88549  20348038.7894                   20348033.0984
        50.2504         54.2504
 -24501424.16947 -18995328.49146  20814148.4454                   20814142.2344
        45.7504         38.0004
  -5765460.23746  -4472444.48345  24474784.0784                   24474778.6054
        40.0004         33.0004
 -15152780.49147 -11783488.29947  22108778.9534                   22108774.1054
        45.0004         45.5004
 -13329755.84147 -10369412.86047  22544817.2894                   22544812.8054
        44.5004         42.5004
 -17064702.74847 -13208234.02447  22181410.1254                   22181402.2034
        46.0004         46.2504
    357790.49046    310933.76045  24830172.8134                   24830170.1134
        36.0004         30.2504
  26310997.49946  20418577.21144  25503125.6954                   25503121.8284
        38.0004         26.0004
 20  5 20  1  9 30.0000000  0  9G16G09G04G30G27G08G07G26G03
 -17606018.60047 -13588553.98245  21895370.5164                   21895362.7664
        45.5004         33.5004
 -26450109.20248 -20598023.87349  20345113.5474                   20345108.3324
        50.0004         54.2504
 -24447684.16047 -18953453.19046  20824374.6414                   20824368.8284
        45.5004         38.0004
  -5849378.29046  -4537835.18945  24458813.8054                   24458809.5234
        39.2504         33.0004
 -15188477.42547 -11811304.07647  22101986.2504                   22101981.2544
        45.0004         45.5004
 -13413716.81347 -10434836.98447  22528840.1884                   22528835.9024
        44.5004         42.5004
 -17123584.68347 -13254116.04947  22170205.1094                   22170197.5474
        46.7504         46.0004
    464081.16346    393757.58845  24850399.8914                   24850397.1294
        37.5004         30.7504
  26416067.02046  20500449.63344  25523120.3594                   25523115.6844
        38.2504         27.2504
 20  5 20  1 10  0.0000000  0  9G16G09G04G30G27G08G07G26G03
 -17518643.08747 -13520469.18345  21911997.3834                   21911989.7464
        45.7504         33.2504
 -26464959.04448 -20609595.18449  20342287.8674                   20342282.4414
        50.5004         54.2504
 -24393486.94547 -18911221.62546  20834688.0704                   20834682.5824
        45.5004         37.2504
  -5933253.89246  -4603192.80145  24442853.2344                   24442848.6294
        39.0004         33.5004
 -15223585.01347 -11838660.63347  22095305.1254                   22095300.5044
        45.0004         45.5004
 -13497340.26547 -10499998.10647  22512927.2424                   22512923.2194
        44.2504         42.7504
 -17182339.23647 -13299898.80647  22159024.5784                   22159016.9414
        46.2504         46.2504
    570394.98346    476599.45444  24870630.5704                   24870626.4694
        37.5004         28.5004
  26520998.84946  20582214.64144  25543087.4614                   25543083.6054
        38.2504         29.0004
 20  5 20  1 10 30.0000000  0  9G16G09G04G30G27G08G07G26G03
 -17430939.29347 -13452128.58045  21928687.2194                   21928679.0234
        45.5004         32.7504
 -26479285.28348 -20620758.49349  20339561.7504                   20339556.2624
        50.0004         54.2504
 -24338831.53447 -18868633.02146  20845089.0234                   20845082.7624
        45.5004         37.2504
  -6017084.81846  -4668515.58745  24426899.6804                   24426895.9844
        38.2504         32.5004
 -15258099.61547 -11865555.11447  22088737.3134                   22088732.5164
        45.5004         45.5004
 -13580620.90547 -10564892.09147  22497079.0634                   22497075.3714
        43.7504         42.5004
 -17240964.43047 -13345580.76747  22147868.5394                   22147861.3524
        46.0004         46.2504
    676731.66646    559459.22045  24890867.3594                   24890861.1954
        41.2504         31.5004
                                  25563028.3134                   25563025.3754
        25.7504         17.7504
 20  5 20  1 11  0.0000000  0  8G16G09G04G30G27G08G07G26
 -17342915.81047 -13383538.86445  21945437.2894                   21945429.0984
        45.5004         32.2504
 -26493092.54948 -20631517.41149  20336934.4534                   20336928.6884
        50.0004         54.0004
 -24283724.42347 -18825692.43746  20855575.6024                   20855569.4264
        45.5004         37.5004
  -6100876.65346  -4733807.91745  24410955.3524                   24410951.3674
        39.5004         33.7504
 -15292025.18847 -11891990.62147  22082281.7814                   22082276.9534
        45.0004         45.7504
 -13663561.89147 -10629521.40947  22481295.5864                   22481292.4844
        44.2504         42.7504
 -17299465.03747 -13391165.64747  22136736.1174                   22136728.7234
        46.2504         46.5004
    783083.79546    642330.92043  24911103.6334                   24911099.9304
        36.5004         22.5004
 20  5 20  1 11 30.0000000  0  8G16G09G04G30G27G08G07G26
 -17254569.70047 -13314697.75945  21962248.9844                   21962241.0554
        45.0004         32.2504
 -26506374.07348 -20641866.66149  20334406.5554                   20334401.1334
        49.7504         54.2504
 -24228160.84347 -18782396.17446  20866148.8754                   20866142.5984
        45.5004         37.5004
  -6184623.45546  -4799065.17745  24395018.8284                   24395014.6604
        40.0004         33.5004
 -15325354.41447 -11917961.42247  22075939.1094                   22075934.5234
        45.5004         45.7504
 -13746153.96447 -10693878.85647  22465579.6644                   22465575.3484
        44.2504         42.5004
 -17357835.65447 -13436649.22647  22125628.5164                   22125621.3324
        46.0004         46.5004
    889455.05946    725217.44344  24931346.0704                   24931343.1024
        38.2504         28.0004
 20  5 20  1 12  0.0000000  0  8G16G09G04G30G27G08G07G26
 -17165907.01847 -13245609.97145  21979121.2664                   21979113.0124
        45.2504         33.0004
 -26519132.15648 -20651808.03949  20331978.8054                   20331973.6254
        50.0004         54.2504
 -24172145.07247 -18738747.54646  20876808.0314                   20876802.1414
        45.5004         37.5004
  -6268328.33846  -4864289.75545  24379090.4384                   24379086.3634
        41.2504         34.5004
 -15358088.94547 -11943468.83647  22069709.6414                   22069705.3754
        45.0004         46.0004
 -13828397.71647 -10757964.89347  22449929.0864                   22449925.8444
        45.0004         43.0004
 -17416078.92947 -13482033.58347  22114545.3054                   22114537.7704
        46.2504         46.7504
    995840.12546    808114.99244  24951589.3834                   24951586.2974
        36.5004         26.7504
 20  5 20  1 12 30.0000000  0  8G16G09G04G30G27G08G07G26
 -17076929.37547 -13176276.75245  21996052.8594                   21996045.3984
        45.2504         31.7504
 -26531363.91948 -20661339.29949  20329651.3284                   20329646.0314
        50.5004         54.2504
 -24115676.05847 -18694745.74746  20887553.6724                   20887547.9104
        45.5004         37.7504
  -6351989.21646  -4929480.05645  24363170.1414                   24363165.4064
        40.2504         33.5004
 -15390225.26347 -11968510.11247  22063594.7274                   22063589.9774
        45.0004         45.7504
 -13910288.84347 -10821776.17347  22434345.0314                   22434341.5084
        45.0004         42.5004
 -17474192.87747 -13527317.17847  22103486.9304                   22103479.0474
        46.0004         46.5004
   1102239.16945    891023.22943  24971835.1174                   24971834.2774
        34.2504         22.5004
 20  5 20  1 13  0.0000000  0  9G16G09G05G04G30G27G08G07G26
 -16987639.39847 -13106700.16545  22013044.2974                   22013036.5164
        45.0004         32.0004
 -26543068.13448 -20670459.47549  20327424.3134                   20327418.9064
        49.0004         54.2504
    659698.01156    522648.83755  25099257.8134                   25099251.3204
        39.0004         32.2504
 -24058754.62047 -18650391.40846  20898385.5164                   20898379.6884
        45.5004         37.7504
  -6435605.69546  -4994635.74745  24347258.6334                   24347254.0554
        40.2504         33.2504
 -15421761.56547 -11993083.84047  22057592.8674                   22057588.4884
        44.7504         45.5004
 -13991823.45847 -10885309.60847  22418829.6414                   22418826.2664
        44.7504         43.2504
 -17532177.16247 -13572499.72947  22092452.4694                   22092444.7544
        46.2504         46.5004
   1208650.42546    973941.01043  24992087.0944                   24992082.9494
        38.0004         22.5004
 20  5 20  1 13 30.0000000  0  9G16G09G05G04G30G27G08G07G26
 -16898041.04247 -13036883.29145  22030093.9454                   22030086.2074
        45.0004         32.2504
 -26554244.95748 -20679168.69649  20325297.7114                   20325291.9344
        50.2504         54.2504
    598184.89546    474716.54844  25087552.2114                   25087545.3204
        38.2504         29.7504
 -24001382.85747 -18605686.15746  20909303.0234                   20909297.1454
        45.5004         37.0004
  -6519178.74246  -5059757.60045  24331354.8754                   24331351.0084
        38.7504         33.5004
 -15452697.42047 -12017189.68747  22051706.2584                   22051701.7074
        45.0004         45.5004
 -14072999.47347 -10948563.64747  22403382.6024                   22403378.5744
        44.0004         43.2504
 -17590032.30447 -13617581.64647  22081442.9224                   22081435.3484
        46.2504         46.5004
   1315070.74546   1056865.85143  25012337.8444                   25012335.3404
        37.7504         18.2504
 20  5 20  1 14  0.0000000  0  9G16G09G05G04G30G27G08G07G26
 -16808136.01947 -12966827.45145  22047202.5164                   22047194.8164
        44.5004         33.2504
 -26564892.13348 -20687465.20849  20323271.5394                   20323265.7854
        49.7504         54.2504
    537119.42046    427133.08345  25075932.1644                   25075924.7814
        36.7504         30.5004
 -23943560.39347 -18560629.70946  20920306.5164                   20920300.5004
        45.5004         37.5004
  -6602706.84446  -5124844.42245  24315459.3134                   24315455.7544
        39.0004         33.0004
 -15483029.98447 -12040825.43547  22045934.5944                   22045929.3014
        44.7504         45.5004
 -14153813.16347 -11011535.34147  22388003.9454                   22388000.5124
        45.2504         43.5004
 -17647757.44547 -13662562.26947  22070458.3914                   22070450.5004
        46.2504         46.5004
   1421499.74545   1139797.41543  25032588.7814                   25032588.1884
        33.2504         19.5004
 20  5 20  1 14 30.0000000  0  9G16G09G05G04G30G27G08G07G26
 -16717927.36547 -12896535.01145  22064368.6804                   22064361.2074
        45.0004         32.2504
 -26575009.08048 -20695348.55449  20321346.1254                   20321340.6884
        50.5004         54.2504
    476503.47046    379899.87144  25064396.7894                   25064390.0314
        36.7504         29.0004
 -23885288.62547 -18515223.15346  20931395.0314                   20931389.0554
        45.7504         37.2504
  -6686190.10746  -5189896.32345  24299573.5784                   24299569.6454
        38.5004         33.0004
 -15512758.09947 -12063990.18947  22040276.9844                   22040272.6764
        45.0004         45.7504
 -14234261.77147 -11074222.55347  22372695.6334                   22372691.6604
        44.5004         43.2504
 -17705351.60447 -13707440.83247  22059498.8054                   22059490.9344
        46.0004         46.7504
   1527934.96244   1222734.14942  25052840.8444                   25052841.1254
        29.5004         17.2504
 20  5 20  1 15  0.0000000  0  9G16G09G05G04G30G27G08G07G26
 -16627417.22247 -12826007.65945  22081592.5004                   22081584.2934
        45.0004         32.7504
 -26584594.12348 -20702817.43349  20319522.0944                   20319516.8164
        50.2504         54.2504
    416339.27646    333018.68145  25052948.5004                   25052941.4384
        37.5004         30.0004
 -23826567.79747 -18469466.68146  20942569.3834                   20942563.4454
        45.7504         37.5004
  -6769627.62046  -5254912.55545  24283696.1094                   24283691.7894
        38.5004         33.0004
 -15541879.52947 -12086682.20547  22034735.2894                   22034730.7464
        45.2504         46.0004
 -14314341.57947 -11136622.39147  22357456.8284                   22357452.8404
        44.7504         43.5004
 -17762814.23047 -13752216.89247  22048563.9144                   22048556.2034
        46.2504         46.7504
   1634375.58246   1305674.45443  25073099.8204                   25073097.3014
        39.0004         20.2504
 20  5 20  1 15 30.0000000  0  9G16G09G05G04G30G27G08G07G26
 -16536609.73547 -12755248.59445  22098872.4384                   22098864.7894
        45.0004         32.2504
 -26593647.03748 -20709871.66549  20317799.3914                   20317793.6564
        50.5004         54.2504
    356627.66646    286490.18145  25041586.0164                   25041578.6954
        38.5004         31.0004
 -23767399.66147 -18423361.65246  20953828.8984                   20953822.6954
        45.7504         37.5004
  -6853019.85746  -5319893.52745  24267827.2894                   24267822.5634
        39.0004         33.0004
 -15570393.51447 -12108900.87947  22029309.7344                   22029304.9304
        45.0004         46.0004
 -14394050.04647 -11198732.87647  22342288.6024                   22342284.5554
        44.5004         43.5004
 -17820145.61147 -13796890.68547  22037653.5474                   22037646.2664
        46.5004         46.7504
   1740818.86646   1388617.23143  25093356.2814                   25093353.3094
        40.7504         20.2504
 20  5 20  1 16  0.0000000  0  9G16G09G05G04G30G27G08G07G26
 -16445507.19747 -12684259.62345  22116208.8674                   22116201.1564
        45.2504         32.0004
 -26602166.58348 -20716510.28849  20316178.0704                   20316172.5084
        49.2504         54.0004
    297370.78146    240315.97745  25030309.6564                   25030302.2934
        38.7504         32.5004
 -23707784.84047 -18376908.55746  20965173.4924                   20965166.9844
        45.5004         37.5004
  -6936366.23746  -5384838.74645  24251966.6484                   24251962.3524
        40.5004         33.2504
 -15598298.26347 -12130644.83547  22023999.3134                   22023994.3444
        45.0004         46.0004
 -14473384.19247 -11260551.67747  22327191.5634                   22327187.9064
        45.5004         43.5004
 -17877345.09747 -13841461.71347  22026769.2814                   22026761.0984
        46.5004         47.0004
   1847263.396 6                  25113610.805
        37.750
 20  5 20  1 16 30.0000000  0  9G16G09G05G04G30G27G08G07G26
 -16354112.68747 -12613043.13645  22133600.6564                   22133592.5864
        45.2504         32.7504
 -26610152.12548 -20722732.80549  20314658.4304                   20314653.1334
        49.2504         54.0004
    238570.49346    194497.56345  25019119.8364                   25019113.1994
        38.5004         31.2504
 -23647724.70747 -18330108.45446  20976602.3524                   20976595.7664
        45.7504         37.2504
  -7019666.72446  -5449748.20745  24236115.3444                   24236110.9264
        41.0004         34.0004
 -15625592.56747 -12151913.11047  22018805.5634                   22018800.9774
        45.5004         46.0004
 -14552340.99647 -11322076.44247  22312166.8364                   22312162.8484
        45.0004         43.5004
 -17934412.86547 -13885930.10047  22015909.6954                   22015901.7424
        46.2504         47.2504
   1953707.02646   1485262.11853  25133867.1804                   25133863.2854
        38.5004         19.0004
 20  5 20  1 17  0.0000000  0  9G16G09G05G04G30G27G08G07G26
 -16262429.90747 -12541602.03345  22151046.7734                   22151039.5434
        45.0004         31.7504
 -26617603.58548 -20728539.14349  20313240.9384                   20313235.2074
        49.2504         54.2504
    180227.64746    149035.59745  25008018.4454                   25008010.8244
        38.0004         31.0004
 -23587221.05947 -18282962.76646  20988115.4774                   20988109.6604
        45.5004         36.7504
  -7102921.94246  -5514622.42845  24220272.5864                   24220268.2114
        40.7504         35.0004
 -15652275.87947 -12172705.28847  22013728.0474                   22013723.2504
        45.5004         46.0004
 -14630918.69747 -11383305.80747  22297213.8054                   22297210.0234
        45.2504         43.2504
 -17991349.29047 -13930296.14247  22005074.7424                   22005067.2934
        46.7504         47.2504
   2060147.23846   1568202.38043  25154121.8444                   25154119.2504
        39.2504         20.2504
 20  5 20  1 17 30.0000000  0  9G16G09G05G04G30G27G08G07G26
 -16170458.30847 -12469935.87345  22168548.8444                   22168541.4774
        44.7504         31.5004
 -26624516.41748 -20733925.78249  20311925.3204                   20311919.8834
        50.0004         54.2504
    122347.23246    103933.93145  24997003.5314                   24996996.7664
        38.0004         31.2504
 -23526271.27147 -18235469.44146  20999714.2894                   20999708.0944
        45.5004         37.0004
  -7186127.95546  -5579458.26445  24204438.7584                   24204434.9844
        40.0004         35.0004
 -15678343.09847 -12193017.40147  22008767.7584                   22008762.8714
        45.0004         46.0004
 -14709110.25647 -11444234.29047  22282334.5944                   22282330.8284
        45.7504         44.0004
 -18048150.30247 -13974556.66947  21994266.5784                   21994258.6254
        46.7504         47.5004
   2166585.95945   1651141.68042  25174374.7734                   25174373.8874
        35.5004         16.7504
 20  5 20  1 18  0.0000000  0  9G16G09G05G04G30G27G08G07G26
 -16078204.04347 -12398049.45545  22186104.5634                   22186096.4384
        44.5004         30.7504
 -26630893.28248 -20738894.78549  20310711.6094                   20310706.1804
        49.7504         54.2504
     64927.57846     59191.34345  24986076.9774                   24986070.1764
        37.0004         30.0004
 -23464879.96447 -18187632.07046  21011396.4384                   21011390.6844
        45.7504         37.0004
  -7269288.02046  -5644258.29545  24188613.8134                   24188610.1334
        40.2504         35.5004
 -15703796.40347 -12212851.14247  22003923.6884                   22003919.2274
        45.2504         46.2504
 -14786916.74147 -11504862.69947  22267528.7734                   22267524.5744
        45.2504         44.0004
 -18104818.88347 -14018714.00047  21983482.4224                   21983474.7154
        46.5004         47.2504
                                  25194627.8204                   25194627.9064
        24.5004         14.7504
 20  5 20  1 18 30.0000000  0  9G16G09G05G04G30G27G08G07G26
 -15985669.63547 -12325944.74745  22203712.8134                   22203705.0864
        44.5004         32.2504
 -26636733.13248 -20743445.33349  20309600.2664                   20309594.9184
        48.5004         54.2504
      7970.73246     14809.40845  24975237.7584                   24975231.4614
        37.5004         30.5004
 -23403047.95747 -18139451.30046  21023162.4614                   21023156.5824
        45.7504         37.2504
  -7352401.64246  -5709022.17345  24172797.9774                   24172793.9654
        39.2504         34.5004
 -15728634.16747 -12232205.23847  21999197.3524                   21999192.8444
        45.2504         46.0004
 -14864334.67447 -11565188.35247  22252795.9774                   22252792.3284
        45.5004         44.0004
 -18161354.55947 -14062767.77347  21972724.0234                   21972716.3834
        46.2504         47.0004
    400940.49456  18960242.88553  25214881.7424                   25214880.2584
        38.7504         21.7504
 20  5 20  1 19  0.0000000  0  9G16G09G05G04G30G27G08G07G26
 -15892854.83447 -12253621.54445  22221374.8204                   22221367.2424
        44.5004         31.0004
 -26642031.81948 -20747574.19549  20308592.2814                   20308586.4614
        48.5004         54.2504
    -48518.01846    -29207.78545  24964489.1024                   24964482.4654
        38.5004         32.0004
 -23340773.02847 -18090925.39346  21035013.6484                   21035007.5004
        45.5004         37.0004
  -7435465.21246  -5773747.00145  24156992.4224                   24156987.3834
        40.0004         34.0004
 -15752851.80747 -12251076.11547  21994588.8594                   21994584.1134
        45.7504         46.2504
 -14941357.89647 -11625206.42947  22238139.2894                   22238135.3484
        45.0004         44.0004
 -18217753.48747 -14106714.98447  21961991.4224                   21961983.9304
        46.5004         47.2504
    507357.20945  19020092.17253  25235130.8284                   25235128.2234
        32.2504         18.5004
 20  5 20  1 19 30.0000000  0  9G16G09G05G04G30G27G08G07G26
 -15799764.21947 -12181083.42145  22239089.5314                   22239081.8594
        44.5004         30.5004
 -26646790.39848 -20751282.19549  20307687.0944                   20307681.4614
        48.5004         54.5004
   -104539.20746    -72860.69145  24953828.1334                   24953821.4734
        37.7504         30.7504
 -23278058.21447 -18042056.73146  21046947.9224                   21046941.1414
        45.7504         36.5004
  -7518480.32646  -5838434.11845  24141193.8444                   24141190.1454
        39.5004         33.5004
 -15776449.94847 -12269464.26847  21990098.4224                   21990093.8054
        45.2504         46.2504
 -15017985.60547 -11684916.32047  22223557.3834                   22223553.1994
        45.0004         44.0004
 -18274017.41347 -14150557.00647  21951284.9144                   21951277.3244
        46.2504         47.5004
    613763.47045  19103005.95643  25255379.2034                   25255377.6524
        34.2504         19.0004
 20  5 20  1 20  0.0000000  0  9G16G09G05G04G30G27G08G07G26
 -15706401.49047 -12108333.26945  22256856.0944                   22256847.7974
        44.2504         30.7504
 -26651008.88748 -20754569.34249  20306884.2814                   20306878.5904
        48.7504         54.2504
   -160091.91646   -116148.49445  24943256.9144                   24943250.2034
        38.2504         30.2504
 -23214905.33847 -17992846.70446  21058965.0314                   21058959.1884
        45.7504         36.7504
  -7601447.51946  -5903083.86945  24125406.3834                   24125401.7584
        40.5004         34.0004
 -15799428.05847 -12287369.28147  21985725.9304                   21985720.3914
        45.7504         46.0004
 -15094215.44347 -11744316.18147  22209051.2894                   22209047.5554
        45.5004         44.5004
 -18330146.60947 -14194294.03947  21940604.1724                   21940596.4654
        46.5004         47.0004
    720157.069 5                  25275627.063
        31.500
 20  5 20  1 20 30.0000000  0  8G16G09G05G04G30G27G08G07
 -15612768.17847 -12035372.27345  22274673.6644                   22274665.7114
        44.2504         31.0004
 -26654684.92548 -20757433.80449  20306184.3754                   20306178.9614
        49.2504         54.2504
   -215172.57246   -159068.47645  24932775.8284                   24932768.9144
        38.0004         30.7504
 -23151314.07747 -17943295.09446  21071066.1954                   21071060.2814
        45.5004         36.5004
  -7684364.94546  -5967694.85545  24109627.1804                   24109623.0354
        39.2504         34.0004
 -15821783.37647 -12304789.00147  21981471.8444                   21981467.2934
        46.5004         46.2504
 -15170043.01747 -11803402.60247  22194622.1174                   22194618.1684
        46.0004         44.5004
 -18386139.17447 -14237924.60247  21929949.3524                   21929941.4184
        46.2504         47.2504
 20  5 20  1 21  0.0000000  0  8G16G09G05G04G30G27G08G07
 -15518867.56147 -11962202.98345  22292542.6094                   22292535.1844
        44.5004         30.7504
 -26657818.37048 -20759875.46149  20305588.4224                   20305582.9024
        48.5004         54.2504
   -269780.43246   -201620.06145  24922383.9844                   24922377.3554
        37.7504         31.2504
 -23087286.03547 -17893403.13546  21083250.2034                   21083243.7704
        45.7504         36.7504
  -7767232.88146  -6032267.27045  24093858.5944                   24093854.2504
        39.5004         34.2504
 -15843515.24947 -12321722.92747  21977335.7974                   21977331.3554
        46.7504         46.0004
 -15245465.81847 -11862173.59847  22180269.7034                   22180265.3054
        46.0004         44.5004
 -18441995.24547 -14281448.82547  21919319.8914                   21919312.0124
        47.2504         47.2504
 20  5 20  1 21 30.0000000  0  8G16G09G05G04G30G27G08G07
 -15424703.88847 -11888828.72645  22310460.9614                   22310453.8874
        44.5004         31.5004
 -26660409.85848 -20761894.81749  20305094.9844                   20305089.7544
        49.0004         54.0004
   -323915.51546   -243803.24245  24912082.1174                   24912075.3054
        38.0004         30.0004
 -23022823.87447 -17843172.89646  21095517.1024                   21095510.7974
        46.5004         36.2504
  -7850052.37346  -6096801.94445  24078098.5944                   24078094.0554
        40.0004         34.5004
 -15864623.91747 -12338171.24047  21973319.4844                   21973314.5634
        47.0004         46.0004
 -15320482.34047 -11920628.02647  22165994.5234                   22165990.6914
        46.0004         44.5004
 -18497715.76747 -14324867.41247  21908717.1724                   21908709.0164
        47.0004         47.0004
 20  5 20  1 22  0.0000000  0  8G16G09G05G04G30G27G08G07
 -15330278.51347 -11815250.53245  22328430.1024                   22328422.4224
        45.0004         31.2504
 -26662457.46148 -20763490.36549  20304705.5784                   20304699.9064
        48.5004         54.0004
   -377574.59546   -285615.51345  24901870.7114                   24901864.5124
        36.0004         30.0004
 -22957927.45547 -17792604.27446  21107866.1414                   21107859.9144
        45.7504         36.2504
  -7932821.94446  -6161297.70945  24062348.1484                   24062343.7154
        39.7504         35.5004
 -15885106.97947 -12354132.06147  21969421.6804                   21969416.3484
        46.5004         46.0004
 -15395088.53847 -11978762.72847  22151797.5554                   22151793.1994
        45.7504         44.7504
 -18553298.89947 -14368178.94647  21898139.6414                   21898132.0434
        47.0004         47.2504
 20  5 20  1 22 30.0000000  0  8G16G09G05G04G30G27G08G07
 -15235594.02847 -11741470.44945  22346448.0314                   22346440.0904
        44.7504         30.5004
 -26663959.81748 -20764661.05249  20304419.3134                   20304414.1524
        49.5004         54.2504
   -430755.34746   -327055.03244  24891751.1884                   24891744.6094
        37.5004         29.7504
 -22892597.31447 -17741697.69046  21120298.2344                   21120292.1214
        45.5004         36.0004
  -8015540.66446  -6225753.84045  24046606.7894                   24046603.2274
        39.5004         35.5004
 -15904962.61147 -12369603.98247  21965643.2584                   21965638.4024
        47.0004         46.2504
 -15469281.11147 -12036575.09947  22137678.8134                   22137674.8014
        46.0004         44.5004
 -18608743.93047 -14411382.86547  21887588.7974                   21887581.0204
        47.5004         47.2504
 20  5 20  1 23  0.0000000  0  8G16G09G05G04G30G27G08G07
 -15140653.69847 -11667490.98845  22364514.2424                   22364506.6174
        45.0004         31.2504
 -26664917.15148 -20765407.04449  20304237.2034                   20304231.8404
        49.5004         54.2504
   -483457.51546   -368121.66844  24881722.0394                   24881715.6484
        36.2504         28.0004
 -22826835.56147 -17690454.78546  21132812.1254                   21132806.3674
        46.0004         36.2504
  -8098209.01646  -6290170.71345  24030875.3834                   24030871.4414
        40.0004         35.7504
 -15924190.65947 -12384586.88347  21961983.8674                   21961979.2504
        47.2504         46.5004
 -15543057.82647 -12094063.43647  22123639.3204                   22123635.5434
        46.2504         44.2504
 -18664051.47947 -14454479.65947  21877064.3984                   21877056.4534
        47.2504         47.2504
 20  5 20  1 23 30.0000000  0  8G16G09G05G04G30G27G08G07
 -15045459.71647 -11593313.89345  22382629.1564                   22382621.2704
        45.0004         30.5004
 -26665327.83448 -20765727.06549  20304159.3204                   20304153.5984
        48.2504         54.0004
   -535678.42546   -408813.27245  24871784.8134                   24871778.6174
        36.5004         30.2504
 -22760642.50047 -17638875.80946  21145408.4534                   21145402.5124
        46.0004         36.2504
  -8180825.87246  -6354547.45746  24015153.9844                   24015150.1374
        39.5004         36.5004
 -15942789.11747 -12399079.18547  21958445.0944                   21958439.9694
        47.5004         46.2504
 -15616415.12447 -12151224.96247  22109679.7584                   22109675.8954
        45.7504         44.5004
 -18719219.66147 -14497467.85547  21866565.7814                   21866558.4534
        46.5004         47.5004
 20  5 20  1 24  0.0000000  0  8G16G09G05G04G30G27G08G07
 -14950016.28947 -11518942.42045  22400791.3984                   22400783.9734
        44.7504         30.5004
 -26665192.85148 -20765621.90349  20304184.9534                   20304179.3754
        49.0004         54.2504
   -587417.95246   -449129.77144  24861939.6024                   24861932.9884
        38.0004         29.0004
 -22694020.93847 -17586962.92046  21158085.9844                   21158080.5554
        46.2504         36.7504
  -8263392.46346  -6418885.02645  23999441.2814                   23999438.2344
        39.0004         35.5004
 -15960758.54747 -12413081.34247  21955025.7114                   21955021.1684
        47.5004         46.5004
 -15689351.77747 -12208058.70147  22095800.7194                   22095796.4384
        46.0004         44.7504
 -18774249.75047 -14540348.43447  21856094.0234                   21856086.3164
        46.7504         47.5004
 20  5 20  1 24 30.0000000  0  8G16G09G05G04G30G27G08G07
 -14854322.33447 -11444375.72644  22419001.3834                   22418993.8444
        44.2504         29.5004
 -26664507.73148 -20765088.05949  20304315.4384                   20304309.9964
        49.2504         54.2504
   -638671.04046   -489067.21344  24852188.2584                   24852179.5204
        38.7504         29.2504
 -22626968.29847 -17534714.13746  21170846.1484                   21170840.1054
        46.0004         36.7504
  -8345904.67846  -6483180.22645  23983739.7584                   23983736.3984
        39.2504         35.7504
 -15978094.05747 -12426589.52147  21951726.8284                   21951722.3054
        47.5004         46.5004
 -15761860.89447 -12264559.29647  22082002.4694                   22081998.6454
        46.0004         45.2504
 -18829137.66347 -14583118.23447  21845648.9774                   21845641.4694
        46.5004         47.5004
 20  5 20  1 25  0.0000000  0  8G16G09G05G04G30G27G08G07
 -14758384.94447 -11369619.35045  22437258.2664                   22437250.0984
        44.5004         30.0004
 -26663276.00748 -20764128.29049  20304549.8134                   20304544.3554
        49.2504         54.2504
   -689440.13946   -528627.56244  24842524.7734                   24842518.4614
        36.7504         28.5004
 -22559489.96147 -17482133.64946  21183686.3524                   21183680.7504
        45.7504         36.7504
  -8428366.30346  -6547436.02945  23968048.1094                   23968044.1914
        40.0004         35.7504
 -15994798.82447 -12439606.22047  21948547.8054                   21948543.4414
        47.0004         46.5004
 -15833944.02147 -12320727.94447  22068286.2034                   22068281.7304
        46.5004         45.5004
 -18883886.85547 -14625779.93847  21835230.7584                   21835223.0984
        46.2504         47.5004
 20  5 20  1 25 30.0000000  0  8G16G09G05G04G30G27G08G07
 -14662204.51647 -11294673.58845  22455560.5944                   22455552.8284
        44.0004         30.0004
 -26661495.17848 -20762740.65149  20304888.6564                   20304883.2934
        48.5004         54.2504
   -739721.88246   -567808.12245  24832956.0784                   24832949.9264
        36.7504         30.0004
 -22491585.24947 -17429220.90446  21196608.4144                   21196602.6254
        46.0004         36.5004
  -8510775.02346  -6611650.59545  23952366.9454                   23952362.0824
        40.0004         35.5004
 -16010869.95847 -12452129.17747  21945489.7584                   21945484.6454
        47.7504         46.5004
 -15905596.38747 -12376560.94347  22054650.4844                   22054646.8834
        46.0004         45.5004
 -18938495.15547 -14668331.85947  21824839.3594                   21824831.6844
        46.5004         47.7504
 20  5 20  1 26  0.0000000  0  8G16G09G05G04G30G27G08G07
 -14565784.77047 -11219541.34445  22473908.4384                   22473900.6994
        44.2504         30.0004
 -26659165.08748 -20760925.00649  20305331.8754                   20305326.7704
        49.0004         54.2504
   -789515.32046   -606608.22445  24823480.8054                   24823474.5394
        38.7504         30.0004
 -22423255.89547 -17375977.27446  21209611.3204                   21209604.8204
        46.5004         36.0004
  -8593131.05146  -6675824.10145  23936694.1564                   23936690.1884
        40.0004         35.5004
 -16026306.95847 -12464158.00847  21942552.1954                   21942546.9414
        47.5004         46.5004
 -15976815.64247 -12432056.45747  22041098.1024                   22041093.8834
        46.0004         45.5004
 -18992962.48847 -14710773.92948  21814474.4844                   21814466.7504
        46.7504         48.0004
 20  5 20  1 26 30.0000000  0  8G16G09G05G04G30G27G08G07
 -14469127.30647 -11144223.86745  22492301.7114                   22492293.9694
        44.2504         30.0004
 -26656284.22648 -20758680.19148  20305880.3364                   20305875.1334
        48.0004         53.5004
   -838817.89046   -645025.82345  24814099.4534                   24814092.6294
        38.2504         30.7504
 -22354502.24247 -17322403.02446  21222694.2034                   21222688.1134
        46.0004         36.5004
  -8675432.99446  -6739955.48446  23921033.3914                   23921029.1644
        40.7504         36.7504
 -16041107.94647 -12475691.24947  21939735.8674                   21939731.0234
        47.5004         46.5004
 -16047598.00347 -12487211.54647  22027628.9924                   22027625.0004
        46.2504         45.7504
 -19047287.25247 -14753104.91248  21804136.7114                   21804128.9964
        46.5004         48.0004
 20  5 20  1 27  0.0000000  0  8G16G09G05G04G30G27G08G07
 -14372236.42247 -11068724.50544  22510739.7194                   22510731.3364
        44.5004         29.5004
 -26652853.23648 -20756006.71249  20306532.9844                   20306527.7464
        48.2504         54.0004
   -887629.23146   -683060.61845  24804812.6954                   24804803.7664
        39.7504         30.0004
 -22285326.72147 -17268500.04146  21235858.3364                   21235852.0474
        45.7504         36.5004
  -8757681.80146  -6804045.42345  23905382.1094                   23905377.3794
        40.2504         35.2504
 -16055273.22047 -12486729.12047  21937039.9614                   21937035.2504
        47.5004         46.7504
 -16117941.70547 -12542024.80347  22014242.6024                   22014238.5514
        45.5004         45.2504
 -19101470.45947 -14795325.59148  21793825.9924                   21793818.4104
        46.7504         48.0004
 20  5 20  1 27 30.0000000  0  8G16G09G05G04G30G27G08G07
 -14275114.70047 -10993045.27144  22529221.1254                   22529213.3954
        43.7504         28.7504
 -26648871.68248 -20752904.21649  20307290.7974                   20307285.2424
        48.5004         54.2504
   -935948.07746   -720711.70645  24795616.3524                   24795609.2814
        38.5004         30.0004
 -22215730.79347 -17214269.47546  21249102.1174                   21249096.1334
        46.5004         36.2504
  -8839877.06046  -6868093.67545  23889740.9224                   23889736.0824
        40.5004         35.5004
 -16068802.04247 -12497271.04947  21934465.8984                   21934460.4304
        46.7504         46.5004
 -16187844.71747 -12596494.68247  22000940.6724                   22000936.6644
        44.5004         45.2504
 -19155511.46547 -14837435.46648  21783542.1484                   21783534.4924
        46.7504         48.0004
 20  5 20  1 28  0.0000000  0  8G16G09G05G04G30G27G08G07
 -14177761.58347 -10917185.72844  22547746.5164                   22547738.9614
        43.7504         28.5004
 -26644335.86548 -20749369.82549  20308153.8524                   20308148.9694
        48.5004         54.0004
   -983769.96646   -757975.53845  24786515.7894                   24786508.6804
        38.7504         30.5004
 -22145712.52047 -17159709.80746  21262425.9144                   21262420.0274
        46.2504         36.5004
  -8922015.27246  -6932097.46446  23874109.2034                   23874105.5434
        39.0004         36.2504
 -16081690.31247 -12507313.85547  21932013.2194                   21932008.1604
        46.5004         46.7504
 -16257300.65447 -12650616.19247  21987723.3284                   21987719.3634
        45.0004         45.2504
 -19209406.47947 -14879431.58248  21773286.2814                   21773278.5664
        46.5004         48.0004
 20  5 20  1 28 30.0000000  0  8G16G09G05G04G30G27G08G07
 -14080183.22347 -10841150.68445  22566315.3134                   22566307.8914
        43.5004         30.0004
 -26639248.62248 -20745405.75749  20309121.8754                   20309116.4694
        48.5004         54.0004
  -1031096.95946   -794853.71345  24777510.8914                   24777502.8364
        40.2504         30.0004
 -22075276.60947 -17104824.71546  21275829.2274                   21275823.5044
        47.0004         36.5004
  -9004099.43046  -6996059.10946  23858489.7344                   23858485.7154
        40.0004         36.7504
 -16093940.62047 -12516859.54347  21929682.0164                   21929677.0944
        47.0004         46.7504
 -16326309.87647 -12704389.60747  21974591.6954                   21974587.3324
        46.0004         45.5004
 -19263158.38647 -14921316.19747  21763057.6954                   21763050.1414
        47.5004         47.7504
 20  5 20  1 29  0.0000000  0  8G16G09G05G04G30G27G08G07
 -13982381.48547 -10764941.58344  22584926.6724                   22584918.9574
        44.2504         29.7504
 -26633608.59248 -20741010.94049  20310195.3524                   20310189.9064
        49.0004         54.0004
  -1077926.48746   -831344.29245  24768598.7734                   24768591.2974
        38.7504         30.7504
 -22004423.46447 -17049614.50046  21289312.3444                   21289306.2934
        47.0004         36.2504
  -9086128.23146  -7059977.64646  23842879.7974                   23842876.4494
        39.5004         37.2504
 -16105551.26447 -12525906.79047  21927472.4774                   21927467.5274
        47.5004         46.7504
 -16394869.29247 -12757812.52747  21961545.0864                   21961540.7464
        45.7504         45.7504
 -19316765.91547 -14963088.30148  21752856.2894                   21752848.7154
        47.0004         48.0004
 20  5 20  1 29 30.0000000  0  8G16G09G05G04G30G27G08G07
 -13884358.32147 -10688559.91844  22603579.8674                   22603571.6334
        43.7504         29.5004
 -26627414.82148 -20736184.64449  20311374.0004                   20311368.5004
        48.5004         54.2504
  -1124256.51546   -867445.59944  24759782.8444                   24759775.2194
        39.0004         28.7504
 -21933153.97547 -16994079.86245  21302874.4224                   21302868.5784
        46.2504         35.7504
  -9168100.85546  -7123852.38145  23827281.7194                   23827277.5234
        39.2504         35.7504
 -16116521.02147 -12534454.63447  21925384.9064                   21925379.9804
        45.2504         46.0004
 -16462975.63147 -12810882.39547  21948584.6954                   21948580.6524
        44.5004         45.2504
 -19370228.23047 -15004747.24948  21742682.9924                   21742675.5274
        46.5004         48.0004
 20  5 20  1 30  0.0000000  0  8G16G09G05G04G30G27G08G07
 -13786117.32347 -10612008.53644  22622274.1174                   22622266.9574
        43.5004         29.0004
 -26620667.73448 -20730927.18249  20312658.2664                   20312652.5474
        48.5004         54.2504
  -1170087.04046   -903157.72845  24751061.7344                   24751053.9224
        39.0004         31.2504
 -21861470.35147 -16938222.51846  21316515.8054                   21316509.6804
        46.0004         36.0004
  -9250017.64346  -7187683.62246  23811693.6174                   23811689.0984
        39.7504         36.2504
 -16126849.94647 -12542503.15047  21923419.3754                   21923414.5274
        45.7504         46.7504
 -16530626.50147 -12863597.36947  21935711.0704                   21935707.6804
        45.0004         46.0004
 -19423545.13247 -15046292.88947  21732537.0314                   21732529.6724
        47.0004         47.7504
 20  5 20  1 30 30.0000000  0  8G16G09G05G04G30G27G08G07
 -13687660.48647 -10535288.96244  22641010.1954                   22641002.4304
        43.2504         28.7504
 -26613365.97548 -20725237.51949  20314047.3284                   20314041.9024
        48.7504         54.0004
  -1215415.56946   -938478.67245  24742436.1804                   24742429.1414
        38.5004         30.7504
 -21789372.96947 -16882042.76246  21330235.1334                   21330229.3204
        46.5004         36.0004
  -9331877.35546  -7251470.38945  23796116.3054                   23796111.7814
        40.7504         35.7504
 -16136536.44547 -12550051.05947  21921576.4144                   21921571.2854
        46.7504         46.7504
 -16597818.48147 -12915954.74947  21922925.2114                   21922921.4804
        45.5004         46.2504
 -19476715.50047 -15087724.34548  21722419.0474                   21722411.3324
        47.0004         48.0004
 20  5 20  1 31  0.0000000  0  8G16G09G05G04G30G27G08G07
 -13588991.96547 -10458404.41644  22659785.8364                   22659778.7624
        43.5004         28.2504
 -26605510.74748 -20719116.58749  20315542.2424                   20315536.5864
        50.0004         54.0004
  -1260242.31646   -973408.62845  24733904.2894                   24733898.8954
        37.2504         32.0004
 -21716864.90047 -16825542.99246  21344032.7734                   21344026.7774
        47.0004         36.2504
  -9413681.18046  -7315213.60346  23780549.7664                   23780544.7854
        41.5004         36.7504
 -16145581.51847 -12557099.16447  21919855.1174                   21919850.0904
        45.5004         47.0004
 -16664550.91447 -12967954.04747  21910226.2974                   21910222.5044
        45.5004         46.5004
 -19529740.30947 -15129042.38448  21712329.0314                   21712321.3984
        47.5004         48.0004
 20  5 20  1 31 30.0000000  0  8G16G09G05G04G30G27G08G07
 -13490110.81447 -10381354.19844  22678602.5944                   22678594.8364
        43.2504         28.0004
 -26597098.04548 -20712561.24849  20317143.1644                   20317138.0234
        49.0004         54.2504
  -1304562.24246  -1007943.63045  24725471.6644                   24725464.6454
        38.7504         32.5004
 -21643943.88747 -16768721.45146  21357909.4454                   21357903.4494
        47.0004         36.2504
  -9495425.10546  -7378910.14046  23764993.8914                   23764989.6174
        40.5004         37.5004
 -16153980.77347 -12563644.02547  21918256.5864                   21918251.8364
        45.5004         46.7504
 -16730817.16647 -13019590.07147  21897616.0634                   21897612.2974
        45.2504         46.5004
 -19582615.38347 -15170243.74048  21702266.8914                   21702259.3284
        47.0004         48.0004
 20  5 20  1 32  0.0000000  0  8G16G09G05G04G30G27G08G07
 -13391023.12447 -10304143.05644  22697458.5164                   22697450.6844
        43.5004         29.0004
 -26588131.01048 -20705573.97449  20318849.1644                   20318844.5124
        49.0004         54.2504
  -1348377.87846  -1042085.72545  24717133.0314                   24717127.3594
        38.0004         32.2504
 -21570614.85247 -16711581.96845  21371863.9304                   21371857.6684
        46.5004         35.5004
  -9577112.09846  -7442562.32246  23749448.7974                   23749445.1564
        40.0004         37.2504
 -16161737.18047 -12569687.97147  21916780.5944                   21916776.1454
        45.5004         46.7504
 -16796618.06647 -13070863.48847  21885094.8594                   21885090.9614
        45.0004         46.2504
 -19635343.56647 -15211330.63648  21692233.3594                   21692225.7194
        46.7504         48.5004
 20  5 20  1 32 30.0000000  0  8G16G09G05G04G30G27G08G07
 -13291730.46847 -10226772.20044  22716353.0164                   22716345.7234
        43.5004         28.7504
 -26578607.98548 -20698153.45349  20320661.8984                   20320656.4264
        48.7504         54.0004
  -1391686.53946  -1075832.75645  24708892.2194                   24708886.3244
        38.2504         32.0004
 -21496877.92747 -16654124.64445  21385895.3204                   21385889.6254
        47.0004         35.7504
  -9658740.65246  -7506168.93646  23733915.8524                   23733911.5234
        41.0004         36.5004
 -16168848.82347 -12575229.50647  21915427.1724                   21915422.5354
        45.2504         46.7504
 -16861949.53447 -13121771.12247  21872662.7114                   21872658.9414
        45.5004         46.5004
 -19687923.49047 -15252302.00248  21682227.5784                   21682220.0904
        47.2504         48.2504
 20  5 20  1 33  0.0000000  0  8G16G09G05G04G30G27G08G07
 -13192235.50847 -10149243.69244  22735286.0554                   22735278.9454
        42.7504         28.0004
 -26568529.02648 -20690299.73749  20322579.6804                   20322574.1954
        49.5004         54.0004
  -1434487.35746  -1109184.04945  24700747.2814                   24700741.3554
        38.5004         32.5004
 -21422734.90547 -16596350.88745  21400004.1564                   21399998.3914
        46.0004         35.5004
  -9740310.51146  -7569729.84446  23718394.0944                   23718389.0984
        40.7504         36.7504
 -16175315.53247 -12580268.49047  21914196.4614                   21914191.8714
        45.2504         46.7504
 -16926809.45647 -13172311.31647  21860320.3594                   21860316.3634
        44.7504         46.5004
 -19740354.12647 -15293157.05148  21672250.3364                   21672242.8874
        47.5004         48.2504
 20  5 20  1 33 30.0000000  0  8G16G09G05G04G30G27G08G07
 -13092540.42147 -10071559.23744  22754257.5864                   22754250.3014
        43.7504         29.0004
 -26557893.17748 -20682012.07849  20324603.7814                   20324598.2504
        48.5004         54.2504
  -1476778.48046  -1142138.19245  24692700.3444                   24692693.5594
        39.2504         33.2504
 -21348186.53147 -16538261.27845  21414190.1644                   21414183.9964
        46.2504         35.2504
  -9821820.68946  -7633244.24346  23702882.4224                   23702878.1094
        40.0004         36.0004
 -16181136.06147 -12584803.95347  21913088.9064                   21913084.1174
        45.2504         46.5004
 -16991194.64847 -13222481.59447  21848068.2584                   21848064.1844
        45.2504         46.5004
 -19792634.67847 -15333895.14048  21662301.5704                   21662294.3244
        46.5004         48.2504
 20  5 20  1 34  0.0000000  0  8G16G09G05G04G30G27G08G07
 -12992647.79747  -9993720.87344  22773267.0864                   22773259.2274
        44.0004         28.0004
 -26546699.99148 -20673290.13949  20326733.6254                   20326728.5164
        49.5004         54.2504
  -1518558.55446  -1174694.08945  24684749.7424                   24684743.0704
        39.2504         33.5004
 -21273234.13747 -16479856.85045  21428453.0004                   21428447.4574
        45.7504         34.7504
  -9903270.64346  -7696711.71646  23687383.1954                   23687378.7664
        40.2504         36.0004
 -16186309.81147 -12588835.44347  21912104.2814                   21912099.7624
        45.7504         47.0004
 -17055102.58647 -13272279.97347  21835906.7424                   21835902.8874
        46.0004         46.7504
 -19844764.20348 -15374515.55148  21652381.7274                   21652374.2734
        48.0004         48.2504
 20  5 20  1 34 30.0000000  0  8G16G09G05G04G30G27G08G07
 -12892561.10147  -9915731.29244  22792313.0944                   22792305.4494
        43.0004         29.0004
 -26534950.18648 -20664134.46749  20328969.8594                   20328964.2854
        49.0004         54.2504
  -1559827.14446  -1206851.46545  24676896.4924                   24676889.9654
        39.0004         33.2504
 -21197880.16647 -16421139.50145  21442792.5394                   21442786.7704
        45.7504         35.7504
  -9984660.78546  -7760132.58146  23671894.5704                   23671890.4574
        40.2504         36.7504
 -16190837.25847 -12592363.32147  21911242.7664                   21911237.9884
        46.0004         47.0004
 -17118531.36247 -13321704.98347  21823836.8054                   21823832.9804
        45.0004         46.5004
 -19896743.48147 -15415018.88648  21642490.7424                   21642482.8204
        47.5004         48.2504
 20  5 20  1 35  0.0000000  0  8G16G09G05G04G30G27G08G07
 -12792282.29647  -9837591.97744  22811395.2584                   22811387.9344
        43.0004         28.5004
 -26522642.67348 -20654544.21449  20331311.6174                   20331306.2704
        49.5004         54.0004
  -1600582.29846  -1238608.74045  24669141.0554                   24669134.1334
        38.2504         33.0004
 -21122125.25447 -16362109.71945  21457208.5084                   21457202.7074
        46.5004         34.7504
 -10065989.89747  -7823505.86846  23656418.9144                   23656414.3324
        42.0004         38.0004
 -16194717.10747 -12595386.56747  21910504.5394                   21910499.9774
        45.5004         46.7504
 -17181477.61847 -13370754.02147  21811858.4384                   21811854.3444
        45.0004         46.5004
 -19948570.56747 -15455403.63348  21632627.9534                   21632620.2934
        47.5004         48.0004
 20  5 20  1 35 30.0000000  0  8G16G09G05G04G30G27G08G07
 -12691814.06447  -9759305.07844  22830513.2814                   22830506.1024
        43.2504         27.5004
 -26509777.73348 -20644519.60749  20333759.8914                   20333754.8404
        49.0004         54.0004
  -1640823.29346  -1269965.36745  24661483.9454                   24661476.9384
        38.2504         33.2504
 -21045971.41947 -16302769.08745  21471700.2974                   21471694.0864
        46.2504         35.0004
 -10147258.06346  -7886831.67946  23640954.0394                   23640949.2854
        41.7504         38.2504
 -16197949.45047 -12597905.26747  21909889.5164                   21909885.0784
        45.5004         46.7504
 -17243939.45047 -13419425.56847  21799972.3134                   21799968.7304
        45.0004         46.7504
 -20000245.46848 -15495669.79148  21622794.4224                   21622787.0474
        48.0004         48.0004
 20  5 20  1 36  0.0000000  0  8G16G09G05G04G30G27G08G07
 -12591159.06447  -9680872.65344  22849668.2894                   22849659.9454
        43.5004         28.0004
 -26496355.02848 -20634060.37949  20336313.9304                   20336308.5864
        49.7504         54.0004
  -1680549.12546  -1300920.59045  24653923.8834                   24653917.0434
        39.0004         33.5004
 -20969419.95647 -16243118.63245  21486267.4844                   21486261.4574
        46.7504         35.7504
 -10228464.65247  -7950109.50546  23625501.1564                   23625496.6134
        42.0004         37.7504
 -16200533.78247 -12599919.02747  21909397.7424                   21909393.3954
        45.5004         46.7504
 -17305914.15947 -13467717.53447  21788178.6644                   21788175.5944
        44.7504         47.0004
 -20051767.70047 -15535816.98248  21612990.5474                   21612982.6334
        47.7504         48.0004
 20  5 20  1 36 30.0000000  0  9G16G09G05G04G30G27G08G11G07
 -12490319.47847  -9602296.38744  22868856.8364                   22868849.0124
        42.5004         28.0004
 -26482373.88548 -20623166.00149  20338974.6724                   20338969.4454
        49.5004         54.0004
  -1719758.16846  -1331473.11045  24646461.3674                   24646455.8244
        37.2504         33.5004
 -20892472.00047 -16183159.21445  21500910.0084                   21500904.0944
        45.7504         35.5004
 -10309608.73047  -8013338.62546  23610059.5314                   23610055.1214
        42.0004         37.2504
 -16202469.26647 -12601427.19047  21909029.3364                   21909024.2934
        45.5004         46.5004
 -17367398.48047 -13515627.38447  21776479.0394                   21776475.2344
        45.2504         47.0004
    459392.38956    405755.68153  25597481.3284                   25597474.7974
        38.5004         19.0004
 -20103135.97148 -15575844.21748  21603215.2424                   21603207.5984
        48.5004         48.5004
 20  5 20  1 37  0.0000000  0  9G16G09G05G04G30G27G08G11G07
 -12389303.72947  -9523582.82944  22888079.1884                   22888072.4574
        42.2504         27.5004
 -26467840.13048 -20611841.00749  20341740.5704                   20341734.9534
        49.5004         54.0004
  -1758455.37246  -1361626.72645  24639099.8984                   24639092.0354
        39.2504         33.0004
 -20815135.00347 -16122896.64945  21515626.8674                   21515620.8914
        45.2504         35.7504
 -10390695.81847  -8076523.32646  23594629.1884                   23594624.8834
        42.0004         37.5004
 -16203761.51647 -12602434.13647  21908783.5944                   21908778.8674
        46.0004         46.7504
 -17428396.04947 -13563157.95947  21764871.4304                   21764867.5594
        45.7504         47.2504
    371404.34146    337193.50542  25580737.6254                   25580733.1644
        38.5004         16.7504
 -20154355.83748 -15615755.80748  21593468.8134                   21593460.3404
        48.2504         48.5004
 20  5 20  1 37 30.0000000  0  9G16G09G05G04G30G27G08G11G07
 -12288103.03047  -9444725.19744  22907336.8284                   22907330.1724
        42.7504         27.7504
 -26452742.13148 -20600076.35549  20344613.2894                   20344607.7664
        49.7504         54.0004
  -1796628.01946  -1391371.70145  24631835.6724                   24631827.7664
        38.7504         33.0004
 -20737399.02047 -16062323.17345  21530419.3674                   21530413.9884
        45.5004         35.2504
 -10471713.94047  -8139654.30346  23579211.4304                   23579207.3674
        42.0004         38.0004
 -16204398.78447 -12602930.71447  21908662.4304                   21908657.5004
        45.5004         46.7504
 -17488892.76147 -13610298.23647  21753359.3204                   21753355.6374
        46.0004         47.2504
    283311.42246    268549.65342  25563974.6094                   25563969.2974
        38.0004         16.2504
 -20205415.02648 -15655542.18548  21583752.3444                   21583744.6334
        48.5004         48.5004
 20  5 20  1 38  0.0000000  0  9G16G09G05G04G30G27G08G11G07
 -12186725.36647  -9365729.66344  22926629.4224                   22926621.9804
        43.2504         28.0004
 -26437085.52148 -20587876.41149  20347592.7274                   20347587.1804
        49.2504         54.0004
  -1834280.93146  -1420711.64145  24624669.1954                   24624662.3954
        37.7504         32.5004
 -20659271.29347 -16001444.45645  21545286.5634                   21545281.1524
        45.5004         35.5004
 -10552668.40146  -8202735.65646  23563806.5784                   23563802.0394
        41.2504         37.5004
 -16204386.49247 -12602921.13647  21908664.4304                   21908659.8244
        45.5004         46.7504
 -17548892.28447 -13657051.10347  21741941.7504                   21741938.0704
        45.7504         47.2504
    195110.52846    199821.60142  25547190.1884                   25547185.4924
        36.7504         15.5004
 -20256318.77747 -15695207.45448  21574065.9224                   21574058.0514
        47.5004         48.5004
 20  5 20  1 38 30.0000000  0  9G16G09G05G04G30G27G08G11G07
 -12085173.72847  -9286598.54344  22945953.8834                   22945946.6844
        42.5004         27.0004
 -26420870.07148 -20575241.01449  20350678.5474                   20350673.0704
        49.2504         54.0004
  -1871412.99846  -1449645.72545  24617604.4064                   24617596.7974
        39.5004         32.0004
 -20580753.38247 -15940261.69945  21560227.7584                   21560222.1644
        45.2504         35.2504
 -10633558.63947  -8265766.97546  23548413.5084                   23548409.5704
        42.0004         37.0004
 -16203724.34447 -12602405.17847  21908790.8134                   21908786.1454
        45.5004         47.0004
 -17608391.84947 -13703414.39247  21730619.4924                   21730615.0824
        45.5004         47.0004
    106804.28946    131011.55342  25530386.0474                   25530381.3164
        36.5004         16.7504
 -20307065.97748 -15734750.72848  21564408.7814                   21564401.4534
        48.0004         48.5004
 20  5 20  1 39  0.0000000  0  9G16G09G05G04G30G27G08G11G07
 -11983451.95647  -9207334.83744  22965311.0164                   22965303.4304
        43.2504         27.5004
 -26404097.34048 -20562171.37049  20353870.4384                   20353864.9614
        48.7504         54.0004
  -1908024.70446  -1478174.34745  24610635.5004                   24610630.0784
        39.2504         33.5004
 -20501848.41147 -15878777.32545  21575243.4844                   21575237.8554
        46.0004         35.2504
 -10714385.71547  -8328749.06746  23533032.4614                   23533028.8914
        42.0004         36.5004
 -16202413.74347 -12601383.92347  21909039.6724                   21909035.0204
        45.5004         46.7504
 -17667390.31447 -13749387.22047  21719392.4534                   21719388.2194
        45.5004         47.2504
     18393.50546     62120.01242  25513563.1174                   25513557.2704
        36.5004         17.2504
 -20357657.78447 -15774172.91948  21554781.5864                   21554773.8594
        47.7504         48.5004
 20  5 20  1 39 30.0000000  0  9G16G09G05G04G30G27G08G11G07
 -11881557.98347  -9127936.98844  22984700.9064                   22984692.9024
        43.0004         27.5004
 -26386762.64348 -20548663.83649  20357168.5784                   20357163.5234
        49.0004         54.0004
  -1944110.31446  -1506293.01045  24603769.9614                   24603763.1604
        38.5004         33.2504
 -20422553.38347 -15816989.02245  21590332.9144                   21590327.0234
        45.7504         34.7504
 -10795144.51746  -8391677.96146  23517664.8364                   23517660.2234
        41.5004         37.2504
 -16200449.86747 -12599853.63347  21909413.5004                   21909408.9064
        45.5004         47.0004
 -17725881.37147 -13794964.66147  21708262.1174                   21708257.9654
        45.5004         47.0004
    -70114.54046     -6847.26142  25496719.6254                   25496714.6884
        36.5004         17.2504
 -20408088.97747 -15813469.95548  21545184.5784                   21545177.2584
        47.7504         48.7504
 20  5 20  1 40  0.0000000  0  9G16G09G05G04G30G27G08G11G07
 -11779499.17547  -9048410.68144  23004121.9144                   23004114.6374
        43.0004         27.0004
 -26368870.86548 -20534722.20849  20360573.5314                   20360567.9104
        49.0004         54.0004
  -1979674.06946  -1534005.01945  24597002.2194                   24596995.0394
        39.5004         32.7504
 -20342874.77447 -15754901.82445  21605494.9614                   21605489.0634
        45.5004         35.5004
 -10875839.52747  -8454557.15246  23502309.7974                   23502304.6604
        42.2504         37.2504
 -16197837.46947 -12597818.01147  21909910.7114                   21909905.7424
        46.7504         47.0004
 -17783867.10847 -13840148.34447  21697227.1334                   21697223.3754
        45.5004         47.2504
   -158722.19245    -75892.16342  25479858.3674                   25479853.8714
        34.7504         17.7504
 -20458363.64847 -15852645.02748  21535617.8754                   21535610.0394
        47.7504         48.7504
 20  5 20  1 40 30.0000000  0  9G16G09G05G04G30G27G08G11G07
 -11677276.41147  -8968756.60044  23023573.8134                   23023566.6254
        43.0004         26.7504
 -26350420.42248 -20520345.25749  20364084.4144                   20364079.2034
        49.0004         54.0004
  -2014713.39446  -1561308.39845  24590334.5394                   24590327.9734
        38.5004         32.5004
 -20262812.64547 -15692515.78445  21620730.1954                   21620724.3714
        45.5004         35.2504
 -10956468.67147  -8517385.02946  23486965.9924                   23486961.2504
        42.0004         38.2504
 -16194574.90947 -12595275.75747  21910531.8364                   21910526.9574
        46.0004         47.0004
 -17841343.42447 -13884935.08047  21686289.9774                   21686286.0594
        46.0004         47.2504
   -247425.27545   -145011.39242  25462978.8204                   25462973.5664
        35.5004         16.2504
 -20508479.60448 -15891696.41748  21526080.6564                   21526073.4614
        48.2504         48.5004
 20  5 20  1 41  0.0000000  0 10G16G09G05G04G30G27G08G11G07G28
 -11574891.89847  -8888976.48944  23043057.6174                   23043049.6054
        42.2504         25.7504
 -26331410.96848 -20505532.71449  20367701.9614                   20367696.3794
        48.5004         54.0004
  -2049226.75246  -1588201.94545  24583765.8754                   24583759.9574
        38.5004         31.7504
 -20182368.28347 -15629831.90645  21636038.4304                   21636032.6374
        45.0004         34.5004
 -11037031.10547  -8580160.91246  23471635.1644                   23471631.3014
        42.2504         38.5004
 -16190661.75347 -12592226.54447  21911276.2664                   21911271.3984
        45.5004         46.7504
 -17898307.57947 -13929322.72847  21675449.9694                   21675446.0984
        45.7504         47.5004
   -336220.99645   -214202.83842  25446080.8674                   25446076.8484
        35.5004         17.7504
 -20558436.07747 -15930623.55148  21516573.9774                   21516567.0664
        47.5004         48.5004
    153440.83556    148711.49153  24874948.4844                   24874941.5314
        37.0004         20.2504
 20  5 20  1 41 30.0000000  0 10G16G09G05G04G30G27G08G11G07G28
 -11472349.34247  -8809073.25644  23062570.9924                   23062562.8914
        43.2504         26.5004
 -26311843.94248 -20490285.69649  20371425.6254                   20371420.0474
        48.2504         54.0004
  -2083215.02646  -1614686.31645  24577298.6024                   24577292.0004
        38.0004         32.7504
 -20101544.73347 -15566852.55445  21651418.6724                   21651413.1684
        45.5004         34.7504
 -11117527.69546  -8642885.48146  23456316.8674                   23456313.2424
        41.7504         38.5004
 -16186099.25147 -12588671.35247  21912144.6564                   21912139.6294
        46.5004         47.0004
 -17954758.54347 -13973310.47947  21664708.0554                   21664703.7424
        46.5004         47.5004
   -425108.38845   -283465.69742  25429166.4614                   25429162.5124
        35.5004         17.7504
 -20608233.76447 -15969426.94548  21507098.4924                   21507090.4614
        47.7504         48.5004
     53786.66446     71058.90243  24855985.5314                   24855978.2814
        37.2504         19.2504
 20  5 20  1 42  0.0000000  0 10G16G09G05G04G30G27G08G11G07G28
 -11369648.76247  -8729046.84544  23082113.9774                   23082106.1334
        43.2504         27.5004
 -26291716.45648 -20474601.96149  20375255.4774                   20375250.6094
        49.0004         54.0004
  -2116674.11246  -1640758.34445  24570932.6334                   24570925.4144
        39.0004         33.0004
 -20020340.67547 -15503576.70745  21666871.1954                   21666865.2624
        45.0004         35.2504
 -11197955.03947  -8705556.08346  23441013.2504                   23441008.3954
        43.0004         39.2504
 -16180884.51947 -12584607.93147  21913136.7344                   21913132.1134
        46.5004         47.0004
 -18010691.51047 -14016894.60647  21654064.5704                   21654060.3984
        45.7504         47.5004
   -514081.74346   -352795.58942  25412235.8984                   25412230.9024
        37.2504         17.7504
 -20657868.88248 -16008103.67048  21497652.9774                   21497645.4064
        48.2504         48.5004
    -45731.95445     -6488.11442  24837047.0004                   24837040.2814
        35.5004         16.7504
 20  5 20  1 42 30.0000000  0 10G16G09G05G04G30G27G08G11G07G28
 -11266794.45447  -8648900.67744  23101686.6094                   23101679.0984
        42.5004         25.2504
 -26271030.43248 -20458483.00449  20379191.9064                   20379186.6764
        49.2504         54.0004
  -2149605.12946  -1666418.90045  24564665.8054                   24564658.9654
        39.0004         33.5004
 -19938759.63047 -15440007.09245  21682395.5394                   21682389.9264
        45.2504         34.5004
 -11278314.44446  -8768173.76946  23425720.8364                   23425716.1094
        41.7504         38.7504
 -16175019.37747 -12580037.69047  21914253.0164                   21914248.3244
        46.7504         47.0004
 -18066105.67447 -14060074.46547  21643519.7504                   21643515.3754
        46.5004         47.7504
   -603140.18946   -422191.79142  25395287.9384                   25395283.0594
        37.5004         17.2504
 -20707342.57547 -16046654.60648  21488239.0394                   21488231.1484
        47.7504         48.7504
   -145115.04945    -83929.58142  24818135.2194                   24818129.1644
        34.5004         16.7504
 20  5 20  1 43  0.0000000  0 10G16G09G05G04G30G27G08G11G07G28
 -11163788.03647  -8568635.96344  23121288.0554                   23121280.1644
        42.5004         25.5004
 -26249785.34048 -20441928.39949  20383234.8754                   20383229.5864
        48.7504         54.0004
  -2182006.62246  -1691666.83945  24558500.2584                   24558493.3404
        40.0004         32.2504
 -19856802.65047 -15376144.54345  21697991.3594                   21697985.9494
        45.2504         34.0004
 -11358604.80947  -8830737.67446  23410442.1954                   23410437.1254
        42.0004         38.0004
 -16168503.23847 -12574960.18447  21915492.9614                   21915488.3164
        46.2504         46.7504
 -18120998.49347 -14102848.09048  21633073.5234                   21633069.2584
        46.5004         48.0004
   -692280.58546   -491651.88542  25378325.3594                   25378320.4804
        37.5004         16.2504
 -20756653.60048 -16085078.78248  21478854.8914                   21478847.1994
        48.2504         48.7504
   -244360.77445   -161263.98342  24799250.0474                   24799244.0044
        34.7504         15.5004
 20  5 20  1 43 30.0000000  0 10G16G09G05G04G30G27G08G11G07G28
 -11060632.53647  -8488255.06544  23140917.9844                   23140910.0554
        42.5004         26.5004
 -26227981.72048 -20424938.57449  20387383.9064                   20387378.8634
        48.7504         54.0004
  -2213878.16146  -1716501.83245  24552434.9224                   24552427.9614
        39.7504         33.0004
 -19774471.83147 -15311990.68945  21713658.5394                   21713652.8404
        46.0004         34.0004
 -11438826.03447  -8893247.70046  23395175.9844                   23395171.4024
        42.0004         37.7504
 -16161336.55947 -12569375.76647  21916856.7034                   21916851.6094
        46.2504         46.7504
 -18175368.04947 -14145213.97148  21622727.5234                   21622723.4734
        46.7504         48.0004
   -781500.98146   -561174.26842  25361347.0554                   25361341.8524
        37.7504         17.2504
 -20805801.78948 -16123376.07848  21469502.9774                   21469494.9534
        48.0004         49.0004
   -343468.07245   -238490.47342  24780389.8204                   24780384.4734
        35.0004         13.7504
 20  5 20  1 44  0.0000000  0 10G16G09G05G04G30G27G08G11G07G28
 -10957330.19447  -8407759.79044  23160575.3754                   23160568.3634
        42.5004         26.7504
 -26205619.66348 -20407513.61849  20391639.5004                   20391633.7974
        49.0004         54.0004
  -2245218.75246  -1740923.08845  24546470.9384                   24546463.9384
        38.7504         32.5004
 -19691768.82947 -15247546.82545  21729396.3364                   21729390.5204
        45.2504         33.5004
 -11518977.42946  -8955703.29046  23379923.7424                   23379919.3364
        41.5004         38.2504
 -16153519.43647 -12563284.50647  21918344.2504                   21918339.4964
        45.5004         46.7504
 -18229211.74047 -14187170.08148  21612481.4224                   21612477.4454
        46.5004         48.0004
   -870798.60546   -630756.77843  25344355.3204                   25344349.5634
        39.0004         19.5004
 -20854785.99247 -16161545.58748  21460181.0944                   21460173.4344
        47.5004         49.0004
   -442435.493 5                  24761556.305
        34.000
 20  5 20  1 44 30.0000000  0 10G16G09G05G04G30G27G08G11G07G28
 -10853882.99047  -8327151.61844  23180260.5474                   23180253.6484
        42.0004         26.2504
 -26182699.00348 -20389653.38148  20396000.8984                   20395996.0044
        49.0004         53.7504
  -2276027.72046  -1764930.08345  24540607.9844                   24540601.1604
        39.2504         32.2504
 -19608695.02047 -15182814.02545  21745205.5634                   21745199.2074
        45.7504         34.0004
 -11599058.26347  -9018103.91846  23364685.2584                   23364680.6884
        42.5004         38.7504
 -16145051.63547 -12556686.21247  21919955.3134                   21919950.7704
        46.2504         46.7504
 -18282527.25247 -14228714.62147  21602335.6484                   21602332.0084
        46.0004         47.7504
   -960170.53746   -700397.26742  25327347.8364                   25327343.1334
        36.0004         14.7504
 -20903605.31347 -16199586.62948  21450890.7194                   21450883.6564
        47.7504         48.7504
   -541261.322 5                  24742750.797
        35.500
 20  5 20  1 45  0.0000000  0 10G16G09G05G04G30G27G08G11G07G28
 -10750294.17547  -8246433.09144  23199972.9614                   23199965.8594
        42.2504         25.0004
 -26159220.31648 -20371358.31649  20400468.7194                   20400463.7114
        49.0004         54.0004
  -2306304.42246  -1788522.32845  24534845.2974                   24534840.4384
        38.7504         32.2504
 -19525252.50147 -15117793.91245  21761083.6484                   21761078.2584
        45.7504         34.0004
 -11679068.32247  -9080449.39746  23349459.8594                   23349454.9844
        42.0004         39.0004
 -16135933.66947 -12549581.30847  21921690.9844                   21921686.0004
        46.2504         46.7504
 -18335312.75047 -14269846.17347  21592291.0634                   21592286.9414
        45.5004         47.7504
  -1049614.572 6                  25310327.367
        38.000
 -20952259.58247 -16237499.05348  21441632.4844                   21441624.6454
        47.0004         48.7504
   -639944.21246   -374835.03652  24723973.0084                   24723965.8134
        36.0004         16.7504
 20  5 20  1 45 30.0000000  0 10G16G09G05G04G30G27G08G11G07G28
 -10646565.98147  -8165605.96844  23219711.7194                   23219704.4844
        42.7504         25.5004
 -26135183.68748 -20352628.49148  20405043.0004                   20405037.8594
        48.7504         53.7504
  -2336048.22646  -1811699.30545  24529187.7664                   24529179.1764
        40.2504         32.2504
 -19441442.90047 -15052487.77045  21777031.7894                   21777026.3914
        44.5004         34.0004
 -11759006.99047  -9142739.24546  23334248.3524                   23334243.5824
        42.2504         39.0004
 -16126165.65347 -12541969.86647  21923549.6334                   21923544.7624
        46.7504         47.0004
 -18387565.59847 -14310562.66047  21582347.6094                   21582343.5004
        46.7504         47.7504
  -1139128.12345   -808159.81353  25293292.2114                   25293287.1024
        35.5004         18.5004
 -21000748.06147 -16275282.28548  21432405.5554                   21432397.5314
        47.7504         48.7504
   -738483.04345   -451618.63842  24705221.1724                   24705215.2194
        35.2504         17.2504
 20  5 20  1 46  0.0000000  0 10G16G09G05G04G30G27G08G11G07G28
 -10542700.35147  -8084671.75644  23239476.8914                   23239469.6414
        42.0004         24.5004
 -26110589.09448 -20333463.88148  20409723.1024                   20409718.0164
        48.0004         53.7504
  -2365257.78146  -1834460.03645  24523628.8444                   24523621.3984
        39.7504         32.0004
 -19357267.70347 -14986896.74145  21793050.4614                   21793044.7344
        45.5004         33.5004
 -11838873.45746  -9204972.85646  23319049.6334                   23319045.0514
        41.2504         39.0004
 -16115747.52047 -12533851.84347  21925531.9454                   21925527.0744
        46.0004         46.7504
 -18439284.14747 -14350862.82648  21572505.6024                   21572501.9384
        46.2504         48.0004
  -1228708.10245   -877962.39142  25276245.4384                   25276241.7584
        33.5004         16.7504
 -21049069.70648 -16312935.52448  21423210.2424                   21423202.4184
        48.0004         48.7504
   -836876.25045   -528288.70142  24686497.5004                   24686492.1844
        35.2504         17.2504
 20  5 20  1 46 30.0000000  0 10G16G09G05G04G30G27G08G11G07G28
 -10438699.56446  -8003632.21943  23259268.0554                   23259260.4494
        41.5004         22.5004
 -26085436.69948 -20313864.62548  20414509.3834                   20414504.4734
        48.0004         53.7504
  -2393932.64746  -1856804.09045  24518171.7664                   24518164.6214
        39.7504         32.0004
 -19272728.58747 -14921022.14445  21809137.2814                   21809131.8364
        45.2504         34.0004
 -11918667.15447  -9267149.73546  23303865.4534                   23303860.8364
        42.0004         39.0004
 -16104679.44447 -12525227.36047  21927638.0944                   21927633.5864
        46.2504         46.5004
 -18490465.37147 -14390744.28948  21562766.1884                   21562761.9184
        45.5004         48.0004
  -1318351.62755   -947814.37852  25259187.4614                   25259183.0394
        35.5004         16.2504
 -21097223.51447 -16350457.99048  21414046.9384                   21414038.9344
        47.0004         48.7504
   -935122.39545   -604844.12643  24667802.4694                   24667796.5594
        35.5004         18.2504
 20  5 20  1 47  0.0000000  0 10G16G09G05G04G30G27G08G11G07G28
 -10334566.70347  -7922489.79344  23279084.2814                   23279076.0744
        42.0004         24.0004
 -26059727.14748 -20293831.22148  20419402.0004                   20419396.5084
        48.2504         53.5004
  -2422072.16846  -1878730.98945  24512817.8444                   24512809.7854
        40.2504         32.0004
 -19187827.65747 -14854865.61245  21825293.3444                   21825288.1604
        45.5004         34.0004
 -11998387.78047  -9329269.68746  23288694.9614                   23288690.7234
        42.0004         40.2504
 -16092962.05147 -12516096.92247  21929867.8284                   21929863.1054
        46.0004         46.7504
 -18541107.78047 -14430205.90148  21553129.3204                   21553125.1294
        46.5004         48.0004
  -1408056.77346  -1017714.45042  25242117.1644                   25242112.6524
        36.5004         17.2504
 -21145209.05648 -16387849.32048  21404915.1954                   21404907.8204
        48.0004         49.0004
  -1033220.05046   -681283.92142  24649134.6644                   24649127.9534
        37.0004         16.7504
 20  5 20  1 47 30.0000000  0 10G16G09G05G04G30G27G08G11G07G28
 -10230304.13046  -7841246.24444  23298923.7734                   23298916.5084
        41.5004         24.0004
 -26033460.96948 -20273364.08948  20424400.2034                   20424394.6024
        48.2504         53.7504
  -2449676.40746  -1900240.80445  24507564.2664                   24507557.2774
        39.7504         32.5004
 -19102566.90347 -14788428.69945  21841517.9534                   21841512.7734
        45.0004         34.0004
 -12078035.01946  -9391332.44546  23273538.5004                   23273534.0554
        41.7504         39.2504
 -16080595.81347 -12506460.89647  21932221.3364                   21932216.5044
        45.7504         46.5004
 -18591209.58447 -14469246.25248  21543595.4064                   21543591.5904
        46.0004         48.0004
  -1497820.61546  -1087660.29343  25225036.7344                   25225030.2384
        37.7504         20.2504
 -21193026.20448 -16425109.43848  21395816.4614                   21395808.3244
        48.2504         49.0004
  -1131168.29946   -757607.32742  24630495.7344                   24630490.0394
        36.7504         17.2504
 20  5 20  1 48  0.0000000  0 10G16G09G05G04G30G27G08G11G07G28
 -10125913.95846  -7759903.29944  23318789.4924                   23318781.1334
        41.5004         25.0004
 -26006638.11648 -20252463.18948  20429504.3754                   20429499.1214
        48.7504         53.7504
  -2476744.50246  -1921332.84345  24502413.1334                   24502405.9144
        40.0004         32.7504
 -19016947.84547 -14721712.59245  21857811.0784                   21857804.9924
        45.0004         34.0004
 -12157608.08446  -9453337.40946  23258395.9534                   23258391.6994
        41.0004         39.5004
 -16067580.86547 -12496319.36747  21934697.8524                   21934692.7504
        46.0004         46.5004
 -18640768.70047 -14507863.73948  21534164.5234                   21534160.6484
        46.5004         48.0004
  -1587640.59946  -1157649.81943  25207944.0704                   25207938.7114
        38.2504         21.0004
 -21240673.70847 -16462237.37448  21386749.0314                   21386741.6454
        47.2504         49.0004
  -1228965.65245   -833813.06742  24611885.3284                   24611879.9844
        35.0004         17.2504
 20  5 20  1 48 30.0000000  0 10G16G09G05G04G30G27G08G11G07G28
 -10021399.48646  -7678463.46244  23338677.1804                   23338669.4184
        41.5004         24.0004
 -25979259.76448 -20231129.42449  20434714.3834                   20434709.1994
        48.2504         54.0004
  -2503276.45846  -1942007.09945  24497365.1334                   24497357.0944
        40.2504         32.5004
 -18930973.01547 -14654719.25345  21874171.3834                   21874165.6454
        45.0004         33.7504
 -12237107.13547  -9515284.69246  23243267.7034                   23243264.0784
        42.0004         39.5004
 -16053918.23847 -12485673.16847  21937297.6094                   21937292.9614
        46.5004         46.5004
 -18689783.42447 -14546057.02448  21524837.3834                   21524833.1804
        46.5004         48.2504
  -1677514.66346  -1227681.51143  25190841.3134                   25190836.1994
        38.7504         19.7504
 -21288151.44948 -16499233.01248  21377714.7424                   21377706.9304
        48.0004         49.2504
  -1326611.20946   -909900.57542  24593303.9614                   24593298.6334
        36.2504         17.2504
 20  5 20  1 49  0.0000000  0 10G16G09G05G04G30G27G08G11G07G28
  -9916759.59246  -7596925.92744  23358589.9144                   23358582.3364
        41.5004         24.5004
 -25951322.75848 -20209360.35149  20440030.4224                   20440025.4884
        48.2504         54.0004
  -2529268.17046  -1962260.40345  24492418.3444                   24492410.7934
        40.7504         33.0004
 -18844640.73547 -14587447.38845  21890599.7814                   21890594.1484
        45.0004         33.5004
 -12316528.08047  -9577171.12946  23228155.4144                   23228150.6724
        42.0004         39.5004
 -16039604.86347 -12474519.89647  21940021.2504                   21940016.3634
        45.0004         46.5004
 -18738248.20447 -14583821.77848  21515614.7424                   21515610.5274
        46.5004         48.2504
  -1767437.00446  -1297750.84143  25173730.1094                   25173724.5274
        39.5004         21.5004
 -21335455.21247 -16536093.08948  21368712.5234                   21368705.1804
        47.0004         49.0004
  -1424100.35546   -985866.15942  24574752.3984                   24574746.8014
        36.2504         16.7504
 20  5 20  1 49 30.0000000  0 10G16G09G05G04G30G27G08G11G07G28
  -9812000.23546  -7515295.31443  23378524.8364                   23378517.3524
        40.7504         22.7504
 -25922831.35148 -20187159.26248  20445452.1724                   20445447.1484
        48.2504         53.7504
  -2554722.55246  -1982095.00345  24487574.7114                   24487567.1174
        40.2504         33.0004
 -18757956.74647 -14519901.46445  21907095.3054                   21907090.0004
        44.2504         34.0004
 -12395874.23547  -9638999.28446  23213055.3834                   23213051.4144
        42.0004         39.5004
 -16024645.11147 -12462862.94747  21942868.0474                   21942863.2854
        46.2504         46.5004
 -18786165.20547 -14621159.70148  21506496.2034                   21506492.3634
        47.7504         48.2504
  -1857408.27746  -1367858.22743  25156607.6254                   25156603.9614
        38.2504         19.7504
 -21382588.37647 -16572820.23648  21359743.4064                   21359735.9414
        47.2504         49.2504
  -1521435.60946  -1061711.86042  24556229.8984                   24556224.7464
        36.0004         15.5004
 20  5 20  1 50  0.0000000  0 10G16G09G05G04G30G27G08G11G07G28
  -9707122.24146  -7433572.23944  23398482.1094                   23398475.0744
        41.2504         25.5004
 -25893784.44748 -20164525.32448  20450979.7034                   20450974.6334
        48.5004         53.7504
  -2579637.93246  -2001509.59845  24482832.6414                   24482826.2894
        40.0004         34.0004
 -18670921.36947 -14452081.73145  21923657.4304                   21923652.4844
        44.5004         33.2504
 -12475143.52547  -9700767.54846  23197971.7584                   23197966.6484
        42.7504         40.0004
 -16009037.82147 -12450701.41147  21945838.2424                   21945833.7504
        45.7504         46.5004
 -18833530.70847 -14658067.87548  21497483.1564                   21497478.8134
        46.5004         48.2504
  -1947424.62046  -1438000.74843  25139479.2974                   25139474.0474
        38.5004         19.7504
 -21429548.35047 -16609412.43248  21350807.6174                   21350799.9494
        47.5004         49.2504
  -1618614.20945  -1137435.49842  24537738.3284                   24537732.8594
        35.2504         16.2504
 20  5 20  1 50 30.0000000  0 10G16G09G05G04G30G27G08G11G07G28
  -9602128.46146  -7351758.93044  23418462.6334                   23418455.3874
        41.2504         25.2504
 -25864182.63948 -20141458.99448  20456612.8134                   20456607.6454
        48.2504         53.5004
  -2604014.41346  -2020504.25445  24478195.2814                   24478187.2894
        41.2504         32.5004
 -18583536.54947 -14383989.71545  21940286.2504                   21940280.9344
        44.7504         33.5004
 -12554335.52647  -9762475.59746  23182901.8054                   23182897.1024
        42.2504         39.2504
 -15992783.67247 -12438035.83547  21948931.7664                   21948926.3874
        45.7504         46.5004
 -18880342.98447 -14694544.96748  21488574.9614                   21488570.6564
        47.2504         48.5004
  -2037483.48246  -1508176.52343  25122342.0314                   25122336.2154
        38.5004         19.5004
 -21476334.57947 -16645869.23048  21341904.2034                   21341896.9494
        47.2504         49.5004
  -1715634.44946  -1213035.66242  24519276.3594                   24519269.5704
        38.2504         16.7504
 20  5 20  1 51  0.0000000  0 10G16G09G05G04G30G27G08G11G07G28
  -9497021.10446  -7269857.14643  23438463.7894                   23438456.3404
        41.0004         22.5004
 -25834026.46248 -20117960.68648  20462351.1024                   20462345.7544
        48.5004         53.5004
  -2627851.29746  -2039078.49145  24473658.4224                   24473651.7544
        39.5004         33.5004
 -18495804.22347 -14315626.90945  21956981.3984                   21956975.7704
        45.0004         33.5004
 -12633449.79447  -9824123.05946  23167846.6484                   23167841.8014
        42.0004         39.5004
 -15975883.28047 -12424866.69447  21952146.9534                   21952142.3674
        46.2504         46.2504
 -18926599.59647 -14730589.07748  21479773.0084                   21479768.4064
        47.0004         48.5004
  -2127582.18946  -1578383.21643  25105197.0314                   25105191.3444
        38.2504         18.5004
 -21522946.60647 -16682190.29348  21333034.1564                   21333026.7344
        47.7504         49.5004
  -1812495.42246  -1288511.82242  24500843.7424                   24500836.5984
        37.2504         15.5004
 20  5 20  1 51 30.0000000  0 10G16G09G05G04G30G27G08G11G07G28
  -9391801.99246  -7187868.26943  23458485.5474                   23458478.6024
        41.5004         23.0004
 -25803316.14848 -20094030.58948  20468195.4384                   20468190.2854
        48.5004         53.5004
  -2651147.92846  -2057231.76245  24469225.5634                   24469218.1414
        40.0004         32.5004
 -18407726.06747 -14246994.62345  21973742.4534                   21973736.7424
        45.0004         34.0004
 -12712485.40347  -9885709.23246  23152806.7584                   23152801.9964
        42.7504         40.2504
 -15958336.91747 -12411194.20247  21955486.3054                   21955481.2774
        46.5004         46.2504
 -18972299.45147 -14766199.34648  21471076.5234                   21471072.3954
        47.0004         48.5004
  -2217717.70746  -1648618.64642  25088043.7664                   25088038.9774
        37.0004         16.7504
 -21569383.17347 -16718374.62548  21324198.1884                   21324190.2584
        47.5004         49.2504
  -1909195.65446  -1363862.68842  24482441.9614                   24482436.1644
        36.2504         16.7504
 20  5 20  1 52  0.0000000  0 10G16G09G05G04G30G27G08G11G07G28
  -9286473.98146  -7105794.52244  23478529.0634                   23478521.7584
        41.7504         25.0004
 -25772052.13148 -20069669.03848  20474144.5234                   20474139.6954
        48.2504         53.5004
  -2673903.93046  -2074963.76445  24464894.9844                   24464888.0634
        39.5004         32.0004
 -18319303.84847 -14178094.24645  21990568.7344                   21990562.9694
        45.2504         33.7504
 -12791441.76447  -9947233.65946  23137782.2664                   23137777.1054
        42.2504         40.0004
 -15940145.15547 -12397018.79547  21958948.1174                   21958942.9064
        46.2504         46.2504
 -19017439.97047 -14801373.76848  21462486.4534                   21462481.9344
        47.0004         48.5004
  -2307887.57846  -1718880.87542  25070884.9224                   25070880.0864
        36.5004         17.7504
 -21615643.81547 -16754421.88348  21315394.6024                   21315387.1214
        47.7504         49.5004
  -2005733.66746  -1439087.14543  24464072.1484                   24464064.9064
        38.0004         18.5004
 20  5 20  1 52 30.0000000  0 10G16G09G05G04G30G27G08G11G07G28
  -9181038.95646  -7023637.40544  23498592.9774                   23498585.3364
        40.7504         24.0004
 -25740234.91148 -20044876.41848  20480199.2584                   20480193.8134
        48.0004         53.5004
  -2696118.71046  -2092273.99045  24460667.5474                   24460660.3634
        39.2504         33.0004
 -18230539.46947 -14108927.22345  22007459.4774                   22007454.1804
        45.0004         33.5004
 -12870318.20347 -10008695.80346  23122771.8594                   23122767.6054
        42.7504         40.0004
 -15921308.51947 -12382340.89747  21962532.3364                   21962527.3874
        46.5004         46.5004
 -19062019.34147 -14836110.93248  21454002.7894                   21453999.1764
        47.0004         48.5004
  -2398088.80945  -1789167.42842  25053719.5084                   25053715.5744
        35.0004         16.2504
 -21661727.34548 -16790331.11848  21306625.3134                   21306617.7034
        48.2504         49.2504
  -2102108.31846  -1514184.33743  24445732.7584                   24445726.0274
        37.5004         18.2504
 20  5 20  1 53  0.0000000  0 10G16G09G05G04G30G27G08G11G07G28
  -9075498.88146  -6941398.43243  23518677.0394                   23518668.7584
        41.5004         22.0004
 -25707864.56648 -20019652.79448  20486359.1174                   20486354.0824
        48.5004         53.5004
  -2717791.31347  -2109161.72645  24456543.9844                   24456536.4574
        42.0004         33.2504
 -18141434.29447 -14039494.64445  22024415.7194                   22024410.4534
        44.5004         33.2504
 -12949113.67847 -10070094.85246  23107777.9144                   23107773.2664
        42.5004         40.2504
 -15901827.16347 -12367160.61947  21966240.0084                   21966234.7664
        46.2504         46.2504
 -19106035.14147 -14870408.94448  21445627.0474                   21445622.7974
        47.0004         48.5004
  -2488318.39646  -1859476.20542  25036549.1254                   25036544.5314
        36.0004         16.7504
 -21707632.49248 -16826101.36648  21297889.7424                   21297882.4804
        48.5004         49.5004
  -2198317.80146  -1589152.76443  24427424.5474                   24427418.2234
        37.0004         18.5004
 20  5 20  1 53 30.0000000  0 10G16G09G05G04G30G27G08G11G07G28
  -8969856.53846  -6859079.74643  23538779.6564                   23538772.0514
        40.5004         22.7504
 -25674942.16448 -19993998.99048  20492623.9844                   20492618.8554
        48.7504         53.5004
  -2738922.19146  -2125627.34245  24452522.0164                   24452515.3014
        41.0004         32.2504
 -18051990.81547 -13969798.47745  22041436.3754                   22041430.7584
        45.2504         33.0004
 -13027828.10047 -10131430.75146  23092798.9144                   23092794.5004
        43.2504         40.5004
 -15881702.32447 -12351478.92047  21970069.3754                   21970064.4614
        45.5004         46.2504
 -19149486.03747 -14904266.78148  21437358.2274                   21437354.8244
        46.0004         48.5004
  -2578573.78145  -1929804.91742  25019373.5554                   25019369.8484
        34.5004         17.2504
 -21753359.24247 -16861732.59148  21289188.6724                   21289181.1334
        47.0004         49.5004
  -2294361.09146  -1663991.73543  24409147.6644                   24409141.4264
        38.0004         18.5004
 20  5 20  1 54  0.0000000  0 10G16G09G05G04G30G27G08G11G07G28
  -8864114.64846  -6776683.48843  23558900.8984                   23558893.6644
        40.5004         22.7504
 -25641468.81548 -19967915.87248  20498993.9144                   20498988.9654
        48.5004         53.5004
  -2759511.20546  -2141670.72645  24448604.3364                   24448597.6484
        38.7504         32.2504
 -17962211.48547 -13899840.59745  22058521.2424                   22058515.8094
        44.7504         33.5004
 -13106461.37847 -10192703.41846  23077835.6094                   23077831.1294
        42.7504         40.2504
 -15860935.18747 -12335296.73847  21974020.9694                   21974016.1454
        45.5004         46.2504
 -19192370.95847 -14937683.59948  21429197.8364                   21429193.9654
        46.5004         48.5004
  -2668853.07046  -2000152.45942  25002195.5474                   25002188.3954
        39.0004         16.7504
 -21798907.12648 -16897224.45648  21280520.5944                   21280513.0634
        48.0004         49.5004
  -2390237.77646  -1738700.88042  24390903.4614                   24390896.5124
        36.5004         17.2504
 20  5 20  1 54 30.0000000  0 10G16G09G05G04G30G27G08G11G07G28
  -8758275.80246  -6694211.72343  23579042.7114                   23579034.7894
        41.0004         22.7504
 -25607445.66348 -19941404.34048  20505468.1564                   20505463.2894
        48.7504         53.5004
  -2779558.91046  -2157292.32245  24444789.5704                   24444783.1604
        39.2504         33.0004
 -17872098.69447 -13829622.87445  22075669.0234                   22075663.0514
        45.0004         33.2504
 -13185013.37747 -10253912.75746  23062887.0314                   23062882.5274
        42.5004         40.2504
 -15839526.95647 -12318615.00347  21978095.1174                   21978090.1414
        46.5004         46.0004
 -19234688.67747 -14970658.43248  21421145.1804                   21421141.1954
        46.5004         48.5004
  -2759154.08146  -2070516.86743  24985011.3524                   24985004.8594
        38.7504         20.0004
 -21844275.81548 -16932576.68348  21271887.3364                   21271879.6484
        48.2504         49.2504
  -2485947.15846  -1813279.64343  24372690.5234                   24372683.5044
        37.0004         18.5004
 20  5 20  1 55  0.0000000  0 10G16G09G05G04G30G27G08G11G07G28
  -8652339.28346  -6611663.79443  23599200.9454                   23599194.1604
        40.0004         22.7504
 -25572869.95748 -19914462.25348  20512047.8674                   20512042.5864
        49.0004         53.5004
  -2799061.51646  -2172489.17545  24441077.7424                   24441071.2234
        38.5004         33.2504
 -17781651.02647 -13759144.20445  22092880.4304                   22092874.8554
        44.5004         32.2504
 -13263480.17447 -10315055.70546  23047955.8984                   23047950.9304
        42.5004         40.5004
 -15817475.04747 -12301431.69847  21982290.9144                   21982286.3674
        46.0004         46.2504
 -19276433.99547 -15003187.24348  21413201.0864                   21413197.1024
        46.2504         48.5004
  -2849470.64346  -2140893.36543  24967826.3984                   24967819.1094
        41.5004         22.0004
 -21889461.22047 -16967786.09748  21263289.1334                   21263281.4104
        47.0004         49.5004
  -2581484.40746  -1887724.26743  24354510.0474                   24354503.8874
        36.7504         18.2504
 20  5 20  1 55 30.0000000  0 10G16G09G05G04G30G27G08G11G07G28
  -8546310.90946  -6529044.35343  23619377.7424                   23619370.5354
        40.5004         22.5004
 -25537746.03648 -19887092.98248  20518731.4924                   20518726.5084
        49.0004         53.5004
  -2818022.62546  -2187264.04945  24437470.5004                   24437463.5354
        39.5004         33.7504
 -17690874.12947 -13688408.99345  22110154.8524                   22110149.4494
        44.5004         33.0004
 -13341864.76847 -10376134.59546  23033039.5164                   23033034.9414
        42.5004         40.0004
 -15794783.91847 -12283750.30347  21986609.1954                   21986604.2544
        46.0004         46.0004
 -19317608.86147 -15035271.54148  21405366.0394                   21405361.6954
        46.2504         48.5004
  -2939803.37446  -2211282.50743  24950636.0474                   24950630.3404
        40.0004         22.2504
 -21934466.27747 -17002854.97148  21254724.7274                   21254717.1994
        47.5004         49.5004
  -2676851.83246  -1962036.59043  24336362.0084                   24336356.4184
        36.5004         19.2504
 20  5 20  1 56  0.0000000  0 10G16G09G05G04G30G27G08G11G07G28
  -8440191.03246  -6446353.58543  23639571.6954                   23639564.3794
        41.2504         23.0004
 -25502072.63548 -19859295.54448  20525519.9384                   20525515.0744
        49.2504         53.2504
  -2836439.88346  -2201615.16745  24433964.2734                   24433958.4384
        39.2504         34.0004
 -17599768.02947 -13617417.26145  22127491.5394                   22127486.3164
        45.2504         33.5004
 -13420164.60947 -10437147.45646  23018139.8524                   23018135.1454
        42.5004         40.0004
 -15771452.43047 -12265569.92447  21991049.0864                   21991044.5124
        46.0004         46.0004
 -19358209.61347 -15066908.49048  21397639.9774                   21397636.3014
        46.7504         48.7504
  -3030148.02446  -2281680.89743  24933443.2734                   24933438.7034
        38.0004         22.5004
 -21979288.36347 -17037781.27348  21246195.3054                   21246188.0514
        47.7504         49.5004
  -2772046.35146  -2036214.13043  24318247.3284                   24318241.7274
        36.5004         18.2504
 20  5 20  1 56 30.0000000  0 10G16G09G05G04G30G27G08G11G07G28
  -8333981.44946  -6363592.89743  23659783.0084                   23659775.7464
        41.0004         22.0004
 -25465850.11248 -19831070.21948  20532413.0704                   20532408.1054
        50.0004         53.5004
  -2854312.61046  -2215541.96545  24430563.5084                   24430557.7274
        39.2504         32.7504
 -17508334.29247 -13546170.23745  22144891.4454                   22144885.6414
        45.0004         33.0004
 -13498378.71647 -10498093.49646  23003256.0634                   23003251.5474
        42.5004         40.7504
 -15747481.07947 -12246890.95947  21995610.4454                   21995605.8484
        46.0004         46.0004
 -19398234.09247 -15098096.39148  21390023.2894                   21390019.1644
        47.0004         48.7504
  -3120501.31146  -2352085.99043  24916248.9844                   24916244.8874
        36.7504         21.5004
 -22023925.91548 -17072563.78748  21237701.0314                   21237693.5704
        48.5004         49.5004
  -2867066.36846  -2110255.70842  24300165.4924                   24300159.7974
        37.2504         16.7504
 20  5 20  1 57  0.0000000  0 10G16G09G05G04G30G27G08G11G07G28
  -8227685.11146  -6280764.63143  23680009.4694                   23680002.8404
        41.0004         22.0004
 -25429080.16348 -19802418.33248  20539410.1484                   20539404.8554
        49.7504         53.5004
  -2871641.75746  -2229045.22145  24427266.6094                   24427259.9614
        38.7504         33.2504
 -17416575.91847 -13474670.24045  22162352.2974                   22162346.8754
        44.5004         32.0004
 -13576507.46747 -10558973.03046  22988388.6334                   22988383.8634
        43.5004         40.7504
 -15722871.71447 -12227714.83547  22000293.6334                   22000288.7344
        46.0004         46.0004
 -19437681.69047 -15128834.77048  21382516.7814                   21382512.8984
        47.5004         49.0004
  -3210861.29045  -2422496.29343  24899053.3364                   24899050.5394
        34.5004         19.5004
 -22068379.11747 -17107202.65748  21229242.0084                   21229234.4924
        47.2504         49.5004
  -2961911.58646  -2184161.11343  24282117.4844                   24282111.1844
        37.5004         18.5004
 20  5 20  1 57 30.0000000  0 10G16G09G05G04G30G27G08G11G07G28
  -8121303.81946  -6197870.15043  23700254.3444                   23700247.0864
        41.2504         21.5004
 -25391762.77848 -19773339.87048  20546511.1174                   20546506.3634
        48.7504         53.2504
  -2888426.82546  -2242124.48745  24424072.2894                   24424066.0434
        40.0004         33.2504
 -17324494.16047 -13402918.25445  22179875.1094                   22179869.7154
        45.2504         32.5004
 -13654549.41347 -10619784.91946  22973537.7584                   22973533.0824
        43.5004         41.0004
 -15697624.49247 -12208041.67847  22005098.6414                   22005093.2894
        45.7504         46.0004
 -19476550.12747 -15159121.85548  21375120.4924                   21375116.4884
        47.5004         49.0004
  -3301224.82246  -2492909.32542  24881859.3674                   24881854.3984
        38.5004         17.2504
 -22112646.64347 -17141696.83148  21220818.2114                   21220810.5124
        47.7504         49.5004
  -3056580.19846  -2257928.84943  24264103.0004                   24264095.8714
        38.0004         19.0004
 20  5 20  1 58  0.0000000  0 10G16G09G05G04G30G27G08G11G07G28
  -8014841.05346  -6114912.20943  23720512.6954                   23720505.8134
        40.0004         22.5004
 -25353900.00848 -19743836.44048  20553716.4774                   20553711.6174
        49.0004         53.2504
  -2904668.29246  -2254780.19145  24420982.0234                   24420975.5164
        38.5004         33.5004
 -17232092.25147 -13330916.79745  22197458.0164                   22197452.7074
        44.7504         33.0004
 -13732505.16247 -10680529.64146  22958703.4694                   22958698.6954
        44.0004         41.7504
 -15671741.58447 -12187873.19747  22010023.9694                   22010018.8674
        45.5004         46.0004
 -19514838.99147 -15188957.32748  21367834.2194                   21367830.0864
        47.5004         49.0004
  -3391589.81046  -2563323.68743  24864663.0704                   24864656.8444
        37.5004         19.2504
 -22156728.80048 -17176046.56448  21212429.6414                   21212421.9414
        48.0004         49.5004
  -3151072.27746  -2331559.03143  24246121.6724                   24246114.5044
        36.7504         18.5004
 20  5 20  1 58 30.0000000  0 10G16G09G05G04G30G27G08G11G07G28
  -7908297.04446  -6031890.91943  23740786.2344                   23740780.3714
        39.7504         21.0004
 -25315490.93748 -19713907.30848  20561025.5784                   20561020.7154
        49.2504         53.2504
  -2920365.13446  -2267011.50345  24417994.9454                   24417988.2074
        39.7504         33.7504
 -17139370.53347 -13258666.13445  22215102.6174                   22215097.2704
        44.7504         32.2504
 -13810372.44647 -10741205.42046  22943885.6954                   22943881.1994
        43.0004         41.7504
 -15645222.26147 -12167208.79247  22015070.1094                   22015065.0554
        45.7504         46.0004
 -19552545.16347 -15218338.74948  21360659.1804                   21360655.2234
        47.5004         49.0004
  -3481952.38446  -2633736.02742  24847467.5634                   24847461.2894
        38.2504         17.2504
 -22200623.21947 -17210250.00348  21204076.8674                   21204069.2894
        47.5004         49.5004
  -3245384.59946  -2405049.17643  24228174.5084                   24228167.3794
        37.7504         19.5004
 20  5 20  1 59  0.0000000  0 10G16G09G05G04G30G27G08G11G07G28
  -7801675.53346  -5948809.28943  23761076.7194                   23761070.1134
        39.7504         21.0004
 -25276537.56148 -19683554.04848  20568438.4064                   20568433.0434
        49.5004         53.2504
  -2935517.65246  -2278818.66245  24415111.5864                   24415104.7624
        39.5004         33.5004
 -17046332.19547 -13186168.76945  22232807.0704                   22232801.4964
        44.2504         32.0004
 -13888151.73847 -10801812.64546  22929085.0164                   22929080.2194
        43.0004         41.5004
 -15618068.64547 -12146050.12947  22020237.2504                   22020232.1724
        45.2504         46.0004
 -19589667.93347 -15247265.57448  21353595.4144                   21353590.7704
        47.5004         49.0004
  -3572310.39746  -2704144.85743  24830273.8754                   24830266.9774
        39.7504         18.5004
 -22244329.95947 -17244307.20448  21195759.8674                   21195752.0514
        47.5004         49.5004
  -3339517.30746  -2478399.30243  24210261.4774                   24210255.1214
        36.7504         18.5004
 20  5 20  1 59 30.0000000  0 10G16G09G05G04G30G27G08G11G07G28
  -7694978.08346  -5865668.45443  23781380.9454                   23781374.2934
        40.7504         22.2504
 -25237040.31248 -19652776.98348  20575954.3134                   20575949.1134
        49.5004         53.2504
  -2950126.03946  -2290201.83345  24412331.1564                   24412325.3284
        39.7504         34.7504
 -16952978.89847 -13113425.97845  22250571.4384                   22250566.4454
        45.2504         32.2504
 -13965841.97147 -10862350.46946  22914300.7344                   22914296.0164
        42.7504         41.5004
 -15590281.41847 -12124397.75647  22025524.8364                   22025520.2814
        45.0004         46.0004
 -19626205.85347 -15275736.67848  21346641.6884                   21346637.5904
        47.0004         49.0004
  -3662661.04146  -2774547.98143  24813080.3444                   24813074.2664
        39.5004         19.7504
 -22287848.10047 -17278217.44948  21187478.3914                   21187471.2504
        47.5004         49.5004
  -3433468.78846  -2551608.28943  24192382.6414                   24192376.3404
        37.0004         18.5004
 20  5 20  2  0  0.0000000  0 10G16G09G05G04G30G27G08G11G07G28
  -7588206.32146  -5782469.71743  23801699.0864                   23801692.4654
        39.7504         22.2504
 -25196999.41148 -19621576.30548  20583573.5474                   20583568.3754
        49.2504         53.2504
  -2964189.14146  -2301160.09845  24409656.1724                   24409649.1374
        40.5004         34.0004
 -16859312.02447 -13040438.84845  22268396.0784                   22268390.6684
        44.7504         32.5004
 -14043441.87847 -10922817.91046  22899534.2894                   22899529.1994
        43.0004         41.0004
 -15561860.97247 -12102251.96047  22030932.8834                   22030927.9024
        45.0004         45.7504
 -19662156.55947 -15303750.21048  21339800.5634                   21339796.6174
        46.5004         49.0004
  -3753000.94946  -2844942.72643  24795889.1024                   24795882.4804
        40.0004         19.2504
 -22331175.95347 -17311979.42148  21179233.3914                   21179225.9734
        47.7504         49.7504
  -3527237.59446  -2624674.88543  24174539.3594                   24174533.8284
        37.0004         19.0004
 20  5 20  2  0 30.0000000  0 10G16G09G05G04G30G27G08G11G07G28
  -7481362.84246  -5699215.08343  23822031.5004                   23822023.9264
        40.7504         21.7504
 -25156416.15548 -19589953.00748  20591296.5474                   20591291.4774
        48.5004         53.0004
  -2977707.74846  -2311694.09545  24407082.5234                   24407076.6844
        39.7504         34.0004
 -16765334.04847 -12967209.29445  22286279.3834                   22286274.1994
        44.5004         32.2504
 -14120951.20647 -10983214.77146  22884784.3134                   22884779.8914
        43.2504         41.2504
 -15532808.76947 -12079613.88947  22036461.5944                   22036457.0394
        45.2504         46.0004
 -19697519.07347 -15331305.40448  21333071.3364                   21333067.2114
        47.2504         49.0004
  -3843327.63146  -2915327.21643  24778700.1254                   24778693.5234
        38.5004         19.5004
 -22374313.25147 -17345592.90348  21171024.5634                   21171017.1334
        46.7504         49.7504
  -3620822.78846  -2697598.42943  24156730.7814                   24156724.5434
        36.2504         18.5004
 20  5 20  2  1  0.0000000  0 10G16G09G05G04G30G27G08G11G07G28
  -7374449.36846  -5615905.94443  23842375.6564                   23842368.8914
        40.0004         22.0004
 -25115291.22048 -19557907.62148  20599122.3594                   20599116.9024
        49.0004         53.0004
  -2990681.48046  -2321803.50345  24404614.9614                   24404607.6454
        41.0004         34.5004
 -16671046.75847 -12893738.73745  22304221.8674                   22304216.9494
        44.7504         31.7504
 -14198369.03247 -11043540.32246  22870052.1024                   22870047.6024
        43.2504         41.5004
 -15503125.66447 -12056484.21347  22042110.0784                   22042105.2344
        45.5004         45.7504
 -19732291.60447 -15358400.88448  21326454.2114                   21326450.2934
        47.2504         49.2504
  -3933637.87746  -2985698.81343  24761515.6724                   24761508.6414
        39.0004         20.7504
 -22417258.59447 -17379056.80848  21162852.7114                   21162844.9104
        47.7504         50.0004
  -3714222.97146  -2770377.82243  24138957.6484                   24138950.8524
        37.5004         19.0004
 20  5 20  2  1 30.0000000  0 10G16G09G05G04G30G27G08G11G07G28
  -7267468.07946  -5532543.94343  23862733.3984                   23862727.2894
        40.0004         22.2504
 -25073625.52048 -19525440.86148  20607051.0704                   20607045.9064
        49.5004         53.2504
  -3003110.53746  -2331488.52245  24402249.5314                   24402242.7974
        40.0004         34.0004
 -16576452.25347 -12820028.77645  22322222.0314                   22322217.4264
        45.0004         31.5004
 -14275694.71547 -11103794.09346  22855337.4694                   22855333.0234
        43.7504         41.0004
 -15472812.82047 -12032863.82447  22047878.3754                   22047873.7774
        45.2504         45.7504
 -19766472.60047 -15385035.41748  21319950.1484                   21319946.0084
        46.7504         49.2504
  -4023928.84646  -3056055.33843  24744332.5314                   24744327.3484
        38.2504         21.7504
 -22460011.27847 -17412370.59448  21154716.9534                   21154709.4064
        47.5004         50.0004
  -3807436.90146  -2843012.03743  24121219.2974                   24121212.5164
        37.5004         19.2504
 20  5 20  2  2  0.0000000  0 10G16G09G05G04G30G27G08G11G07G28
  -7160421.07546  -5449130.78143  23883104.8754                   23883097.5984
        41.0004         20.7504
 -25031419.79548 -19492553.30448  20615082.4224                   20615077.5594
        49.2504         53.2504
  -3014994.72246  -2340748.95945  24399986.5944                   24399981.0354
        38.2504         34.0004
 -16481552.30347 -12746080.79945  22340281.9924                   22340275.8444
        45.5004         32.2504
 -14352927.31347 -11163975.32546  22840640.7974                   22840635.9804
        43.7504         41.5004
 -15441871.13347 -12008753.43047  22053766.2734                   22053761.9924
        45.0004         45.7504
 -19800060.63547 -15411207.91448  21313558.5474                   21313554.1334
        46.7504         49.2504
  -4114198.15345  -3126395.11343  24727154.0234                   24727150.1374
        34.7504         19.0004
 -22502570.40347 -17445533.55548  21146618.4454                   21146610.7584
        47.7504         50.0004
  -3900462.98046  -2915499.88043  24103516.4774                   24103510.4924
        37.2504         19.0004
 20  5 20  2  2 30.0000000  0 10G16G09G05G04G30G27G08G11G07G28
  -7053311.13146  -5365668.50343  23903486.8054                   23903479.8164
        39.2504         20.7504
 -24988675.72048 -19459246.25048  20623216.3754                   20623211.2504
        49.2504         53.2504
  -3026334.76346  -2349585.36745  24397829.4694                   24397823.1134
        40.0004         33.2504
 -16386349.84247 -12671897.09945  22358397.8914                   22358392.4454
        44.5004         31.5004
 -14430066.82847 -11224084.03046  22825962.2424                   22825957.2114
        44.5004         41.5004
 -15410302.49647 -11984154.49347  22059773.9694                   22059769.1884
        45.5004         45.7504
 -19833054.91947 -15436917.74248  21307279.5554                   21307275.5084
        47.0004         49.5004
  -4204443.00346  -3196715.66943  24709981.7664                   24709977.3164
        37.5004         20.2504
 -22544935.58447 -17478545.39648  21138556.1804                   21138549.1094
        47.7504         50.0004
  -3993301.08346  -2987841.27143  24085851.0784                   24085843.8524
        38.5004         19.7504
 20  5 20  2  3  0.0000000  0 10G16G09G05G04G30G27G08G11G07G28
  -6946139.55246  -5282158.21343  23923880.6174                   23923874.1524
        39.7504         22.0004
 -24945393.55948 -19425519.90648  20631452.9384                   20631447.8284
        49.0004         53.2504
  -3037130.15246  -2357997.40045  24395775.4774                   24395768.9344
        38.7504         33.5004
 -16290846.24247 -12597478.73145  22376571.0784                   22376566.2304
        44.2504         31.2504
 -14507111.95247 -11284119.18047  22811300.1954                   22811295.6134
        44.0004         42.0004
 -15378107.44647 -11959067.45747  22065900.6724                   22065895.5274
        45.0004         45.7504
 -19865453.48247 -15462163.37848  21301114.5004                   21301110.3484
        46.5004         49.2504
  -4294659.91746  -3267014.55043  24692814.3984                   24692809.2664
        36.7504         20.0004
 -22587105.37247 -17511404.97048  21130531.6174                   21130524.2194
        47.5004         50.0004
  -4085949.42646  -3060034.79443  24068220.4144                   24068213.5314
        39.0004         19.2504
 20  5 20  2  3 30.0000000  0 10G16G09G05G04G30G27G08G11G07G28
  -6838908.57246  -5198601.66543  23944287.0944                   23944278.9414
        41.0004         20.7504
 -24901574.54448 -19391375.24248  20639791.2504                   20639786.6024
        48.5004         53.0004
  -3047381.25046  -2365985.28445  24393825.6644                   24393818.0944
        39.7504         33.5004
 -16195043.75947 -12522827.48045  22394802.5164                   22394796.5474
        44.5004         31.5004
 -14584062.14347 -11344080.35447  22796657.2424                   22796652.4184
        44.7504         42.0004
 -15345287.40447 -11933493.40547  22072145.8984                   22072140.9964
        45.7504         46.0004
 -19897255.37347 -15486944.06448  21295062.9304                   21295058.8244
        47.2504         49.5004
  -4384846.45846  -3337289.77843  24675652.6884                   24675646.4104
        38.0004         19.2504
 -22629079.01247 -17544111.71748  21122544.4924                   21122536.7074
        47.5004         50.0004
  -4178407.01246  -3132079.69243  24050626.0004                   24050619.1684
        37.7504         18.2504
 20  5 20  2  4  0.0000000  0 10G16G09G05G04G30G27G08G11G07G28
  -6731621.39346  -5115001.31643  23964702.9694                   23964695.5434
        40.5004         19.5004
 -24857220.70148 -19356813.82248  20648231.8054                   20648226.6804
        48.2504         53.0004
  -3057088.95246  -2373549.73745  24391977.0084                   24391971.0234
        38.5004         33.0004
 -16098945.51547 -12447945.77045  22413089.1804                   22413083.9144
        45.0004         31.2504
 -14660917.68647 -11403967.76947  22782032.3914                   22782027.7384
        43.7504         42.5004
 -15311844.60547 -11907434.08947  22078510.1724                   22078505.0314
        45.0004         45.5004
 -19928460.08947 -15511259.42948  21289124.5634                   21289120.6764
        47.0004         49.2504
  -4475000.68446  -3407539.76743  24658496.4774                   24658491.7304
        38.7504         22.0004
 -22670856.53647 -17576665.64148  21114594.5634                   21114587.1484
        47.5004         49.7504
  -4270673.84446  -3203975.98043  24033068.3054                   24033061.4804
        37.7504         19.0004
 20  5 20  2  4 30.0000000  0 10G16G09G05G04G30G27G08G11G07G28
  -6624276.01846  -5031355.61643  23985130.4614                   23985122.0984
        40.0004         20.5004
 -24812329.25748 -19321833.49448  20656774.0944                   20656769.1214
        48.7504         53.0004
  -3066249.82046  -2380688.12645  24390234.1954                   24390227.6844
        39.0004         32.5004
 -16002549.85147 -12372832.29845  22431432.8364                   22431427.0124
        44.5004         31.0004
 -14737674.05147 -11463777.91347  22767425.8674                   22767421.1914
        43.7504         42.0004
 -15277776.52947 -11880887.54647  22084992.7814                   22084988.0204
        45.7504         45.5004
 -19959062.68847 -15535105.60448  21283301.7274                   21283297.7974
        46.7504         49.2504
  -4565116.07146  -3477759.47943  24641348.2974                   24641342.4104
        40.0004         19.0004
 -22712433.38247 -17609063.19448  21106683.0004                   21106675.0824
        47.2504         50.0004
  -4362744.87046  -3275719.65343  24015547.7504                   24015541.2424
        37.5004         18.5004
 20  5 20  2  5  0.0000000  0 10G16G09G05G04G30G27G08G11G07G28
  -6516879.10346  -4947669.76943  24005567.1644                   24005559.1954
        39.7504         20.0004
 -24766905.18548 -19286438.13348  20665418.2584                   20665412.9924
        48.2504         53.0004
  -3074868.12246  -2387403.69645  24388594.5944                   24388587.6644
        39.5004         33.7504
 -15905862.77447 -12297491.75745  22449831.9064                   22449826.7814
        44.0004         31.5004
 -14814334.49247 -11523513.29847  22752837.4694                   22752833.2074
        43.7504         42.2504
 -15243088.46147 -11853857.89047  22091594.0394                   22091589.1844
        45.5004         45.5004
 -19989065.79247 -15558484.64448  21277592.0704                   21277587.7154
        47.2504         49.5004
  -4655193.58946  -3547949.77343  24624207.3134                   24624200.6604
        40.0004         20.2504
 -22753812.73347 -17641306.85148  21098808.3284                   21098800.8444
        47.0004         49.7504
  -4454622.81146  -3347312.83643  23998064.4694                   23998057.6644
        37.5004         19.2504
 20  5 20  2  5 30.0000000  0 10G16G09G05G04G30G27G08G11G07G28
  -6409430.72046  -4863943.80843  24026013.5084                   24026006.0274
        38.7504         20.7504
 -24720948.02948 -19250627.38848  20674163.4534                   20674158.3204
        48.7504         53.0004
  -3082942.36446  -2393695.33245  24387058.0864                   24387051.1454
        39.7504         33.0004
 -15808884.81847 -12221924.56345  22468286.3364                   22468280.8014
        45.0004         31.5004
 -14890896.63647 -11583172.10447  22738268.6334                   22738263.7504
        43.0004         42.2504
 -15207780.06847 -11826344.85947  22098312.6174                   22098307.6524
        45.5004         45.5004
 -20018466.32547 -15581394.14948  21271997.1484                   21271993.2974
        47.0004         49.2504
  -4745228.78646  -3618107.03043  24607074.4774                   24607068.1174
        40.7504         20.5004
 -22794991.79447 -17673394.44048  21090972.5164                   21090964.6644
        47.2504         50.0004
  -4546305.34546  -3418753.78143  23980617.5314                   23980611.0664
        38.0004         19.7504
 20  5 20  2  6  0.0000000  0 10G16G09G05G04G30G27G08G11G07G28
  -6301933.15946  -4780179.51043  24046469.3834                   24046462.2854
        39.5004         21.0004
 -24674459.10948 -19214402.28048  20683010.1804                   20683005.0594
        48.7504         53.0004
  -3090473.19746  -2399563.55045  24385624.8204                   24385618.2344
        39.0004         34.0004
 -15711618.38947 -12146132.59245  22486795.1804                   22486790.1524
        44.5004         32.7504
 -14967360.03447 -11642753.96247  22723717.6884                   22723713.3874
        44.0004         42.0004
 -15171852.98047 -11798349.73047  22105149.4844                   22105144.4884
        46.0004         45.5004
 -20047263.64647 -15603833.61748  21266517.0704                   21266513.4024
        46.5004         49.5004
  -4835219.15646  -3688229.36843  24589948.7424                   24589942.4304
        39.5004         18.5004
 -22835970.04747 -17705325.56148  21083174.4924                   21083166.6914
        46.7504         50.0004
  -4637791.39246  -3490041.61243  23963208.0554                   23963202.3874
        38.7504         20.2504
 20  5 20  2  6 30.0000000  0 10G16G09G05G04G30G27G08G11G07G28
  -6194388.06546  -4696378.21643  24066934.7344                   24066927.7274
        39.5004         21.2504
 -24627439.30348 -19177763.48348  20691957.4614                   20691952.8014
        48.5004         53.0004
  -3097460.37546  -2405008.11745  24384294.6724                   24384288.6524
        39.0004         33.7504
 -15614065.32247 -12070117.26945  22505359.2894                   22505353.8554
        44.2504         31.7504
 -15043723.66947 -11702258.08047  22709186.5474                   22709181.8054
        45.2504         42.2504
 -15135308.33947 -11769873.39647  22112103.3754                   22112098.8674
        45.7504         45.5004
 -20075456.26747 -15625801.89748  21261152.5164                   21261147.9844
        47.0004         49.5004
  -4925161.45846  -3758314.25643  24572833.3524                   24572827.4654
        37.2504         19.2504
 -22876746.21747 -17737099.20448  21075414.7974                   21075407.1844
        47.2504         50.0004
  -4729079.55546  -3561175.21643  23945836.9924                   23945830.4184
        39.5004         22.0004
 20  5 20  2  7  0.0000000  0 10G16G09G05G04G30G27G08G11G07G28
  -6086797.59146  -4612541.53043  24087408.1564                   24087401.6804
        38.5004         20.2504
 -24579889.62448 -19140711.80148  20701005.9844                   20701000.7854
        48.7504         53.0004
  -3103904.45746  -2410029.49145  24383068.5084                   24383061.9884
        38.2504         32.5004
 -15516227.67547 -11993880.19345  22523977.6644                   22523971.0394
        45.0004         31.0004
 -15119986.69747 -11761683.81047  22694674.5784                   22694669.3794
        44.7504         42.5004
 -15098147.40247 -11740916.82147  22119175.1024                   22119170.5274
        46.2504         45.5004
 -20103043.03747 -15647298.07648  21255902.6954                   21255898.7194
        47.0004         49.2504
  -5015052.72346  -3828359.34643  24555728.9774                   24555721.8284
        40.0004         21.2504
 -22917319.22947 -17768714.53748  21067694.1334                   21067686.5044
        47.2504         50.0004
  -4820168.66446  -3632153.76343  23928502.9844                   23928496.5274
        39.0004         21.5004
 20  5 20  2  7 30.0000000  0 10G16G09G05G04G30G27G08G11G07G28
  -5979165.21846  -4528672.22743  24107890.5704                   24107882.7814
        39.5004         19.5004
 -24531812.78148 -19103249.34548  20710154.8284                   20710149.8554
        48.2504         52.7504
  -3109807.32046  -2414629.13545  24381946.4924                   24381938.9734
        40.0004         33.5004
 -15418109.13347 -11917424.22845  22542648.1094                   22542642.7894
        45.0004         31.0004
 -15196149.86747 -11821031.72447  22680180.9384                   22680175.9224
        45.2504         42.5004
 -15060373.19247 -11711482.37647  22126363.6094                   22126358.7544
        45.7504         45.2504
 -20130023.87747 -15668322.10448  21250768.4534                   21250764.1684
        47.0004         49.5004
  -5104891.64246  -3898363.67943  24538631.9384                   24538626.4804
        37.2504         20.2504
 -22957689.67547 -17800172.03948  21060012.0474                   21060004.3554
        47.0004         50.0004
  -4911059.28646  -3702977.62343  23911207.1724                   23911200.4884
        38.7504         21.7504
 20  5 20  2  8  0.0000000  0 10G16G09G05G04G30G27G08G11G07G28
  -5871488.43846  -4444768.27743  24128381.2814                   24128373.4224
        39.7504         19.7504
 -24483205.37348 -19065373.46548  20719404.3524                   20719399.3054
        49.5004         53.0004
  -3115164.61446  -2418803.66645  24380926.4064                   24380919.0744
        39.7504         33.5004
 -15319707.30447 -11840747.51745  22561373.6414                   22561368.1134
        45.5004         30.5004
 -15272207.89047 -11880297.71447  22665707.1804                   22665702.3554
        45.0004         42.7504
 -15021982.54947 -11681567.59547  22133668.8914                   22133663.9264
        46.0004         45.5004
 -20156393.78547 -15688870.08548  21245750.4064                   21245746.1724
        47.5004         49.5004
  -5194670.81646  -3968321.34943  24521546.4144                   24521542.7114
        37.7504         22.0004
 -22997852.50147 -17831467.75748  21052369.4144                   21052361.7504
        47.2504         50.2504
  -5001745.70046  -3773642.33143  23893950.4224                   23893942.9184
        38.2504         21.0004
 20  5 20  2  8 30.0000000  0 10G16G09G05G04G30G27G08G11G07G28
  -5763773.56146  -4360834.66543  24148877.9614                   24148871.2774
        38.7504         19.2504
 -24434073.21948 -19027088.68748  20728754.1094                   20728749.1684
        48.5004         53.0004
  -3119981.10746  -2422556.79745  24380009.4844                   24380002.8874
        39.5004         33.0004
 -15221028.89847 -11763855.29645  22580152.0314                   22580146.1844
        44.7504         30.5004
 -15348164.57847 -11939484.73347  22651253.2734                   22651248.6954
        45.2504         42.7504
 -14982981.53147 -11651177.19847  22141090.2424                   22141085.7894
        46.0004         45.5004
 -20182156.20047 -15708944.69348  21240848.2344                   21240843.9414
        47.5004         49.5004
  -5284391.85146  -4038233.76743  24504475.0554                   24504469.3754
        39.2504         22.0004
 -23037810.99747 -17862604.25748  21044765.3524                   21044758.1334
        46.7504         50.2504
  -5092231.65646  -3844150.93043  23876730.9304                   23876724.2274
        37.5004         19.2504
 20  5 20  2  9  0.0000000  0 10G16G09G05G04G30G27G08G11G07G28
  -5656021.44346  -4276872.03243  24169382.7734                   24169375.4884
        38.7504         18.5004
 -24384416.25748 -18988394.96648  20738203.5634                   20738198.3594
        48.2504         52.7504
  -3124256.07046  -2425887.95245  24379196.1024                   24379189.9384
        39.5004         33.5004
 -15122074.86447 -11686748.31245  22598982.0314                   22598976.3524
        44.5004         31.7504
 -15424017.89947 -11998591.19147  22636818.5004                   22636813.7544
        44.0004         42.7504
 -14943370.42447 -11620311.40947  22148628.5944                   22148623.5394
        46.0004         45.5004
 -20207308.33147 -15728543.75148  21236061.9144                   21236057.4224
        47.0004         49.7504
  -5374050.58246  -4108097.70744  24487413.7344                   24487407.2114
        41.2504         25.5004
 -23077562.98547 -17893579.83448  21037200.9534                   21037193.0864
        47.0004         50.2504
  -5182514.85946  -3914501.41343  23859550.1024                   23859543.7624
        37.5004         20.0004
 20  5 20  2  9 30.0000000  0 10G16G09G05G04G30G27G08G11G07G28
  -5548233.49746  -4192881.45743  24189894.1094                   24189886.6914
        38.7504         18.5004
 -24334235.09448 -18949292.77948  20747752.3364                   20747747.9844
        49.0004         52.5004
  -3127989.40646  -2428797.05545  24378485.3984                   24378479.1294
        39.2504         33.0004
 -15022846.68847 -11609427.68645  22617864.4774                   22617859.1254
        44.0004         30.7504
 -15499766.38847 -12057615.96247  22622404.2274                   22622400.0594
        44.2504         42.7504
 -14903150.07347 -11588970.89247  22156282.3204                   22156277.1524
        46.0004         45.5004
 -20231848.92147 -15747666.28548  21231391.9454                   21231387.8634
        47.2504         49.5004
  -5463643.53546  -4177910.40843  24470363.9304                   24470358.0004
        40.0004         22.0004
 -23117106.78547 -17924393.19548  21029675.9924                   21029668.3134
        47.7504         50.2504
  -5272593.26546  -3984692.37943  23842409.3134                   23842403.0164
        38.2504         19.7504
 20  5 20  2 10  0.0000000  0 10G16G09G05G04G30G27G08G11G07G28
  -5440411.38946  -4108864.32543  24210411.3204                   24210404.2624
        38.0004         18.5004
 -24283530.75048 -18909782.91748  20757401.4614                   20757396.6094
        48.5004         52.5004
  -3131181.27646  -2431284.24545  24377878.0084                   24377871.5474
        39.2504         33.2504
 -14923346.39847 -11531895.04645  22636798.7664                   22636793.6804
        44.7504         31.2504
 -15575409.09947 -12116558.31647  22608009.9144                   22608005.4774
        45.0004         43.5004
 -14862321.81947 -11557156.67947  22164051.3674                   22164046.8834
        45.7504         45.2504
 -20255776.51447 -15766311.16748  21226838.4224                   21226834.5164
        47.5004         49.7504
  -5553167.60946  -4247669.36443  24453328.0944                   24453323.0084
        39.7504         21.7504
 -23156441.29948 -17955043.47248  21022190.7424                   21022182.9694
        48.0004         50.2504
  -5362465.84646  -4054722.96743  23825307.1334                   23825300.5664
        38.7504         20.2504
 20  5 20  2 10 30.0000000  0 10G16G09G05G04G30G27G08G11G07G28
  -5332557.52746  -4024822.42243  24230936.6484                   24230929.8524
        40.0004         20.2504
 -24232305.04648 -18869866.80348  20767149.3204                   20767144.1214
        48.5004         52.5004
  -3133832.77746  -2433350.37145  24377374.2114                   24377366.9064
        39.5004         32.7504
 -14823576.68147 -11454152.45945  22655784.0314                   22655779.2344
        43.7504         30.7504
 -15650945.72347 -12175418.00447  22593636.0944                   22593630.9614
        44.2504         43.2504
 -14820887.75447 -11524870.39947  22171935.4064                   22171931.0984
        45.5004         45.0004
 -20279090.83247 -15784478.16848  21222401.8984                   21222398.2584
        47.5004         49.7504
  -5642620.27946  -4317372.78043  24436306.2734                   24436298.7034
        40.5004         19.2504
 -23195566.27347 -17985530.47048  21014745.7734                   21014738.0234
        47.5004         50.2504
  -5452132.31146  -4124592.93143  23808244.1094                   23808237.7894
        39.0004         20.7504
 20  5 20  2 11  0.0000000  0 10G16G09G05G04G30G27G08G11G07G28
  -5224674.79046  -3940758.02143  24251466.3754                   24251458.4304
        39.0004         19.2504
 -24180560.21948 -18829546.18348  20776996.1724                   20776990.6804
        49.0004         52.5004
  -3135945.09846  -2434996.36245  24376971.7734                   24376965.0434
        40.0004         33.5004
 -14723540.67047 -11376202.37845  22674820.3834                   22674815.5594
        43.0004         30.5004
 -15726376.44147 -12234195.17147  22579281.6564                   22579276.9614
        45.0004         43.2504
 -14778850.43047 -11492114.06247  22179934.7664                   22179930.5314
        45.0004         45.0004
 -20301791.85947 -15802167.26848  21218082.5704                   21218078.2344
        47.0004         49.7504
  -5731999.76646  -4387019.06143  24419297.2034                   24419291.3874
        37.5004         18.2504
 -23234481.31648 -18015853.89148  21007340.1334                   21007332.7504
        48.0004         50.2504
  -5541592.58346  -4194302.21443  23791221.0474                   23791213.8164
        40.0004         22.0004
 20  5 20  2 11 30.0000000  0 10G16G09G05G04G30G27G08G11G07G28
  -5116762.25446  -3856670.37543  24272000.3204                   24271994.0044
        38.7504         19.2504
 -24128294.49648 -18788819.66448  20786942.1484                   20786936.6914
        49.2504         52.5004
  -3137515.67446  -2436220.22745  24376671.9304                   24376666.5124
        39.0004         33.2504
 -14623237.44347 -11298044.07444  22693907.7974                   22693902.3984
        44.2504         29.5004
 -15801697.30147 -12292886.74547  22564949.3204                   22564943.9694
        45.2504         43.2504
 -14736208.37347 -11458886.49747  22188049.8834                   22188044.8874
        45.5004         45.0004
 -20323875.74047 -15819375.49348  21213880.1094                   21213875.5204
        47.7504         49.7504
  -5821299.88446  -4456603.63643  24402303.5944                   24402297.2704
        38.5004         19.2504
 -23273182.77647 -18046010.88348  20999975.8134                   20999968.1764
        47.5004         50.2504
  -5630842.17946  -4263847.34643  23774237.7194                   23774230.4384
        40.2504         23.2504
 20  5 20  2 12  0.0000000  0 10G16G09G05G04G30G27G08G11G07G28
  -5008824.02246  -3772562.76243  24292540.3914                   24292534.4964
        38.0004         20.0004
 -24075511.70048 -18747690.22648  20796986.1254                   20796981.5004
        48.7504         52.5004
  -3138547.49846  -2437024.27545  24376477.1414                   24376470.3014
        38.7504         33.5004
 -14522671.71847 -11219681.21444  22713044.9844                   22713039.2664
        43.2504         29.0004
 -15876910.02047 -12351494.05247  22550636.4384                   22550631.5594
        44.7504         43.2504
 -14692965.72947 -11425190.93947  22196278.8524                   22196273.8874
        45.0004         45.0004
 -20345343.92347 -15836103.94748  21209794.4384                   21209790.1214
        47.5004         49.5004
  -5910520.35246  -4526126.05343  24385325.8054                   24385319.7734
        39.0004         20.2504
 -23311671.73047 -18076002.27648  20992651.3834                   20992644.0314
        47.0004         50.5004
  -5719882.71246  -4333229.59443  23757293.2974                   23757286.9964
        39.7504         22.2504
 20  5 20  2 12 30.0000000  0 10G16G09G05G04G30G27G08G11G07G28
  -4900861.34946  -3688436.05743  24313085.0164                   24313078.3874
        38.7504         19.7504
 -24022212.76748 -18706158.61748  20807128.4614                   20807123.4344
        48.5004         52.5004
  -3139041.03246  -2437408.87345  24376383.2194                   24376376.3134
        40.0004         33.5004
 -14421845.30947 -11141115.21844  22732231.2894                   22732226.0554
        43.0004         29.7504
 -15952013.30147 -12410016.08247  22536344.8984                   22536339.9024
        45.0004         43.0004
 -14649123.69247 -11391028.32347  22204621.6884                   22204616.6564
        45.5004         45.0004
 -20366194.79648 -15852351.37448  21205826.8754                   21205822.5164
        48.0004         49.5004
  -5999657.58146  -4595583.60843  24368363.6954                   24368358.0634
        39.5004         21.5004
 -23349947.23948 -18105827.35448  20985368.0474                   20985360.5664
        48.0004         50.2504
  -5808712.96046  -4402447.95643  23740389.2424                   23740382.8484
        39.2504         22.7504
 20  5 20  2 13  0.0000000  0 10G16G09G05G04G30G27G08G11G07G28
  -4792876.54246  -3604292.10143  24333634.1644                   24333626.9734
        37.7504         18.2504
 -23968398.80148 -18664225.67348  20817369.1564                   20817363.8874
        48.5004         52.5004
  -3138996.41746  -2437374.14645  24376389.8834                   24376385.0274
        37.7504         33.0004
 -14320760.11547 -11062347.57344  22751467.0394                   22751461.7734
        42.7504         29.7504
 -16027006.15947 -12468452.06047  22522073.8594                   22522069.0164
        44.5004         43.0004
 -14604683.76847 -11356399.82247  22213078.3674                   22213073.5234
        45.5004         44.7504
 -20386427.61048 -15868117.20848  21201976.2194                   21201972.2734
        48.0004         49.5004
  -6088708.35746  -4664973.84143  24351418.1414                   24351411.5594
        40.0004         21.5004
 -23388007.93148 -18135485.03948  20978125.3284                   20978117.6024
        48.0004         50.5004
  -5897331.48846  -4471501.32843  23723526.0234                   23723519.5514
        38.5004         22.5004
 20  5 20  2 13 30.0000000  0 10G16G09G05G04G30G27G08G11G07G28
  -4684871.96746  -3520132.76943  24354187.3914                   24354179.3754
        39.0004         19.0004
 -23914072.29648 -18621893.36148  20827707.4534                   20827702.0634
        48.0004         52.5004
  -3138415.30546  -2436921.34645  24376502.2974                   24376495.4144
        40.0004         33.5004
 -14219419.47947 -10983380.88344  22770751.6254                   22770746.1604
        44.0004         29.7504
 -16101888.83847 -12526802.19047  22507824.3204                   22507819.5004
        45.2504         43.5004
 -14559648.65247 -11321307.53847  22221647.8914                   22221643.2194
        45.2504         44.7504
 -20406042.86048 -15883401.81948  21198243.6724                   21198239.6254
        48.0004         49.5004
  -6177670.99346  -4734295.35943  24334489.2194                   24334482.8284
        39.5004         22.0004
 -23425853.54547 -18164975.12248  20970923.2274                   20970916.0984
        47.2504         50.5004
  -5985738.52846  -4540389.92343  23706702.1254                   23706695.6564
        38.5004         22.0004
 20  5 20  2 14  0.0000000  0 10G16G09G05G04G30G27G08G11G07G28
  -4576846.30846  -3435956.96543  24374742.7034                   24374736.5204
        38.5004         18.5004
 -23859231.01648 -18579159.91648  20838143.1414                   20838138.2424
        48.2504         52.5004
  -3137294.77346  -2436048.23145  24376715.0944                   24376709.0744
        39.5004         33.5004
 -14117822.04847 -10904214.09245  22790085.1564                   22790080.2584
        44.0004         30.0004
 -16176656.80547 -12585062.93847  22493596.0634                   22493591.8014
        44.5004         43.5004
 -14514016.54247 -11285750.05547  22230332.0394                   22230326.7624
        45.5004         45.0004
 -20425035.96848 -15898201.64448  21194629.7274                   21194625.6644
        48.5004         49.5004
  -6266539.10446  -4803543.23243  24317577.9694                   24317572.6024
        40.0004         22.5004
 -23463479.95747 -18194294.41248  20963763.6954                   20963755.7234
        47.0004         50.5004
  -6073929.53946  -4609110.17343  23689920.4304                   23689913.7074
        38.5004         21.2504
 20  5 20  2 14 30.0000000  0 10G16G09G05G04G30G27G08G11G07G28
  -4468804.79946  -3351768.85243  24395302.5394                   24395296.7464
        38.7504         19.0004
 -23803880.00348 -18536029.27548  20848675.9924                   20848671.3244
        48.0004         52.2504
  -3135639.18946  -2434758.18545  24377031.0084                   24377024.0474
        39.2504         33.7504
 -14015973.62747 -10824851.74344  22809466.5004                   22809461.1644
        43.5004         29.0004
 -16251312.87247 -12643236.47547  22479389.4774                   22479385.1764
        44.2504         43.5004
 -14467792.81247 -11249731.56747  22239127.6954                   22239122.9924
        45.5004         44.7504
 -20443409.68648 -15912518.82948  21191133.0474                   21191128.7074
        48.2504         49.5004
  -6355313.16246  -4872717.78143  24300684.4924                   24300679.4574
        40.0004         22.2504
 -23500889.50147 -18223444.71848  20956644.2114                   20956636.9064
        47.0004         50.5004
  -6161907.25146  -4677664.20543  23673178.5634                   23673171.6914
        39.0004         21.0004
 20  5 20  2 15  0.0000000  0 10G16G09G05G04G30G27G08G11G07G28
  -4360748.05546  -3267568.85743  24415866.0314                   24415858.8284
        40.0004         18.2504
 -23748019.49948 -18492501.63048  20859305.9774                   20859300.8914
        48.0004         52.2504
  -3133447.93346  -2433050.73245  24377446.2584                   24377441.0354
        39.7504         34.2504
 -13913875.23647 -10745294.61545  22828895.5784                   22828890.2544
        43.7504         30.2504
 -16325854.93247 -12701321.19447  22465205.0164                   22465200.2194
        44.2504         44.0004
 -14420977.93147 -11213252.45447  22248036.3834                   22248031.4264
        45.5004         44.7504
 -20461161.91847 -15926351.73148  21187755.1724                   21187750.9024
        47.7504         49.5004
  -6443988.98446  -4941815.81943  24283809.9924                   24283803.9654
        39.7504         21.2504
 -23538080.09847 -18252424.40248  20949567.7274                   20949559.9344
        47.7504         50.5004
  -6249669.08246  -4746050.08043  23656477.6334                   23656471.1914
        38.7504         20.5004
 20  5 20  2 15 30.0000000  0 10G16G09G05G04G30G27G08G11G07G28
  -4252677.81546  -3183358.34943  24436430.9774                   24436424.5394
        38.5004         19.0004
 -23691650.77948 -18448577.97548  20870032.6024                   20870027.3284
        48.5004         52.2504
  -3130721.53346  -2430926.29345  24377965.6884                   24377959.6564
        39.2504         33.5004
 -13811528.98947 -10665544.34644  22848370.7034                   22848366.1054
        43.0004         29.7504
 -16400282.00947 -12759316.31147  22451041.8204                   22451037.1764
        44.0004         44.0004
 -14373573.62447 -11176314.03447  22257056.9844                   22257052.7034
        45.2504         44.7504
 -20478292.25048 -15939700.04548  21184495.3054                   21184490.7814
        48.0004         49.5004
  -6532563.28646  -5010834.76143  24266955.3834                   24266949.1564
        39.5004         21.2504
 -23575050.53447 -18281232.53448  20942532.1254                   20942524.5124
        47.7504         50.5004
  -6337214.56246  -4814267.31343  23639818.2974                   23639811.7424
        39.0004         21.0004
 20  5 20  2 16  0.0000000  0 10G16G09G05G04G30G27G08G11G07G28
  -4144596.08646  -3099138.88443  24456999.7504                   24456991.3554
        39.5004         18.2504
 -23634775.66448 -18404259.72048  20880855.6254                   20880850.8014
        48.5004         52.2504
  -3127460.72346  -2428385.39345  24378586.9144                   24378580.1724
        39.5004         34.0004
 -13708937.38247 -10585602.88744  22867893.1024                   22867888.4804
        42.5004         28.5004
 -16474593.54947 -12817221.40047  22436900.8834                   22436895.8634
        45.2504         44.0004
 -14325581.96647 -11138917.94047  22266189.4844                   22266184.8204
        45.0004         44.7504
 -20494800.05147 -15952563.26448  21181353.6804                   21181349.5204
        47.7504         49.5004
  -6621033.33146  -5079772.45143  24250120.5234                   24250114.2074
        41.0004         22.7504
 -23611800.02747 -18309868.50948  20935539.4844                   20935531.5434
        47.2504         50.5004
  -6424542.72546  -4882315.24043  23623200.9614                   23623193.6884
        39.7504         21.5004
 20  5 20  2 16 30.0000000  0 10G16G09G05G04G30G27G08G11G07G28
  -4036504.23146  -3014911.53342  24477567.7504                   24477560.2424
        38.5004         16.7504
 -23577395.22748 -18359547.71048  20891774.6564                   20891769.7664
        48.2504         52.2504
  -3123666.27846  -2425428.72445  24379309.5554                   24379302.8554
        39.2504         35.2504
 -13606102.31147 -10505471.70944  22887462.3754                   22887456.8164
        43.2504         28.5004
 -16548788.18547 -12875035.40347  22422782.1484                   22422777.2774
        44.7504         44.0004
 -14277004.43247 -11101065.33147  22275433.5634                   22275429.0984
        44.5004         44.5004
 -20510684.29448 -15964940.59348  21178331.2424                   21178326.8134
        48.0004         49.7504
  -6709395.68946  -5148626.17443  24233305.5864                   24233298.8324
        40.5004         21.2504
 -23648327.01547 -18338331.09648  20928588.1174                   20928580.5824
        46.5004         50.7504
  -6511652.00646  -4950192.61143  23606624.6804                   23606617.8754
        40.2504         22.0004
