     2.11           OBSERVATION DATA    G (GPS)             RINEX VERSION / TYPE
teqc  2018Jun8                          20200104 01:12:02UTCPGM / RUN BY / DATE
Linux 2.4.20-8|x86|gcc -static|Linux 32|=+                  COMMENT
BIT 2 OF LLI FLAGS DATA COLLECTED UNDER A/S CONDITION       COMMENT
POL2                                                        MARKER NAME
GGN                 JPL                                     OBSERVER / AGENCY
02563                 Javad Delta-3             1s jps      REC # / TYPE / VERS
383-1030            TPSCR.G3                                ANT # / TYPE
  1239971.4511  4530790.0876  4302578.7950                  APPROX POSITION XYZ
        0.0780        0.0000        0.0000                  ANTENNA: DELTA H/E/N
     1     1                                                WAVELENGTH FACT L1/2
     8    L1    L2    C1    P1    C2    P2    S1    S2      # / TYPES OF OBSERV
    30.0000                                                 INTERVAL
Forced Modulo Decimation to 30 seconds                      COMMENT
 SNR is mapped to RINEX snr flag value [0-9]                COMMENT
  L1 & L2: min(max(int(snr_dBHz/6), 0), 9)                  COMMENT
teqc edited: all GLONASS satellites excluded                COMMENT
teqc edited: all SBAS satellites excluded                   COMMENT
teqc edited: all Galileo satellites excluded                COMMENT
teqc edited: all Beidou satellites excluded                 COMMENT
teqc edited: all QZSS satellites excluded                   COMMENT
teqc edited: all IRNSS satellites excluded                  COMMENT
pseudorange smoothing corrections not applied               COMMENT
  2020     1     4     0     0    0.0000000     GPS         TIME OF FIRST OBS
                                                            END OF HEADER
 20  1  4  0  0  0.0000000  0 10G29G05G10G21G13G20G26G27G15G16
 114606756.053 8  89303966.908 8  21808940.364    21808940.186    21808941.914
  21808942.150          49.000          48.500
 130213966.260 7 101465443.796 6  24778896.218    24778895.580    24778896.600
  24778895.387          43.500          38.500
 124192300.884 7  96773222.239 7  23633008.842    23633009.320    23633012.304
  23633013.208          42.250          45.000
 111410126.085 7  86813091.03247  21200641.638    21200640.944
  21200642.148          47.750          45.7504
 116715877.162 7  90947435.51745  22210291.031    22210291.216
  22210292.230          47.500          35.5004
 111385507.101 7  86793908.93147  21195957.077    21195956.709
  21195958.637          46.500          42.7504
 128294647.916 6  99969857.457 6  24413662.580    24413662.117    24413666.559
  24413666.422          37.250          40.250
 129393589.790 6 100826170.216 6  24622780.335    24622780.553    24622783.888
  24622783.805          39.500          38.750
 108910405.451 8  84865249.061 8  20724959.047    20724959.020    20724960.251
  20724960.187          53.250          52.500
 126054668.896 6  98224413.22144  23987405.778    23987405.514
  23987407.004          38.500          25.7504
 20  1  4  0  0 30.0000000  0 10G29G05G10G21G13G20G26G27G15G16
 114697174.103 8  89374422.527 8  21826145.990    21826146.342    21826148.335
  21826148.135          49.000          48.750
 130314925.711 6 101544113.474 6  24798107.909    24798106.749    24798107.976
  24798107.920          41.750          38.250
 124106056.011 6  96706018.442 7  23616596.811    23616596.779    23616600.630
  23616601.637          41.750          45.250
 111379607.964 7  86789310.67447  21194834.162    21194833.404
  21194834.780          47.500          46.0004
 116754955.797 7  90977886.40045  22217727.367    22217726.879
  22217728.331          47.000          35.7504
 111326476.985 7  86747911.45547  21184724.040    21184723.588
  21184725.167          47.000          42.7504
 128355374.409 6 100017176.810 6  24425218.619    24425218.541    24425223.154
  24425222.970          39.000          40.750
 129292903.307 6 100747713.199 6  24603621.276    24603619.848    24603623.902
  24603623.862          39.250          39.250
 108905605.219 8  84861508.629 8  20724045.362    20724045.564    20724046.904
  20724046.679          53.750          52.500
 126081844.062 6  98245588.66244  23992576.880    23992577.093
  23992578.104          38.500          25.2504
 20  1  4  0  1  0.0000000  0 10G29G05G10G21G13G20G26G27G15G16
 114787963.083 8  89445167.191 8  21843422.848    21843422.930    21843424.647
  21843424.205          48.750          48.250
 130415870.455 7 101622771.706 6  24817316.133    24817317.010    24817318.777
  24817317.758          42.500          38.500
 124019990.773 7  96638954.635 7  23600219.416    23600219.522    23600222.869
  23600222.855          42.250          45.250
 111349296.990 7  86765691.73547  21189066.230    21189065.578
  21189066.779          47.750          45.7504
 116794619.876 7  91008793.47345  22225275.226    22225275.120
  22225276.564          47.000          35.7504
 111267741.271 7  86702143.36647  21173546.957    21173546.280
  21173548.339          47.000          42.7504
 128416404.748 6 100064732.901 6  24436831.405    24436831.668    24436836.144
  24436836.521          37.250          39.750
 129192435.614 6 100669426.667 6  24584501.927    24584502.768    24584506.149
  24584505.573          38.500          40.000
 108901455.366 8  84858274.978 8  20723255.622    20723255.800    20723257.095
  20723256.993          53.000          52.500
 126109545.647 6  98267174.32744  23997848.686    23997847.962
  23997849.561          36.750          24.7504
 20  1  4  0  1 30.0000000  0 10G29G05G10G21G13G20G26G27G15G16
 114879120.803 8  89516199.179 8  21860769.686    21860769.458    21860771.320
  21860771.543          48.750          48.250
 130516799.275 7 101701417.589 6  24836522.079    24836521.951    24836523.498
  24836524.408          42.250          38.250
 123934105.811 7  96572031.285 7  23583876.346    23583876.270    23583879.936
  23583880.787          42.500          45.750
 111319194.006 7  86742234.86447  21183337.717    21183337.270
  21183338.348          47.250          45.7504
 116834868.113 7  91040155.73046  22232934.443    22232934.309
  22232935.193          47.250          36.0004
 111209300.265 7  86656604.92647  21162426.171    21162425.545
  21162427.402          47.000          43.0004
 128477736.077 6 100112523.545 6  24448502.502    24448502.783    24448506.557
  24448507.585          37.750          40.000
 129092189.306 6 100591312.648 6  24565425.880    24565424.933    24565429.502
  24565429.887          38.000          41.000
 108897955.817 8  84855548.071 8  20722589.667    20722589.862    20722591.357
  20722591.186          52.750          52.500
 126137771.618 6  98289168.55744  24003220.014    24003219.414
  24003220.883          37.250          25.2504
 20  1  4  0  2  0.0000000  0 10G29G05G10G26G21G13G20G27G15G16
 114970643.999 8  89587515.946 8  21878186.011    21878185.794    21878187.755
  21878187.626          49.000          48.250
 130617710.486 6 101780049.681 5  24855724.710    24855724.504    24855725.139
  24855725.044          41.500          35.500
 123848401.082 7  96505248.387 7  23567567.072    23567566.891    23567570.842
  23567571.380          42.500          45.250
 128539371.459 6                  24460229.276
                        37.500
 111289299.113 7  86718940.13647  21177648.989    21177648.369
  21177649.519          47.500          46.0004
 116875698.827 7  91071971.86045  22240704.448    22240703.671
  22240705.172          47.500          35.7504
 111151153.316 7  86611295.62147  21151360.828    21151360.354
  21151362.372          46.750          42.5004
 128992166.367 6 100513372.674 6  24546390.821    24546391.870    24546395.950
  24546396.228          37.750          41.750
 108895105.882 8  84853327.345 8  20722047.350    20722047.471    20722048.814
  20722048.918          52.250          52.250
 126166519.738 6  98311569.68343  24008690.320    24008689.677
  24008690.682          36.500          23.7504
 20  1  4  0  2 30.0000000  0  9G29G05G10G26G21G13G20G27G15
 115062531.604 8  89659116.673 8  21895671.059    21895671.418    21895672.695
  21895673.186          48.250          48.000
 130718604.245 6 101858668.233 6  24874923.995    24874924.735    24874925.383
  24874926.542          41.250          37.000
 123762878.510 7  96438607.426 7  23551292.724    23551292.731    23551295.991
  23551296.445          42.500          45.000
 128601296.897 6 100208805.234 6  24472014.274    24472013.906    24472019.025
  24472018.531          37.250          41.500
 111259614.400 7  86695809.18947  21172000.162    21171999.742
  21172000.658          47.500          46.0004
 116917111.403 7  91104241.41045  22248584.799    22248584.688
  22248585.685          47.750          35.7504
 111093302.644 7  86566217.18247  21140352.907    21140351.995
  21140353.774          47.250          43.5004
 128892370.719 6 100435609.825 7  24527401.642    24527400.877    24527406.511
  24527405.784          38.500          42.500
 108892906.653 8  84851613.672 8  20721628.797    20721628.966    20721630.634
  20721630.353          52.500          52.500
 20  1  4  0  3  0.0000000  0  9G29G05G10G26G21G13G20G27G15
 115154782.285 8  89731000.325 8  21913226.068    21913226.288    21913228.082
  21913227.992          48.250          48.000
 130819480.156 6 101937272.904 6  24894120.034    24894119.771    24894121.751
  24894121.612          40.750          37.500
 123677539.421 7  96372109.429 7  23535053.315    23535053.466    23535056.754
  23535057.088          42.250          45.250
 128663515.727 6 100257287.446 6  24483854.582    24483854.364    24483858.429
  24483859.252          37.000          40.000
 111230141.462 7  86672843.25647  21166391.521    21166390.998
  21166392.091          47.000          45.7504
 116959105.067 7  91136963.73645  22256575.868    22256576.175
  22256577.102          47.500          35.7504
 111035748.958 7  86521370.16347  21129400.107    21129399.468
  21129401.684          46.500          42.5004
 128792805.691 6 100358026.697 7  24508455.055    24508455.412    24508459.251
  24508459.220          39.250          42.500
 108891358.829 8  84850407.585 8  20721334.312    20721334.586    20721335.725
  20721335.833          52.000          52.250
 20  1  4  0  3 30.0000000  0  9G29G05G10G26G21G13G20G27G15
 115247389.681 8  89803161.926 8  21930848.661    21930848.853    21930850.728
  21930850.481          48.500          48.000
 130920332.844 7 102015859.523 6  24913311.879    24913311.310    24913314.110
  24913313.521          42.000          38.000
 123592380.664 7  96305751.960 7  23518847.855    23518847.977    23518851.565
  23518852.028          42.500          45.250
 128726021.937 6 100305993.555 6  24495748.722    24495747.861    24495753.715
  24495753.618          37.000          41.000
 111200877.258 8  86650039.97547  21160822.842    21160822.218
  21160823.409          48.000          45.7504
 117001674.497 8  91170134.71245  22264676.995    22264676.411
  22264677.951          48.000          35.7504
 110978488.801 7  86476751.85547  21118504.485    21118503.572
  21118505.152          47.250          43.2504
 128693470.132 6 100280622.389 6  24489552.487    24489552.660    24489556.219
  24489555.868          40.500          41.500
 108890458.790 8  84849706.262 8  20721163.320    20721163.194    20721164.738
  20721164.490          51.500          52.250
 20  1  4  0  4  0.0000000  0 10G29G05G10G26G16G21G13G20G27G15
 115340354.445 8  89875601.997 8  21948539.101    21948539.546    21948541.499
  21948541.025          48.500          48.250
 131021164.635 7 102094429.744 6  24932499.391    24932500.006    24932500.797
  24932500.820          42.000          37.250
 123507406.076 6  96239537.992 7  23502677.550    23502677.432    23502681.732
  23502681.718          41.750          45.750
 128788815.857 6 100354923.884 6  24507697.488    24507697.935    24507701.639
  24507701.187          37.250          39.750
 126286704.437 6                  24031561.205
                        37.500
 111171826.545 7  86627403.05147  21155294.699    21155294.132
  21155295.251          46.750          46.0004
 117044821.478 8  91203755.73546  22272887.145    22272887.230
  22272888.353          48.000          36.0004
 110921525.791 7  86432365.09047  21107664.199    21107663.664
  21107665.700          46.250          42.7504
 128594369.935 6 100203401.447 6  24470694.204    24470694.003    24470697.758
  24470697.650          40.750          40.750
 108890209.510 8  84849512.028 8  20721115.670    20721115.832    20721117.102
  20721116.907          50.250          52.250
 20  1  4  0  4 30.0000000  0  9G29G05G10G26G21G13G20G27G15
 115433672.759 8  89948317.572 8  21966297.336    21966297.478    21966298.809
  21966298.961          48.500          48.000
 131121972.794 7 102172981.584 6  24951683.515    24951683.437    24951683.750
  24951682.999          42.000          36.750
 123422614.564 7  96173466.698 7  23486542.456    23486542.988    23486546.468
  23486546.648          42.500          45.750
 128851892.954 6 100404074.868 6  24519701.565    24519701.178    24519706.802
  24519706.772          37.750          41.750
 111142988.686 7  86604931.98547  21149807.221    21149806.374
  21149807.618          46.750          46.0004
 117088542.606 7  91237824.15046  22281207.034    22281206.619
  22281207.839          47.500          36.0004
 110864858.556 7  86388208.80847  21096881.775    21096880.778
  21096882.205          47.750          43.2504
 128495506.056 6 100126364.667 6  24451880.818    24451880.855    24451884.425
  24451883.805          41.000          40.250
 108890608.809 8  84849823.178 8  20721191.572    20721191.844    20721193.038
  20721192.864          50.500          52.250
 20  1  4  0  5  0.0000000  0  8G29G05G10G21G13G20G27G15
 115527344.912 7  90021308.850 8  21984122.441    21984122.202    21984124.571
  21984124.167          47.750          48.000
 131222759.270 6 102251516.458 6  24970862.353    24970861.958    24970862.589
  24970861.656          40.500          36.500
 123338009.689 7  96107540.820 7  23470442.845    23470442.685    23470447.356
  23470447.046          42.250          46.250
 111114367.971 7  86582630.12047  21144360.509    21144360.188
  21144361.378          47.000          46.2504
 117132839.132 7  91272340.91145  22289635.937    22289635.991
  22289637.656          47.750          35.5004
 110808490.439 7  86344285.61747  21086154.273    21086153.460
  21086155.666          46.000          43.0004
 128396884.084 6 100049516.370 6  24433113.960    24433113.278    24433117.352
  24433116.729          41.250          40.000
 108891659.560 8  84850641.960 8  20721391.680    20721391.692    20721392.963
  20721392.780          51.000          52.250
 20  1  4  0  5 30.0000000  0  9G29G05G10G21G13G20G16G27G15
 115621365.324 8  90094571.506 8  22002013.934    22002014.032    22002015.836
  22002016.022          48.000          48.250
 131323519.435 6 102330030.946 6  24990035.329    24990035.990    24990036.520
  24990037.431          39.000          39.250
 123253588.674 7  96041758.216 7  23454378.196    23454378.444    23454382.042
  23454382.330          42.000          46.000
 111085960.771 7  86560494.63047  21138954.909    21138954.378
  21138955.635          46.750          46.0004
 117177705.785 7  91307301.94545  22298174.086    22298174.032
  22298175.277          47.750          35.7504
 110752418.308 7  86300593.06047  21075484.958    21075484.262
  21075485.482          47.500          43.5004
 126382246.554 6  98479672.77144  24049742.135    24049741.530
  24049743.707          36.250          25.2504
 128298503.292 6  99972856.019 6  24414392.726    24414392.640    24414395.567
  24414395.267          40.750          39.500
 108893358.162 8  84851965.560 8  20721714.882    20721714.961    20721716.543
  20721716.059          51.250          52.250
 20  1  4  0  6  0.0000000  0  9G29G05G10G21G13G20G27G15G26
 115715733.749 8  90168105.329 8  22019972.086    22019971.961    22019973.538
  22019973.413          48.250          48.000
 131424254.300 6 102408525.625 6  25009203.967    25009204.076    25009205.174
  25009205.495          36.250          39.250
 123169354.213 7  95976120.978 7  23438348.669    23438348.580    23438352.473
  23438353.068          42.000          46.000
 111057770.313 7  86538528.03447  21133590.477    21133590.033
  21133591.139          47.000          46.2504
 117223143.468 8  91342707.94245  22306820.922    22306820.573
  22306822.145          48.250          35.5004
 110696644.332 7  86257132.82347  21064870.822    21064869.806
  21064871.768          46.250          42.7504
 128200368.424 6  99896387.289 6  24395718.443    24395718.439    24395720.036
  24395720.477          40.250          39.250
 108895706.498 8  84853795.434 8  20722161.781    20722161.821    20722163.541
  20722163.056          50.500          52.500
 129042798.875 6 100552841.376 6  24556030.864    24556030.587    24556034.681
  24556034.464          37.000          36.750
 20  1  4  0  6 30.0000000  0 10G29G05G10G16G21G13G20G26G27G15
 115810446.851 7  90241907.744 7  22037994.936    22037994.893    22037997.077
  22037996.548          47.750          47.750
 131524961.784 6 102486999.061 6  25028368.625    25028369.474    25028369.315
  25028369.213          38.750          37.250
 123085306.136 7  95910628.965 7  23422354.980    23422355.186    23422358.657
  23422359.404          42.000          46.000
 126448490.551 6                  24062347.287
                        37.000
 111029797.681 7  86516731.17047  21128267.637    21128266.933
  21128268.085          47.000          46.0004
 117269149.503 8  91378556.79645  22315575.419    22315574.924
  22315576.485          48.500          35.5004
 110641168.383 7  86213904.82447  21054314.815    21054314.007
  21054315.734          47.000          44.0004
 129106996.442 6                  24568244.727
                        37.750
 128102481.338 6  99820111.616 6  24377091.418    24377090.563    24377093.602
  24377093.175          40.000          40.250
 108898703.370 8  84856130.672 8  20722731.987    20722732.148    20722733.327
  20722733.469          50.500          52.500
 20  1  4  0  7  0.0000000  0  9G29G05G10G21G13G20G26G27G15
 115905502.772 7  90315977.288 8  22056083.563    22056083.634    22056085.880
  22056085.471          47.750          48.000
 131625641.452 6 102565450.683 6  25047527.808    25047528.011    25047528.399
  25047528.882          41.000          40.000
 123001445.415 6  95845282.966 7  23406396.855    23406396.808    23406400.311
  23406400.804          41.500          45.500
 111002044.092 7  86495104.99347  21122986.254    21122985.578
  21122986.751          46.250          46.0004
 117315722.708 8  91414847.60945  22324437.777    22324437.818
  22324439.306          48.000          35.2504
 110585990.892 7  86170909.37647  21043814.158    21043813.209
  21043815.370          45.750          43.0004
 129171453.295 6 100653081.001 7  24580510.381    24580510.501    24580515.632
  24580515.385          36.500          43.000
 128004845.172 6  99744031.490 6  24358511.350    24358510.454    24358515.063
  24358514.040          40.000          41.000
 108902349.216 8  84858971.603 8  20723425.579    20723425.827    20723427.305
  20723427.090          50.250          52.500
 20  1  4  0  7 30.0000000  0  8G29G05G10G21G13G20G27G15
 116000899.806 8  90390312.639 7  22074236.856    22074237.144    22074238.976
  22074238.845          48.250          47.750
 131726293.299 6 102643880.681 6  25066680.567    25066681.469    25066682.728
  25066683.109          40.750          40.250
 122917773.532 6  95780084.102 7  23390474.200    23390474.643    23390478.295
  23390478.789          40.750          46.000
 110974511.210 7  86473650.79847  21117746.740    21117746.363
  21117747.452          47.750          46.0004
 117362862.190 8  91451579.67345  22333408.466    22333408.411
  22333409.192          48.000          35.0004
 110531113.007 7  86128147.39747  21033371.977    21033371.152
  21033372.411          47.750          44.0004
 127907463.407 6  99668149.598 7  24339979.653    24339979.838    24339983.763
  24339983.416          41.000          42.000
 108906644.293 8  84862318.417 8  20724243.134    20724243.189    20724244.479
  20724244.464          51.250          52.250
 20  1  4  0  8  0.0000000  0  8G29G05G10G21G13G20G27G15
 116096633.364 7  90464910.203 7  22092454.847    22092454.599    22092456.776
  22092456.656          47.750          47.750
 131826913.632 6 102722286.162 6  25085827.983    25085828.411    25085829.208
  25085828.699          40.500          38.000
 122834288.798 7  95715031.064 7  23374587.969    23374588.441    23374591.292
  23374591.667          42.250          45.750
 110947197.517 7  86452367.39747  21112549.258    21112548.681
  21112549.840          47.750          46.0004
 117410563.863 8  91488749.80245  22342486.020    22342485.739
  22342486.193          48.000          35.0004
 110476532.985 7  86085617.52647  21022984.360    21022983.952
  21022986.218          45.000          43.2504
 127810336.500 7  99592466.281 7  24321497.326    24321497.554    24321500.999
  24321501.359          42.000          42.250
 108911586.095 8  84866169.187 8  20725183.424    20725183.599    20725184.997
  20725184.697          51.000          52.250
 20  1  4  0  8 30.0000000  0  9G29G05G10G21G13G20G27G15G26
 116192701.643 8  90539768.597 7  22110735.932    22110736.052    22110737.905
  22110737.759          48.000          47.750
 131927502.341 6 102800666.957 6  25104969.998    25104970.012    25104970.494
  25104970.564          41.750          39.000
 122750992.636 7  95650124.954 7  23358737.404    23358737.616    23358741.337
  23358741.775          42.000          46.250
 110920104.754 7  86431256.14847  21107393.509    21107392.995
  21107394.204          47.750          46.0004
 117458826.759 7  91526357.25845  22351670.056    22351669.817
  22351670.874          47.750          35.0004
 110422251.934 7  86043320.59547  21012656.323    21012655.580
  21012656.834          46.750          44.0004
 127713467.902 7  99516984.239 7  24303064.004    24303064.689    24303067.521
  24303067.458          42.000          42.750
 108917174.826 8  84870524.044 8  20726246.921    20726246.991    20726248.388
  20726248.109          50.000          52.000
 129366414.167 6 100805000.076 6  24617610.825    24617610.969    24617615.418
  24617615.531          36.500          37.500
 20  1  4  0  9  0.0000000  0  9G29G05G10G21G13G20G26G27G15
 116289103.197 8  90614886.696 7  22129080.800    22129080.451    22129081.995
  22129082.033          48.250          47.500
 132028059.191 6 102879022.973 6  25124104.111    25124105.003    25124106.876
  25124106.674          39.750          39.250
 122667886.670 7  95585367.082 7  23342922.787    23342922.954    23342926.486
  23342926.616          42.000          45.750
 110893235.864 8  86410319.34547  21102280.518    21102279.888
  21102281.235          48.000          46.0004
 117507650.278 7  91564401.56145  22360960.464    22360960.436
  22360961.977          47.500          34.7504
 110368270.962 7  86001257.52247  21002383.106    21002382.312
  21002384.717          45.500          43.2504
 129431921.339 6                  24630075.724
                        36.500
 127616861.376 7  99441706.417 7  24284680.129    24284680.054    24284683.958
  24284684.017          42.250          43.000
 108923411.384 8  84875383.699 8  20727433.703    20727433.899    20727435.279
  20727434.836          51.500          52.250
 20  1  4  0  9 30.0000000  0  9G29G05G10G21G13G20G16G27G15
 116385834.958 7  90690262.100 7  22147487.697    22147487.783    22147489.552
  22147489.749          47.250          47.500
 132128582.672 6 102957352.928 6  25143233.647    25143234.601    25143235.130
  25143235.789          40.250          38.250
 122584970.668 7  95520757.199 7  23327144.682    23327144.410    23327148.241
  23327148.684          42.250          46.500
 110866590.346 8  86389556.59647  21097210.203    21097209.741
  21097210.803          48.500          46.0004
 117557031.703 7  91602880.58745  22370357.352    22370357.307
  22370358.530          47.250          35.0004
 110314589.704 7  85959427.96247  20992168.644    20992167.954
  20992169.353          47.250          43.7504
 126659267.711 6  98695531.44644  24102457.334    24102456.841
  24102458.338          36.500          24.2504
 127520518.713 6  99366634.194 7  24266347.283    24266347.035    24266350.868
  24266350.939          41.500          42.500
 108930294.313 8  84880747.027 8  20728743.321    20728743.543    20728745.101
  20728744.801          51.250          52.250
 20  1  4  0 10  0.0000000  0  9G29G05G10G16G21G13G20G27G15
 116482895.386 7  90765893.593 7  22165957.695    22165957.775    22165959.558
  22165959.965          47.250          47.500
 132229072.639 6 103035656.844 6  25162357.239    25162356.819    25162357.991
  25162358.122          41.000          39.250
 122502246.149 6  95456296.552 7  23311401.946    23311402.284    23311406.377
  23311406.710          41.500          46.250
 126696130.744 6                  24109472.849
                        36.750
 110840170.100 8  86368969.38747  21092182.719    21092181.916
  21092183.192          48.500          46.0004
 117606970.323 7  91641793.77545  22379860.793    22379860.015
  22379861.776          47.750          34.7504
 110261209.288 7  85917832.84747  20982010.310    20982009.575
  20982011.659          46.250          43.5004
 127424443.658 6  99291770.515 7  24248064.398    24248064.403    24248068.131
  24248068.254          41.250          42.500
 108937824.117 8  84886614.416 8  20730176.132    20730176.323    20730177.702
  20730177.767          51.000          52.500
 20  1  4  0 10 30.0000000  0  9G29G05G10G16G21G13G20G27G15
 116580282.431 7  90841779.600 7  22184490.020    22184489.796    22184492.045
  22184491.857          47.250          47.250
 132329528.896 6 103113934.401 6  25181472.219    25181472.518    25181473.693
  25181473.649          38.000          37.750
 122419714.156 7  95391985.905 7  23295696.729    23295696.733    23295700.602
  23295700.502          42.000          46.000
 126733490.977 6  98753369.29444  24116581.069    24116580.461
  24116582.188          37.250          24.0004
 110813976.986 8  86348559.16647  21087198.145    21087197.631
  21087198.857          48.500          46.0004
 117657464.732 7  91681140.09845  22389469.199    22389469.303
  22389470.030          47.500          34.7504
 110208130.763 7  85876472.95147  20971910.096    20971909.329
  20971910.924          47.000          44.0004
 127328639.263 6  99217117.725 7  24229833.936    24229833.186    24229836.314
  24229837.349          41.000          42.250
 108946000.924 8  84892985.957 8  20731732.213    20731732.377    20731733.805
  20731733.822          51.500          52.500
 20  1  4  0 11  0.0000000  0 10G29G05G10G16G21G13G20G26G27G15
 116677991.247 7  90917916.337 7  22203082.952    22203082.880    22203085.352
  22203085.118          46.750          47.250
 132429947.409 6 103192182.628 6  25200581.359    25200582.834    25200584.032
  25200582.763          38.750          39.000
 122337372.759 6  95327823.782 7  23280027.947    23280028.102    23280031.190
  23280031.575          41.750          45.750
 126771337.006 6  98782859.70544  24123783.743    24123783.553
  24123784.128          36.250          24.2504
 110788009.016 8  86328324.38247  21082256.414    21082256.117
  21082257.304          49.000          46.0004
 117708510.742 7  91720916.18945  22399182.718    22399182.833
  22399184.533          47.500          34.7504
 110155351.607 7  85835346.35547  20961866.064    20961865.646
  20961867.470          47.250          43.5004
 129696492.539 6 101062203.668 5  24680422.301    24680421.986    24680426.563
  24680426.208          37.000          35.500
 127233105.796 6  99142676.049 7  24211654.534    24211654.078    24211657.668
  24211658.044          41.250          42.500
 108954821.711 8  84899859.307 8  20733410.928    20733410.945    20733412.457
  20733412.141          52.000          52.750
 20  1  4  0 11 30.0000000  0  9G29G05G10G16G21G13G20G27G15
 116776021.580 7  90994303.606 7  22221737.878    22221737.766    22221739.366
  22221739.557          47.250          47.000
 132530330.107 6 103270402.923 5  25219684.194    25219684.286    25219686.284
  25219684.899          40.000          35.000
 122255225.085 7  95263812.611 7  23264395.390    23264395.358    23264399.591
  23264400.040          42.250          46.500
 126809670.449 6  98812729.69243  24131078.724    24131077.925
  24131079.361          36.750          23.0004
 110762270.488 8  86308268.37747  21077358.625    21077358.216
  21077359.347          48.750          45.7504
 117760108.873 7  91761122.52445  22409001.599    22409001.523
  22409002.400          47.000          34.7504
 110102874.722 7  85794455.25847  20951880.536    20951879.752
  20951881.626          47.750          44.0004
 127137848.486 6  99068449.571 7  24193527.409    24193526.809    24193530.310
  24193530.843          41.000          42.250
 108964288.352 8  84907235.923 8  20735212.255    20735212.393    20735213.674
  20735213.509          52.250          52.250
 20  1  4  0 12  0.0000000  0 10G29G05G10G16G21G13G20G26G27G15
 116874369.218 7  91070938.131 7  22240452.614    22240452.740    22240454.432
  22240454.880          47.500          46.750
 132630673.876 6 103348592.904 6  25238779.097    25238778.505    25238780.402
  25238779.246          39.000          37.000
 122173269.646 7  95199951.245 7  23248800.039    23248799.749    23248803.834
  23248804.421          42.500          46.500
 126848488.931 6  98842977.86643  24138465.172    24138464.052
  24138466.562          36.250          23.7504
 110736759.742 8  86288389.87447  21072504.432    21072503.516
  21072504.877          49.250          46.0004
 117812255.487 7  91801756.25345  22418924.906    22418924.749
  22418926.095          47.000          34.5004
 110050698.614 7  85753798.57147  20941951.320    20941950.769
  20941952.628          47.500          43.7504
 129830259.667 6 101166434.872 7  24705876.500    24705875.954    24705881.077
  24705881.720          36.500          44.000
 127042867.896 6  98994438.731 7  24175453.301    24175452.363    24175456.516
  24175457.131          41.000          42.500
 108974398.270 8  84915113.775 8  20737136.287    20737136.279    20737137.580
  20737137.512          52.500          52.250
 20  1  4  0 12 30.0000000  0 10G29G05G10G16G21G13G20G26G27G15
 116973032.363 7  91147818.502 7  22259227.793    22259227.742    22259229.874
  22259229.567          47.250          47.000
 132730978.404 6 103426752.271 5  25257866.039    25257866.263    25257866.486
  25257867.323          38.250          34.000
 122091507.888 7  95136240.787 7  23233240.901    23233241.440    23233245.402
  23233245.778          42.750          47.000
 126887788.658 6                  24145943.515
                        38.000
 110711478.788 8  86268690.41947  21067693.567    21067692.900
  21067694.015          49.750          46.0004
 117864948.897 7  91842816.04745  22428952.242    22428951.715
  22428953.182          46.750          34.7504
 109998823.995 7  85713376.77447  20932080.322    20932079.438
  20932081.246          47.750          44.0004
 129897493.607 6 101218828.638 5  24718671.369    24718672.352    24718676.379
  24718677.146          37.000          35.250
 126948167.594 6  98920646.301 7  24157432.141    24157431.595    24157435.164
  24157435.820          41.000          42.500
 108985151.641 8  84923493.024 8  20739182.462    20739182.715    20739184.008
  20739183.643          52.000          52.000
 20  1  4  0 13  0.0000000  0 10G29G05G10G16G26G21G13G20G27G15
 117072008.485 7  91224942.765 7  22278062.222    22278062.286    22278064.060
  22278064.153          47.500          47.000
 132831242.720 6 103504880.349 5  25276946.003    25276946.016    25276946.877
  25276946.541          36.750          35.000
 122009940.094 7  95072681.488 7  23217719.488    23217719.313    23217723.349
  23217723.927          42.500          47.000
 126927570.616 6  98904601.70943  24153514.304    24153513.354
  24153515.267          37.000          23.0004
 129964969.076 6 101271405.900 6  24731511.428    24731510.916    24731517.191
  24731515.939          36.750          37.000
 110686428.901 8  86249171.03047  21062926.773    21062926.080
  21062927.240          49.250          46.0004
 117918187.319 7  91884300.52945  22439083.214    22439083.261
  22439084.645          47.000          34.5004
 109947251.112 7  85673190.11647  20922265.897    20922265.462
  20922267.188          47.500          44.0004
 126853750.149 6  98847074.261 7  24139465.603    24139465.477    24139468.589
  24139468.006          41.750          42.750
 108996547.658 8  84932373.039 8  20741351.093    20741351.221    20741352.693
  20741352.232          53.000          52.000
 20  1  4  0 13 30.0000000  0 10G29G05G10G16G26G21G13G20G27G15
 117171295.761 7  91302309.477 7  22296955.842    22296956.176    22296957.803
  22296957.921          47.750          47.000
                 103582977.159 5                                  25296019.678
                                        34.750
 121928567.770 7  95009274.497 7  23202234.308    23202234.554    23202238.233
  23202238.783          42.750          46.000
 126967831.103 6  98935973.49043  24161175.584    24161174.702
  24161176.284          37.500          23.2504
 130032678.136 6 101324166.223 6  24744395.853    24744395.998    24744401.081
  24744401.668          37.750          41.250
 110661611.930 8  86229833.12647  21058204.062    21058203.559
  21058204.723          49.500          46.0004
 117971969.821 7  91926208.97545  22449317.564    22449317.351
  22449318.956          46.750          34.5004
 109895981.134 8  85633239.49247  20912510.013    20912509.007
  20912511.030          48.250          44.0004
 126759619.143 7  98773725.416 7  24121553.144    24121553.568    24121556.592
  24121557.120          42.000          43.750
 109008586.795 8  84941754.184 8  20743641.918    20743642.214    20743643.318
  20743643.401          52.750          52.000
 20  1  4  0 14  0.0000000  0  8G29G10G26G21G13G20G27G15
 117270891.335 7  91379916.417 7  22315908.308    22315908.214    22315910.606
  22315910.683          47.750          47.250
 121847391.313 7  94946020.111 7  23186787.595    23186787.570    23186790.770
  23186791.545          44.000          46.000
 130100617.550 6 101377106.034 6  24757325.359    24757324.950    24757328.842
  24757329.270          38.500          40.000
 110637028.539 8  86210677.23447  21053526.050    21053525.403
  21053526.724          49.000          46.2504
 118026294.281 7  91968539.70945  22459655.225    22459655.059
  22459656.760          46.250          34.5004
 109845014.369 8  85593525.13247  20902811.418    20902810.390
  20902812.157          48.000          44.2504
 126665777.064 7  98700601.717 7  24103695.957    24103695.455    24103699.030
  24103698.935          42.500          44.000
 109021268.098 8  84951635.733 8  20746054.934    20746055.275    20746056.767
  20746056.568          53.250          52.500
 20  1  4  0 14 30.0000000  0  9G29G10G16G26G21G13G20G27G15
 117370792.258 7  91457761.280 7  22334918.741    22334918.725    22334920.313
  22334920.919          47.750          46.750
 121766410.281 7  94882918.023 7  23171377.147    23171377.219    23171380.931
  23171380.985          44.000          46.250
 127049781.662 6  98999831.52343  24176770.022    24176769.578
  24176770.355          37.500          23.7504
 130168783.700 6 101430222.516 6  24770295.123    24770296.397    24770300.960
  24770301.951          37.000          40.750
 110612678.543 8  86191703.21247  21048892.587    21048891.869
  21048893.068          49.500          46.0004
 118081157.594 7  92011290.34445  22470095.674    22470095.606
  22470096.703          46.500          34.7504
 109794349.748 8  85554046.20347  20893169.968    20893169.436
  20893171.156          48.750          44.2504
 126572225.689 7  98627704.523 7  24085893.091    24085893.250    24085896.683
  24085896.886          42.250          43.750
 109034590.009 9  84962016.453 8  20748590.201    20748590.325    20748591.874
  20748591.598          54.000          52.250
 20  1  4  0 15  0.0000000  0  9G29G10G16G26G21G13G20G27G15
 117470996.329 7  91535842.374 7  22353986.921    22353987.122    22353989.238
  22353988.856          47.250          46.500
 121685625.762 7  94819969.056 7  23156004.462    23156004.624    23156008.067
  23156008.495          44.250          46.250
 127091464.844 6  99032311.92444  24184701.739    24184701.276
  24184702.896          37.500          24.5004
 130237173.938 6 101483513.610 6  24783310.678    24783311.178    24783314.836
  24783316.156          39.000          41.000
 110588563.576 8  86172912.31947  21044303.672    21044302.880
  21044304.126          49.500          46.0004
 118136558.589 7  92054459.93845  22480638.046    22480637.743
  22480639.235          46.500          34.2504
 109743988.091 8  85514803.36347  20883586.319    20883585.789
  20883587.518          48.500          44.2504
 126478968.183 7  98555036.323 7  24068146.597    24068146.259    24068149.903
  24068150.102          42.000          44.000
 109048552.066 9  84972895.980 8  20751246.960    20751247.248    20751248.503
  20751248.417          54.000          52.250
 20  1  4  0 15 30.0000000  0  9G29G10G16G26G21G13G20G27G15
 117571500.783 7  91614157.535 7  22373112.592    22373112.388    22373114.133
  22373114.315          47.750          46.250
 121605038.085 7  94757173.466 7  23140669.778    23140669.608    23140672.340
  23140672.891          44.750          46.250
 127133617.599 6  99065158.22944  24192723.149    24192723.094
  24192724.835          37.500          25.5004
 130305785.340 6 101536977.019 6  24796366.171    24796366.692    24796371.717
  24796371.839          37.250          41.500
 110564684.997 8  86154305.63147  21039759.621    21039758.963
  21039760.252          49.500          46.0004
 118192495.045 7  92098046.79145  22491282.501    22491282.105
  22491283.298          46.500          34.2504
 109693929.744 8  85475796.86247  20874060.901    20874060.062
  20874061.666          49.000          44.5004
 126386007.043 6  98482599.049 7  24050456.450    24050456.468    24050460.124
  24050460.669          41.500          43.750
 109063153.459 8  84984273.698 8  20754025.843    20754025.755    20754027.563
  20754026.917          53.750          52.500
 20  1  4  0 16  0.0000000  0  9G29G10G16G26G21G13G20G27G15
 117672303.999 8  91692705.497 7  22392294.976    22392294.451    22392296.839
  22392296.515          48.250          46.750
 121524648.669 7  94694532.369 7  23125371.492    23125371.608    23125374.878
  23125374.965          44.000          46.000
 127176238.394 6  99098369.19344  24200833.560    24200832.056
  24200834.712          36.750          24.0004
 130374615.875 6 101590611.213 6  24809464.718    24809465.069    24809469.316
  24809469.991          38.000          40.750
 110541044.578 8  86135884.51947  21035261.202    21035260.372
  21035261.550          49.500          46.2504
 118248965.331 7  92142049.61145  22502027.925    22502027.590
  22502029.727          46.000          34.2504
 109644175.733 8  85437027.51047  20864592.795    20864591.987
  20864593.854          48.750          44.5004
 126293345.901 6  98410395.547 7  24032824.107    24032823.393    24032827.358
  24032827.948          41.750          44.250
 109078394.171 9  84996149.578 8  20756926.091    20756926.187    20756927.328
  20756927.132          54.500          52.000
 20  1  4  0 16 30.0000000  0  9G29G10G16G26G21G13G20G27G15
 117773402.745 8  91771483.724 7  22411532.967    22411533.134    22411535.124
  22411534.893          48.500          46.250
 121444457.397 7  94632045.661 7  23110111.622    23110111.936    23110115.303
  23110115.966          44.250          46.500
 127219324.726 6  99131942.99444  24209033.038    24209031.840
  24209033.786          36.500          24.0004
 130443661.964 6 101644413.334 6  24822603.124    24822603.408    24822608.631
  24822610.028          37.000          41.250
 110517642.525 8  86117649.15247  21030807.790    21030807.123
  21030808.315          49.500          46.2504
 118305967.455 7  92186466.85045  22512874.459    22512875.038
  22512876.672          45.250          34.2504
 109594725.625 8  85398494.96347  20855182.882    20855182.290
  20855183.862          49.750          44.5004
 126200986.810 6  98338427.408 7  24015248.352    24015248.774    24015252.311
  24015252.469          41.750          44.500
 109094272.905 9  85008522.620 8  20759947.578    20759947.634    20759948.784
  20759948.762          54.500          52.250
 20  1  4  0 17  0.0000000  0  9G29G10G16G26G21G13G20G27G15
 117874794.364 8  91850490.197 7  22430827.072    22430827.208    22430828.656
  22430828.878          48.250          45.750
 121364464.619 7  94569713.649 7  23094889.182    23094889.449    23094893.079
  23094893.939          44.500          47.250
 127262874.220 6  99165877.61743  24217319.221    24217318.252
  24217321.413          37.250          23.5004
 130512920.517 6 101698381.026 6  24835783.731    24835783.007    24835788.798
  24835788.370          39.000          41.250
 110494479.939 8  86099600.38047  21026400.148    21026399.439
  21026400.560          50.000          46.2504
 118363499.162 7  92231296.75645  22523822.601    22523822.766
  22523824.391          45.250          34.2504
 109545579.436 8  85360199.24947  20845830.433    20845829.717
  20845831.419          49.250          44.5004
 126108932.263 6  98266696.566 7  23997731.332    23997731.396    23997735.447
  23997734.908          41.500          45.000
 109110788.385 9  85021391.836 8  20763090.258    20763090.414    20763091.613
  20763091.454          54.500          52.000
 20  1  4  0 17 30.0000000  0  9G29G10G16G26G21G13G20G27G15
 117976476.096 8  91929722.716 7  22450176.949    22450176.713    22450178.662
  22450178.367          48.750          46.000
 121284670.801 7  94507536.670 7  23079705.553    23079705.604    23079709.248
  23079709.639          44.250          47.250
 127306884.475 6  99200171.30644  24225694.538    24225693.711
  24225696.159          38.500          24.2504
 130582388.559 6 101752511.937 6  24849002.408    24849002.476    24849008.120
  24849007.956          38.500          41.000
 110471557.813 8  86081738.97847  21022038.076    21022037.645
  21022038.639          49.750          46.2504
 118421557.806 7  92276537.24245  22534870.446    22534871.376
  22534872.524          44.250          34.2504
 109496736.913 8  85322140.14147  20836536.037    20836535.296
  20836537.085          49.000          44.2504
 126017184.917 6  98195205.124 7  23980271.738    23980272.147    23980276.051
  23980275.857          41.250          44.500
 109127939.971 9  85034756.720 8  20766354.223    20766354.394    20766355.621
  20766355.448          54.750          52.000
 20  1  4  0 18  0.0000000  0  9G29G10G16G26G21G13G20G27G15
 118078445.874 8  92009179.683 7  22469580.763    22469580.751    22469582.945
  22469583.004          48.000          46.500
 121205077.183 7  94445515.671 7  23064559.183    23064559.164    23064562.458
  23064562.825          45.000          46.500
 127351353.623 6  99234822.61044  24234157.783    24234156.452
  24234158.472          39.000          24.5004
 130652063.898 6 101806804.407 6  24862261.772    24862261.372    24862266.246
  24862265.902          38.000          39.750
 110448877.904 8  86064066.31147  21017722.201    21017721.684
  21017722.799          49.750          46.2504
 118480142.173 7  92322187.41745  22546019.726    22546019.818
  22546020.618          46.000          34.5004
 109448199.738 8  85284318.98447  20827299.749    20827299.098
  20827300.815          49.500          44.5004
 125925748.175 6  98123955.707 7  23962872.542    23962872.610    23962875.600
  23962875.862          41.500          43.750
 109145727.647 9  85048617.253 8  20769738.860    20769739.166    20769740.347
  20769740.182          54.500          52.000
 20  1  4  0 18 30.0000000  0  9G29G10G16G26G21G13G20G27G15
 118180701.234 8  92088859.164 7  22489039.794    22489039.605    22489041.339
  22489041.272          48.500          46.500
 121125683.620 7  94383650.559 7  23049451.177    23049451.393    23049454.223
  23049454.937          45.250          46.250
 127396278.621 6  99269829.11644  24242705.193    24242704.812
  24242707.136          37.750          24.7504
 130721942.922 6 101861255.591 6  24875558.119    24875558.937    24875564.649
  24875564.731          37.250          40.500
 110426440.469 8  86046582.59547  21013452.614    21013452.044
  21013453.168          50.000          46.0004
 118539249.642 7  92368245.17345  22557267.180    22557267.053
  22557268.367          45.000          34.0004
 109399967.306 8  85246735.28247  20818121.547    20818120.644
  20818122.296          49.000          44.5004
 125834624.055 6  98052949.882 7  23945532.428    23945532.058    23945534.804
  23945535.205          41.250          43.750
 109164149.666 9  85062972.078 8  20773244.340    20773244.627    20773246.266
  20773245.948          54.500          52.500
 20  1  4  0 19  0.0000000  0  9G29G10G16G26G21G13G20G27G15
 118283239.205 8  92168758.892 7  22508552.372    22508552.112    22508553.981
  22508553.314          48.750          46.000
 121046490.561 7  94321941.691 7  23034381.146    23034381.587    23034385.039
  23034385.546          45.000          47.500
 127441657.549 6  99305189.28744  24251341.740    24251341.158
  24251342.397          39.750          24.7504
 130792022.694 6 101915863.222 6  24888894.181    24888894.587    24888899.217
  24888899.851          37.000          39.250
 110404246.819 8  86029288.83347  21009229.336    21009228.714
  21009229.699          49.750          46.0004
 118598877.912 7  92414708.76945  22568614.189    22568614.187
  22568615.557          45.000          34.0004
 109352039.613 8  85209389.04547  20809000.910    20809000.231
  20809002.198          49.000          44.7504
 125743815.218 6  97982189.723 7  23928252.073    23928251.266    23928255.133
  23928255.337          41.500          43.500
 109183204.810 9  85077820.253 8  20776870.614    20776870.643    20776872.365
  20776871.954          54.500          52.000
 20  1  4  0 19 30.0000000  0  9G29G10G16G21G13G20G05G27G15
 118386057.794 7  92248877.273 7  22528117.240    22528117.310    22528119.401
  22528119.293          47.750          46.000
 120967499.190 7  94260389.992 7  23019349.219    23019349.815    23019353.045
  23019353.469          45.000          46.750
 127487488.755 6  99340901.92444  24260062.151    24260062.342
  24260064.205          39.250          24.5004
 110382298.495 8  86012186.24147  21005052.805    21005052.125
  21005053.184          49.750          46.2504
 118659025.650 7  92461577.12445  22580059.793    22580060.086
  22580061.243          44.500          33.5004
 109304417.839 8  85172281.17147  20799939.205    20799938.400
  20799940.015          49.250          44.5004
 134130565.996 6 104517386.187 6  25524212.843    25524213.945    25524214.817
  25524213.989          39.250          41.250
 125653325.045 6  97911677.882 7  23911031.664    23911031.740    23911035.130
  23911035.616          41.000          43.750
 109202892.944 9  85093161.664 8  20780617.335    20780617.275    20780618.437
  20780618.510          54.250          52.000
 20  1  4  0 20  0.0000000  0  9G29G10G16G21G13G20G05G27G15
 118489153.868 7  92329211.873 7  22547736.022    22547736.292    22547737.933
  22547738.002          47.750          46.000
 120888709.395 7  94198995.341 7  23004356.286    23004356.244    23004360.286
  23004360.882          44.750          47.000
 127533769.218 6  99376964.62544  24268869.842    24268869.312
  24268870.824          39.750          25.7504
 110360595.776 8  85995275.02447  21000922.655    21000922.162
  21000923.300          49.750          46.0004
 118719690.138 7  92508848.16445  22591603.591    22591604.280
  22591605.136          44.000          33.0004
 109257101.217 8  85135411.08947  20790934.751    20790934.099
  20790935.875          49.250          44.2504
 134230178.073 6 104595005.962 6  25543168.701    25543169.153    25543169.183
  25543169.198          38.500          38.500
 125563155.602 6  97841415.953 7  23893873.579    23893872.825    23893876.470
  23893876.609          41.500          43.750
 109223212.638 9  85108995.194 8  20784484.094    20784484.009    20784485.381
  20784485.240          54.750          52.250
 20  1  4  0 20 30.0000000  0  9G29G10G16G21G13G20G05G27G15
 118592525.015 8  92409760.825 7  22567407.131    22567407.025    22567408.738
  22567408.843          48.750          45.750
 120810122.161 7  94137758.540 7  22989401.610    22989401.374    22989405.261
  22989405.990          44.750          47.250
 127580496.899 6  99413375.79844  24277760.611    24277760.490
  24277762.964          38.250          24.2504
 110339140.339 8  85978556.50147  20996840.028    20996839.283
  20996840.393          50.250          46.0004
 118780869.722 7  92556520.55445  22603246.711    22603245.791
  22603246.932          44.750          33.2504
 109210090.577 8  85098779.43347  20781988.827    20781988.338
  20781990.150          49.250          44.5004
 134329737.578 6 104672584.778 6  25562114.844    25562114.290    25562116.544
  25562115.636          38.500          37.250
 125473310.051 6  97771406.437 7  23876776.423    23876775.607    23876780.179
  23876780.525          41.500          44.000
 109244163.173 9  85125320.294 8  20788470.731    20788470.784    20788472.176
  20788471.946          54.250          52.250
 20  1  4  0 21  0.0000000  0  9G29G10G16G21G13G20G05G27G15
 118696168.436 8  92490521.916 7  22587129.688    22587129.614    22587131.138
  22587131.323          48.000          45.500
 120731737.335 7  94076679.459 7  22974485.579    22974485.409    22974488.911
  22974489.581          45.250          46.750
 127627668.869 6  99450133.14944  24286738.582    24286737.879
  24286739.659          40.500          24.7504
 110317932.338 8  85962030.78747  20992804.048    20992803.509
  20992804.712          49.750          46.2504
 118842561.560 7  92604592.11945  22614985.568    22614986.186
  22614987.262          44.750          33.0004
 109163385.504 8  85062385.87747  20773101.550    20773100.727
  20773102.547          49.250          44.7504
 134429243.163 6 104750121.569 5  25581049.398    25581048.364    25581050.338
  25581049.161          36.250          35.250
 125383790.413 6  97701650.878 7  23859741.061    23859740.883    23859744.862
  23859744.672          40.750          44.000
 109265742.898 9  85142135.664 8  20792577.216    20792577.168    20792578.616
  20792578.274          54.000          52.250
 20  1  4  0 21 30.0000000  0  8G29G10G16G21G13G20G27G15
 118800081.216 7  92571492.903 7  22606903.526    22606903.395    22606904.984
  22606905.364          47.750          45.750
 120653555.212 7  94015758.325 7  22959607.892    22959607.675    22959611.296
  22959612.183          45.500          47.250
 127675282.435 6  99487234.62643  24295797.888    24295798.020
  24295799.562          39.000          23.7504
 110296973.097 8  85945698.90847  20988815.770    20988815.145
  20988816.324          49.500          46.0004
 118904763.367 7  92653061.06345  22626822.523    22626822.324
  22626823.432          44.750          33.5004
 109116986.255 8  85026230.62947  20764271.894    20764271.083
  20764272.779          49.500          44.7504
 125294599.189 6  97632151.219 7  23842769.026    23842768.483    23842772.429
  23842773.038          41.500          44.500
 109287950.716 9  85159440.457 8  20796803.119    20796803.339    20796804.464
  20796804.348          54.250          52.000
 20  1  4  0 22  0.0000000  0  8G29G10G16G21G13G20G27G15
 118904262.052 8  92652672.790 7  22626728.717    22626729.104    22626730.448
  22626730.592          48.750          45.500
 120575577.480 7  93954996.462 7  22944769.040    22944769.163    22944773.171
  22944773.031          45.250          47.250
 127723336.443 6  99524679.29243  24304943.268    24304942.813
  24304943.735          40.000          23.5004
 110276265.087 8  85929562.79647  20984875.101    20984874.455
  20984875.791          50.000          46.0004
 118967474.013 7  92701926.49645  22638755.659    22638755.534
  22638756.746          44.250          33.0004
 109070893.823 8  84990314.47047  20755500.764    20755499.927
  20755501.755          49.500          44.7504
 125205740.282 6  97562910.517 7  23825859.621    23825859.213    23825863.016
  23825862.896          41.250          44.750
 109310786.754 9  85177234.779 8  20801148.703    20801148.820    20801149.854
  20801149.872          54.000          51.750
 20  1  4  0 22 30.0000000  0  8G29G10G16G21G13G20G27G15
 119008706.991 8  92734058.464 7  22646604.023    22646603.852    22646605.558
  22646605.610          48.250          45.750
 120497803.399 7  93894393.290 7  22929969.377    22929968.977    22929973.064
  22929973.371          45.250          47.750
 127771827.075 6  99562464.16943  24314170.269    24314169.992
  24314171.216          40.000          23.7504
 110255807.907 8  85913622.12947  20980982.399    20980981.611
  20980982.860          50.000          46.2504
 119030689.874 7  92751185.61145  22650785.570    22650785.604
  22650786.583          44.750          33.2504
 109025107.402 8  84954636.75247  20746787.941    20746787.193
  20746788.941          49.500          44.7504
 125117215.119 6  97493929.877 7  23809013.790    23809013.658    23809017.432
  23809017.553          41.750          45.000
 109334248.373 9  85195516.564 8  20805613.383    20805613.448    20805614.703
  20805614.532          54.250          51.750
 20  1  4  0 23  0.0000000  0  8G29G10G16G21G13G20G27G15
 119113414.778 7  92815648.944 7  22666528.443    22666528.589    22666531.141
  22666530.799          47.500          46.000
 120420234.818 7  93833950.239 7  22915208.619    22915208.382    22915211.843
  22915212.690          45.750          47.000
 127820753.752 6  99600588.85843  24323480.303    24323479.777
  24323481.446          39.000          23.5004
 110235603.949 8  85897878.78247  20977137.588    20977137.039
  20977138.188          49.750          46.0004
 119094410.286 7  92800837.87945  22662911.022    22662910.503
  22662912.803          45.250          33.0004
 108979628.798 8  84919198.89647  20738133.598    20738132.971
  20738134.558          49.750          44.7504
 125029027.796 6  97425212.483 7  23792232.379    23792232.092    23792235.549
  23792235.788          41.500          45.250
 109358336.141 9  85214286.259 8  20810197.029    20810197.149    20810198.549
  20810198.274          54.000          52.000
 20  1  4  0 23 30.0000000  0  9G29G10G16G26G21G13G20G27G15
 119218382.456 7  92897441.918 7  22686503.762    22686503.584    22686505.654
  22686505.605          47.250          45.750
 120342871.443 7  93773667.092 8  22900486.859    22900487.255    22900490.681
  22900491.162          46.250          48.000
 127870112.814 6  99639050.48344  24332873.525    24332873.135
  24332875.027          41.000          24.5004
 131431308.173 6 102414006.274 5  25010545.772    25010546.509    25010552.065
  25010550.350          38.000          35.000
 110215653.572 8  85882333.02547  20973341.121    20973340.542
  20973341.761          49.500          46.0004
 119158632.231 7  92850880.95445  22675131.664    22675131.559
  22675133.104          44.250          33.0004
 108934457.109 8  84884000.18847  20729537.558    20729536.950
  20729538.535          49.250          44.7504
 124941180.145 6  97356759.763 7  23775515.048    23775515.026    23775518.700
  23775519.068          41.750          45.250
 109383047.747 8  85233542.061 8  20814899.486    20814899.634    20814900.798
  20814900.748          53.750          51.750
 20  1  4  0 24  0.0000000  0  9G29G10G16G26G21G13G20G27G15
 119323605.966 7  92979434.274 7  22706527.112    22706526.901    22706529.180
  22706529.085          47.750          45.750
 120265712.817 7  93713543.484 7  22885804.162    22885804.063    22885807.773
  22885808.050          46.000          47.750
 127919900.939 6  99677846.43143  24342347.785    24342347.222
  24342348.034          39.750          22.2504
 131503236.668 6 102470054.459 6  25024233.499    25024234.269    25024238.559
  25024238.290          38.750          39.000
 110195956.750 8  85866984.85347  20969593.175    20969592.369
  20969593.613          49.500          45.7504
 119223352.450 7  92901312.27945  22687447.560    22687448.232
  22687449.642          44.750          33.0004
 108889591.691 8  84849040.14747  20721000.144    20720999.387
  20721001.195          49.750          44.7504
 124853673.952 7  97288573.136 7  23758863.590    23758862.709    23758867.083
  23758867.252          42.250          45.000
 109408381.371 9  85253282.551 8  20819720.122    20819720.472    20819721.942
  20819721.632          54.000          52.000
 20  1  4  0 24 30.0000000  0  9G29G10G16G26G21G13G20G27G15
 119429084.533 7  93061625.361 7  22726599.464    22726599.049    22726600.932
  22726600.541          47.500          45.250
 120188761.254 7  93653581.251 8  22871160.056    22871160.707    22871164.362
  22871164.877          45.750          48.000
 127970117.974 6  99716976.57643  24351904.021    24351903.385
  24351905.671          40.000          22.7504
 131575334.924 6 102526234.909 6  25037953.005    25037952.758    25037959.824
  25037958.702          36.500          38.500
 110176516.695 8  85851836.75247  20965893.852    20965893.161
  20965894.197          50.000          46.2504
 119288570.568 7  92952131.60145  22699858.479    22699858.252
  22699859.683          45.500          33.0004
 108845034.488 8  84814320.25547  20712520.964    20712520.354
  20712522.097          49.500          44.7504
 124766513.725 7  97220656.076 7  23742277.704    23742276.852    23742281.076
  23742280.734          42.750          45.000
 109434337.214 8  85273507.887 8  20824659.458    20824659.661    20824661.083
  20824660.778          53.500          51.750
 20  1  4  0 25  0.0000000  0  9G29G10G16G26G21G13G20G27G15
 119534814.223 7  93144012.138 7  22746718.706    22746718.510    22746720.655
  22746720.459          47.750          45.250
 120112015.751 7  93593779.553 7  22856556.078    22856556.309    22856559.874
  22856560.371          45.750          47.500
 128020759.545 6  99756437.54843  24361540.342    24361539.280
  24361542.331          39.000          23.7504
 131647598.529 6 102582544.200 6  25051703.691    25051704.726    25051709.743
  25051710.202          36.250          39.250
 110157332.916 8  85836888.34947  20962243.232    20962242.484
  20962243.688          49.500          46.0004
 119354282.824 7  93003335.95445  22712363.096    22712362.600
  22712364.515          45.750          33.2504
 108800784.458 8  84779839.72747  20704100.614    20704100.032
  20704101.655          50.000          44.7504
 124679700.653 7  97153009.525 7  23725757.473    23725757.007    23725760.868
  23725760.644          42.000          45.250
 109460913.250 8  85294216.493 8  20829716.781    20829716.898    20829718.045
  20829718.131          53.500          52.000
 20  1  4  0 25 30.0000000  0  8G29G10G16G21G13G20G27G15
 119640793.153 7  93226593.116 7  22766885.994    22766885.733    22766888.024
  22766887.439          47.750          45.750
 120035477.397 7  93534139.296 7  22841991.643    22841991.770    22841995.155
  22841995.486          45.750          47.750
 128071823.881 6  99796227.89943  24371257.452    24371257.558
  24371259.576          40.000          22.5004
 110138407.076 8  85822140.93947  20958641.538    20958641.047
  20958642.207          49.250          46.0004
 119420487.681 7  93054924.16045  22724961.474    22724961.566
  22724962.509          45.750          32.5004
 108756842.411 8  84745599.18847  20695738.620    20695737.761
  20695739.663          50.000          45.0004
 124593238.041 7  97085636.045 7  23709303.557    23709303.772    23709307.386
  23709308.077          42.000          45.000
 109488108.339 8  85315407.472 8  20834891.777    20834891.920    20834893.102
  20834893.214          53.250          51.500
 20  1  4  0 26  0.0000000  0  8G29G10G16G21G13G20G27G15
 119747017.585 7  93309365.389 7  22787099.272    22787099.810    22787101.867
  22787101.689          47.500          45.750
 119959145.607 7  93474659.990 7  22827466.400    22827466.258    22827469.729
  22827470.249          46.000          47.750
 128123307.291 6  99836344.86544  24381055.329    24381055.379
  24381056.364          40.250          24.5004
 110119739.362 8  85807594.66247  20955089.350    20955088.753
  20955089.927          49.750          46.0004
 119487181.562 7  93106893.43345  22737653.072    22737653.346
  22737654.280          45.750          32.7504
 108713206.876 8  84711597.48447  20687435.196    20687434.376
  20687436.045          50.000          45.0004
 124507127.487 7  97018536.901 7  23692917.977    23692917.728    23692921.395
  23692921.392          42.500          45.250
 109515920.795 8  85337079.525 8  20840184.220    20840184.442    20840185.837
  20840185.680          52.750          51.500
 20  1  4  0 26 30.0000000  0  9G29G26G10G16G21G13G20G27G15
 119853486.553 7  93392328.235 7  22807360.011    22807360.150    22807362.187
  22807361.303          47.500          44.500
 131865365.542 6 102752222.152 5  25093142.691                    25093148.270
                        36.250          33.250
 119883022.450 7  93415343.249 7  22812980.688    22812980.532    22812983.886
  22812984.101          46.500          47.500
 128175208.884 6  99876787.64243  24390931.460    24390930.930
  24390931.837          39.750          22.7504
 110101332.150 8  85793251.37647  20951586.502    20951585.856
  20951587.162          50.000          46.0004
 119554363.835 7  93159243.24145  22750436.916    22750436.519
  22750438.484          45.250          32.0004
 108669880.441 8  84677836.63047  20679190.370    20679189.725
  20679191.441          50.000          45.2504
 124421373.319 7  96951715.449 7  23676599.290    23676599.508    23676603.117
  23676603.076          42.750          45.500
 109544350.510 8  85359232.551 8  20845594.253    20845594.476    20845595.847
  20845595.640          53.000          51.750
 20  1  4  0 27  0.0000000  0  8G29G10G16G21G13G20G27G15
 119960197.049 7  93475479.283 7  22827666.056    22827666.268    22827668.419
  22827668.011          47.500          44.750
 119807108.128 7  93356189.221 7  22798534.318    22798534.779    22798537.751
  22798537.761          46.500          47.750
 128227525.851 6  99917554.12543  24400887.102    24400886.018
  24400888.016          39.250          23.7504
 110083186.711 8  85779112.06547  20948133.899    20948133.053
  20948134.186          50.000          46.2504
 119622032.034 7  93211971.71645  22763313.827    22763313.966
  22763315.249          44.750          32.2504
 108626862.847 8  84644316.43547  20671004.303    20671003.684
  20671005.414          50.250          45.2504
 124335977.870 7  96885173.535 7  23660348.714    23660348.438    23660353.449
  23660352.798          43.500          46.000
 109573395.641 8  85381865.129 8  20851121.535    20851121.449    20851122.849
  20851122.611          52.500          51.500
 20  1  4  0 27 30.0000000  0  8G29G10G16G21G13G20G27G15
 120067145.657 7  93558815.852 7  22848017.650    22848017.744    22848020.289
  22848019.995          47.250          45.500
 119731402.023 7  93297197.468 7  22784127.490    22784127.894    22784131.528
  22784131.837          46.000          47.500
 128280254.698 6  99958641.52143  24410920.538    24410920.321
  24410921.311          38.500          21.2504
 110065303.032 8  85765176.73347  20944730.510    20944729.655
  20944730.957          49.750          46.2504
 119690182.888 7  93265076.28845  22776282.671    22776282.485
  22776283.619          45.000          31.7504
 108584152.867 8  84611035.93247  20662876.914    20662876.359
  20662877.995          50.500          45.0004
 124250942.751 7  96818912.388 7  23644167.990    23644167.784    23644171.777
  23644171.543          43.750          46.000
 109603054.097 8  85404975.617 8  20856765.356    20856765.347    20856766.798
  20856766.533          52.500          51.750
 20  1  4  0 28  0.0000000  0  9G29G26G10G16G21G13G20G27G15
 120174330.026 7  93642336.139 7  22868414.236    22868414.093    22868416.678
  22868416.790          47.500          45.750
 132084505.619 6                  25134845.106
                        36.750
 119655905.023 7  93238368.640 8  22769761.386    22769761.551    22769764.859
  22769765.573          46.750          48.250
 128333393.295 6 100000048.20143  24421033.783    24421032.694
  24421033.895          39.000          21.5004
 110047682.382 8  85751446.35247  20941377.205    20941376.746
  20941377.982          49.750          46.2504
 119758814.222 7  93318555.23345  22789342.792    22789342.297
  22789344.394          45.000          32.2504
 108541751.355 8  84577995.80847  20654808.070    20654807.442
  20654809.095          50.500          45.0004
 124166271.086 7  96752934.459 7  23628054.928    23628054.805    23628058.840
  23628059.067          43.500          46.000
 109633324.823 8  85428563.199 8  20862525.663    20862525.820    20862527.046
  20862526.740          52.750          51.500
 20  1  4  0 28 30.0000000  0  9G29G26G10G16G21G13G20G27G15
 120281747.561 7  93726038.116 7  22888854.973    22888854.950    22888858.074
  22888857.064          46.750          45.000
 132157848.085 6 102980137.934 6  25148799.834    25148799.130    25148805.481
  25148805.073          36.000          40.000
 119580617.515 7  93179703.068 8  22755434.719    22755434.618    22755438.288
  22755439.028          46.750          48.500
 128386938.755 6 100041771.93343  24431222.162    24431221.677
  24431223.533          39.250          21.0004
 110030325.787 8  85737921.73147  20938074.253    20938073.825
  20938075.078          49.250          46.0004
 119827923.469 7  93372406.59045  22802493.652    22802493.407
  22802494.964          44.500          32.2504
 108499658.398 8  84545196.10247  20646798.099    20646797.464
  20646799.265          50.250          45.2504
 124081965.405 7  96687241.720 7  23612012.437    23612012.015    23612016.034
  23612016.061          43.500          45.750
 109664206.607 8  85452626.932 8  20868402.523    20868402.416    20868403.548
  20868403.313          52.750          51.750
 20  1  4  0 29  0.0000000  0  9G29G26G10G16G21G13G20G27G15
 120389395.625 7  93809919.725 7  22909340.025    22909340.418    22909341.690
  22909341.942          47.250          44.250
 132231332.576 6 103037398.533 6  25162784.074    25162784.586    25162788.966
  25162789.112          36.250          37.750
 119505540.237 7  93121201.294 7  22741147.968    22741148.145    22741151.267
  22741151.317          47.000          47.750
 128440889.330 6 100083811.37743  24441489.470    24441488.798
  24441489.563          39.750          21.7504
 110013234.900 8  85724604.15447  20934821.987    20934821.497
  20934822.754          49.250          46.0004
 119897508.721 7  93426628.85145  22815735.598    22815735.511
  22815736.411          44.750          32.2504
 108457874.608 8  84512637.31447  20638846.729    20638846.308
  20638847.897          50.250          45.2504
 123998028.711 7  96621836.493 7  23596039.584    23596039.854    23596043.442
  23596043.768          43.750          46.000
 109695698.044 8  85477165.722 8  20874395.030    20874394.856    20874396.424
  20874396.020          52.250          51.750
 20  1  4  0 29 30.0000000  0  8G29G10G16G21G13G20G27G15
 120497270.851 7  93893978.359 7  22929868.128    22929867.927    22929869.900
  22929869.519          47.500          44.250
 119430672.687 7  93062862.947 8  22726901.418    22726901.208    22726905.149
  22726905.115          47.000          48.250
 128495241.032 6 100126163.34943  24451831.540    24451830.865
  24451833.293          38.000          22.5004
 109996409.780 8  85711493.67047  20931620.497    20931619.790
  20931621.129          49.500          46.0004
 119967566.908 7  93481219.65945  22829067.518    22829067.111
  22829068.208          45.250          32.7504
 108416399.180 8  84480318.80347  20630954.450    20630953.746
  20630955.567          50.000          45.5004
 123914462.697 7  96556720.109 7  23580137.642    23580137.771    23580141.622
  23580140.632          43.500          46.000
 109727796.841 8  85502177.781 8  20880503.044    20880503.252    20880504.555
  20880504.114          52.750          51.500
 20  1  4  0 30  0.0000000  0  8G29G10G16G21G13G20G27G15
 120605372.633 7  93978213.522 7  22950439.058    22950439.188    22950440.837
  22950440.848          46.000          44.500
 119356017.485 7  93004690.081 8  22712694.622    22712694.845    22712698.603
  22712698.909          46.750          48.750
 128549993.767 6 100168827.79543  24462250.620    24462250.120
  24462252.681          38.000          21.7504
 109979853.594 8  85698592.73747  20928469.977    20928469.246
  20928470.611          49.250          46.2504
 120038097.372 7  93536178.45345  22842488.685    22842488.626
  22842489.900          44.750          32.2504
 108375234.236 8  84448242.21447  20623121.297    20623120.406
  20623121.963          50.500          45.2504
 123831272.168 7  96491896.303 7  23564307.045    23564306.818    23564310.205
  23564310.667          43.750          45.750
 109760503.901 8  85527663.800 8  20886727.075    20886727.107    20886728.467
  20886728.207          52.500          51.500
 20  1  4  0 30 30.0000000  0  8G29G10G16G21G13G20G27G15
 120713696.498 7  94062621.719 7  22971052.092    22971052.165    22971054.715
  22971055.145          45.500          45.000
 119281573.067 7  92946681.451 8  22698527.734    22698528.204    22698531.894
  22698532.033          46.750          48.500
 128605142.748 6 100211801.01843  24472745.058    24472745.195
  24472746.932          38.750          23.7504
 109963565.573 8  85685900.76347  20925370.429    20925369.863
  20925371.003          49.250          46.2504
 120109096.004 7  93591502.07445  22855999.084    22855999.042
  22856000.477          44.500          32.2504
 108334378.093 8  84416406.26047  20615346.395    20615345.726
  20615347.460          50.000          45.5004
 123748457.795 7  96427365.599 7  23548548.021    23548548.069    23548551.555
  23548551.230          43.500          45.750
 109793815.666 8  85553621.025 8  20893066.103    20893066.059    20893067.268
  20893067.203          52.250          51.500
 20  1  4  0 31  0.0000000  0  8G29G10G16G21G13G20G27G15
 120822240.222 7  94147201.220 7  22991707.430    22991707.330    22991709.874
  22991709.850          46.000          44.250
 119207340.371 7  92888837.808 8  22684402.286    22684402.586    22684406.317
  22684406.565          46.750          49.000
 128660685.522 6 100255081.05643  24483314.451    24483313.462
  24483315.321          38.500          22.5004
 109947547.248 8  85673418.94647  20922322.227    20922321.799
  20922322.868          49.500          46.5004
 120180560.559 7  93647188.73945  22869598.854    22869598.267
  22869599.889          44.750          32.2504
 108293831.445 8  84384811.46847  20607630.699    20607629.961
  20607631.544          50.500          45.5004
 123666022.646 7  96363130.422 7  23532861.323    23532861.162    23532864.804
  23532864.602          43.500          46.000
 109827731.042 8  85580048.591 8  20899519.692    20899519.804    20899521.037
  20899521.013          52.500          51.500
 20  1  4  0 31 30.0000000  0  8G29G10G16G21G13G20G27G15
 120931001.077 7  94231949.957 7  23012404.315    23012404.584    23012405.421
  23012405.943          46.500          43.750
 119133319.529 7  92831159.245 8  22670317.003    22670316.895    22670320.247
  22670320.639          47.250          48.500
 128716619.728 6 100298666.16943  24493959.358    24493958.331
  24493959.612          39.000          23.5004
 109931799.523 8  85661147.98647  20919325.764    20919325.044
  20919326.137          50.000          46.0004
 120252488.798 7  93703236.70845  22883286.001    22883285.957
  22883287.268          44.250          31.7504
 108253593.912 8  84353457.54947  20599973.594    20599972.895
  20599974.775          50.250          45.2504
 123583969.102 7  96299192.589 7  23517246.766    23517246.872    23517250.903
  23517250.823          43.250          46.250
 109862248.337 8  85606945.192 8  20906088.144    20906088.349    20906089.724
  20906089.568          52.750          51.750
 20  1  4  0 32  0.0000000  0  8G29G10G16G21G13G20G27G15
 121039976.676 7  94316866.009 7  23033141.573    23033141.558    23033143.135
  23033143.662          46.000          44.250
 119059511.446 7  92773646.454 8  22656271.355    22656271.489    22656275.155
  22656275.423          47.000          48.750
 128772942.946 6 100342554.38543  24504676.955    24504676.365
  24504676.884          38.250          21.0004
 109916323.998 8  85649089.12747  20916380.957    20916380.244
  20916381.354          49.750          46.2504
 120324878.617 7  93759644.36145  22897061.294    22897061.130
  22897062.400          44.250          31.5004
 108213666.582 8  84322345.34447  20592375.694    20592374.990
  20592376.643          50.250          45.2504
 123502300.199 7  96235554.493 7  23501705.681    23501705.730    23501709.726
  23501709.492          43.500          46.000
 109897366.362 8  85634309.887 8  20912770.949    20912771.081    20912772.411
  20912772.310          53.250          51.500
 20  1  4  0 32 30.0000000  0  8G29G10G16G21G13G20G27G15
 121149164.798 7  94401947.647 7  23053918.700    23053918.705    23053921.178
  23053921.378          45.750          44.250
 118985916.945 7  92716300.109 8  22642266.494    22642266.715    22642270.655
  22642270.901          47.250          48.750
 128829652.838 6 100386743.94343  24515468.068    24515467.468
  24515469.356          37.750          21.0004
 109901122.186 8  85637243.56147  20913487.945    20913487.418
  20913488.553          49.750          46.2504
 120397727.669 7  93816409.87045  22910923.758    22910924.259
  22910925.058          45.000          31.5004
 108174049.876 8  84291475.18547  20584836.894    20584836.260
  20584837.829          50.250          45.2504
 123421019.042 7  96172218.524 7  23486238.769    23486238.640    23486242.183
  23486242.212          43.750          46.000
 109933084.122 8  85662141.914 8  20919567.871    20919567.870    20919569.453
  20919569.118          53.750          51.250
 20  1  4  0 33  0.0000000  0  8G29G10G16G21G13G20G27G15
 121258560.863 7  94487191.338 7  23074737.080    23074736.461    23074737.802
  23074738.070          46.500          44.250
 118912534.385 7  92659118.894 8  22628302.853    22628302.357    22628305.949
  22628306.494          47.000          48.750
 128886744.948 6 100431231.27943  24526332.043    24526332.116
  24526333.473          38.000          21.5004
 109886192.883 8  85625610.33047  20910646.959    20910646.424
  20910647.573          49.500          46.2504
 120471031.608 7  93873529.82145  22924873.235    22924873.350
  22924873.767          44.750          31.2504
 108134741.721 8  84260845.45647  20577356.960    20577356.175
  20577357.775          50.500          45.5004
 123340126.120 7  96109185.078 7  23470845.436    23470844.720    23470848.403
  23470848.539          43.250          46.250
 109969398.055 8  85690438.491 8  20926478.054    20926478.331    20926479.673
  20926479.433          53.250          51.500
 20  1  4  0 33 30.0000000  0  8G29G10G16G21G13G20G27G15
 121368163.559 7  94572596.035 7  23095593.629    23095593.501    23095595.317
  23095594.941          47.000          44.000
 118839365.651 7  92602104.309 8  22614378.848    22614379.250    22614382.720
  22614383.538          46.750          49.250
 128944217.513 6 100476015.11043  24537268.412    24537268.416
  24537270.169          37.000          21.0004
 109871539.126 8  85614191.81347  20907858.473    20907857.972
  20907859.021          49.250          46.2504
 120544789.564 7  93931003.56045  22938909.258    22938909.184
  22938909.886          44.750          31.0004
 108095743.838 8  84230457.49547  20569935.596    20569935.098
  20569936.670          50.250          45.5004
 123259625.503 7  96046457.328 7  23455526.207    23455525.740    23455529.841
  23455529.604          43.000          46.000
 110006307.644 8  85719199.215 8  20933501.669    20933501.801    20933503.117
  20933503.025          53.250          51.000
 20  1  4  0 34  0.0000000  0  8G29G10G16G21G13G20G27G15
 121477971.010 7  94658160.275 7  23116489.155    23116488.762    23116490.371
  23116490.821          45.750          43.250
 118766411.896 7  92545257.247 8  22600496.415    22600496.474    22600500.320
  22600500.865          47.250          49.000
 129002068.943 6 100521094.12143  24548277.752    24548277.871
  24548279.436          38.750          22.2504
 109857162.261 8  85602989.05847  20905122.725    20905121.984
  20905123.156          49.500          46.0004
 120618999.726 7  93988829.65345  22953030.619    22953031.005
  22953031.784          43.750          31.5004
 108057056.857 8  84200311.79147  20562573.966    20562573.077
  20562574.809          50.250          45.2504
 123179520.528 7  95984037.881 7  23440282.769    23440282.432    23440286.164
  23440286.210          42.750          45.500
 110043812.393 8  85748423.700 8  20940638.673    20940638.817    20940640.395
  20940640.086          53.250          51.250
 20  1  4  0 34 30.0000000  0  8G29G10G16G21G13G20G27G15
 121587979.488 7  94743881.180 7  23137422.676    23137422.826    23137423.841
  23137424.183          46.000          42.250
 118693672.331 7  92488577.061 8  22586654.206    22586654.378    22586657.811
  22586658.400          46.750          48.500
 129060295.624 6 100566465.55843  24559357.548    24559357.712
  24559358.948          37.500          21.2504
 109843062.439 8  85592002.18047  20902439.516    20902438.908
  20902440.147          49.000          46.0004
 120693658.239 7  94047005.13845  22967238.021    22967237.795
  22967239.178          44.250          31.2504
 108018680.035 8  84170407.77547  20555271.167    20555270.427
  20555272.063          50.750          45.5004
 123099812.623 7  95921927.837 7  23425114.552    23425115.076    23425118.153
  23425118.448          42.500          46.000
 110081909.374 9  85778109.660 8  20947888.416    20947888.474    20947889.738
  20947889.561          54.000          51.250
 20  1  4  0 35  0.0000000  0  8G29G10G16G21G13G20G27G15
 121698185.974 7  94829756.361 7  23158394.999    23158394.985    23158396.349
  23158396.265          46.000          42.750
 118621147.099 7  92432063.907 8  22572853.138    22572853.291    22572857.097
  22572857.517          46.750          49.000
 129118894.177 6 100612126.76543  24570509.186    24570508.487
  24570509.033          39.000          23.0004
 109829240.314 8  85581231.69247  20899809.377    20899808.639
  20899809.845          49.000          46.0004
 120768762.599 7  94105528.00645  22981529.783    22981529.615
  22981531.058          44.000          31.7504
 107980613.054 8  84140745.19747  20548027.107    20548026.522
  20548028.091          50.500          45.5004
 123020504.097 7  95860128.995 7  23410022.759    23410023.210    23410026.845
  23410026.516          42.750          46.000
 110120596.797 8  85808255.708 8  20955250.346    20955250.561    20955251.581
  20955251.416          53.750          51.250
 20  1  4  0 35 30.0000000  0  8G29G10G16G21G13G20G27G15
 121808588.531 7  94915784.334 7  23179403.890    23179403.276    23179404.921
  23179405.495          46.250          43.500
 118548837.604 7  92375718.848 8  22559093.270    22559093.534    22559096.617
  22559097.112          47.250          48.750
 129177863.161 6 100658076.61943  24581730.670    24581729.926
  24581731.404          37.500          20.7504
 109815698.447 8  85570679.57947  20897232.397    20897231.647
  20897232.814          49.000          46.0004
 120844311.183 7  94164397.02745  22995906.428    22995906.075
  22995906.566          44.000          31.2504
 107942857.607 8  84111325.37247  20540842.655    20540841.937
  20540843.339          50.500          45.5004
 122941598.494 7  95798644.115 7  23395008.190    23395007.858    23395011.588
  23395011.649          42.750          46.500
 110159873.646 8  85838861.052 8  20962724.428    20962724.659    20962725.997
  20962725.689          53.500          51.250
 20  1  4  0 36  0.0000000  0  8G29G10G16G21G13G20G27G15
 121919184.250 7  95001962.816 7  23200449.013    23200449.215    23200450.449
  23200450.760          45.250          43.250
 118476743.673 7  92319541.766 8  22545374.047    22545374.326    22545377.801
  22545378.460          47.500          48.750
 129237199.103 6 100704312.43043  24593022.128    24593020.814
  24593023.034          37.000          19.2504
 109802437.098 8  85560346.05647  20894708.854    20894708.154
  20894709.358          49.500          46.0004
 120920300.873 7  94223609.77745  23010366.351    23010366.692
  23010367.196          44.250          31.0004
 107905412.892 8  84082147.68147  20533717.140    20533716.324
  20533718.083          50.500          45.7504
 122863097.821 7  95737474.770 7  23380069.598    23380069.444    23380073.080
  23380073.103          43.500          46.000
 110199737.613 8  85869923.891 8  20970310.492    20970310.589    20970311.527
  20970311.566          53.750          51.000
 20  1  4  0 36 30.0000000  0  8G29G10G16G21G13G20G27G15
 122029970.263 7  95088289.554 7  23221530.576    23221531.034    23221533.357
  23221532.889          44.750          44.000
 118404865.492 7  92263532.800 8  22531696.332    22531696.443    22531699.907
  22531700.097          47.250          48.750
 129296898.892 6 100750831.76643  24604382.364    24604382.016
  24604384.212          37.250          20.7504
 109789457.074 8  85550231.74447  20892238.529    20892238.208
  20892239.194          49.000          46.0004
 120996729.000 7  94283164.16145  23024910.502    23024910.375
  23024911.917          43.750          30.5004
 107868278.290 8  84053211.63047  20526650.491    20526649.709
  20526651.376          50.500          45.5004
 122785004.475 7  95676622.812 7  23365209.052    23365209.129    23365212.461
  23365212.890          42.750          46.000
 110240187.233 8  85901443.071 8  20978007.499    20978007.796    20978009.076
  20978008.825          53.750          51.250
 20  1  4  0 37  0.0000000  0  8G29G10G16G21G13G20G27G15
 122140944.119 7  95174762.707 7  23242648.801    23242648.708    23242650.900
  23242650.727          45.750          44.250
 118333203.537 7  92207692.310 8  22518059.498    22518059.541    22518063.021
  22518063.287          47.250          49.000
 129356960.135 6 100797632.72543  24615811.927    24615810.300
  24615813.041          38.000          21.5004
 109776759.433 8  85540337.47447  20889822.675    20889821.834
  20889823.012          49.250          46.0004
 121073593.093 7  94343058.26045  23039536.858    23039536.612
  23039538.714          43.500          31.0004
 107831454.726 8  84024517.94747  20519643.367    20519642.512
  20519644.180          50.500          45.7504
 122707321.038 7  95616090.256 7  23350426.111    23350426.292    23350429.984
  23350430.116          43.000          46.250
 110281220.567 8  85933417.109 8  20985816.080    20985816.304    20985817.239
  20985817.139          53.750          51.000
 20  1  4  0 37 30.0000000  0  8G29G10G16G21G13G20G27G15
 122252103.037 7  95261380.036 7  23263801.692    23263801.622    23263803.753
  23263803.646          45.750          43.500
 118261758.377 8  92152020.753 8  22504464.306    22504464.180    22504467.616
  22504468.253          48.250          49.500
 129417379.839 6 100844712.97943  24627308.325    24627308.108
  24627309.246          36.500          20.2504
 109764345.785 8  85530664.49747  20887460.248    20887459.596
  20887460.843          49.250          46.0004
 121150890.758 7  94403290.21645  23054246.431    23054246.067
  23054247.096          43.250          30.5004
 107794942.510 8  83996066.87947  20512695.116    20512694.420
  20512696.113          50.250          45.5004
 122630050.279 7  95555879.271 7  23335722.026    23335721.904    23335725.822
  23335725.670          42.750          46.000
 110322835.988 8  85965844.712 8  20993734.942    20993735.378    20993736.729
  20993736.405          53.500          51.000
 20  1  4  0 38  0.0000000  0  8G29G10G16G21G13G20G27G15
 122363444.163 7  95348139.354 7  23284988.651    23284988.913    23284990.802
  23284990.402          44.500          43.750
 118190530.066 7  92096518.173 8  22490909.255    22490909.707    22490913.414
  22490914.016          47.500          49.750
 129478155.525 6 100892070.63043  24638874.293    24638872.763
  24638875.712          36.250          21.0004
 109752216.932 8  85521213.43847  20885152.077    20885151.642
  20885152.741          49.000          46.0004
 121228619.342 7  94463857.93645  23069037.015    23069037.571
  23069039.074          42.750          31.2504
 107758741.274 8  83967858.12247  20505806.228    20505805.553
  20505807.169          50.750          45.5004
 122553194.426 7  95495991.601 7  23321096.856    23321096.476    23321100.811
  23321100.867          42.500          46.250
 110365031.338 8  85998724.205 8  21001764.554    21001764.620    21001766.145
  21001765.833          53.750          51.250
 20  1  4  0 38 30.0000000  0  7G29G10G21G13G20G27G15
 122474967.554 7  95435040.688 7  23306211.518    23306210.791    23306213.931
  23306213.204          45.250          44.000
 118119521.655 8  92041186.953 8  22477397.297    22477397.226    22477400.714
  22477401.243          48.000          49.250
 109740376.541 8  85511987.15847  20882899.272    20882898.544
  20882899.546          48.750          46.2504
 121306778.587 7  94524761.26145  23083911.254    23083910.612
  23083912.072          43.750          30.7504
 107722853.933 8  83939893.97147  20498977.289    20498976.487
  20498978.108          51.000          45.7504
 122476758.597 7  95436431.206 7  23306551.541    23306551.068    23306555.282
  23306555.107          42.000          46.000
 110407807.653 8  86032056.405 8  21009904.510    21009904.813    21009905.965
  21009905.937          53.500          51.000
 20  1  4  0 39  0.0000000  0  8G29G16G10G21G13G20G27G15
 122586666.363 7  95522078.723 7  23327466.484    23327466.909    23327468.806
  23327468.939          45.000          43.500
 129600765.444 6 100987616.59643  24662206.869    24662206.032
  24662207.274          37.500          20.5004
 118048729.203 7  91986023.997 8  22463925.585    22463925.836    22463929.514
  22463929.912          47.500          49.500
 109728821.226 8  85502983.00847  20880699.885    20880699.590
  20880700.746          48.750          46.0004
 121385361.879 7  94585994.97745  23098864.834    23098864.298
  23098865.912          42.750          30.2504
 107687275.907 8  83912170.83747  20492206.868    20492206.144
  20492207.674          50.500          45.5004
 122400741.061 6  95377196.753 7  23292085.917    23292085.454    23292089.550
  23292088.939          41.750          45.750
 110451158.822 8  86065836.537 8  21018154.093    21018154.191    21018155.637
  21018155.312          53.250          51.000
 20  1  4  0 39 30.0000000  0  9G29G16G10G24G21G13G20G27G15
 122698539.036 7  95609252.230 7  23348754.861    23348755.012    23348757.721
  23348758.040          44.250          43.500
 129662592.211 6 101035793.32743  24673971.324    24673971.225
  24673972.421          38.250          22.0004
 117978154.533 7  91931030.748 8  22450496.017    22450496.001    22450499.676
  22450500.233          47.500          50.000
 128691996.585 6 100279475.685 6  24489271.639    24489271.771    24489276.423
  24489277.127          39.000          39.750
 109717553.200 8  85494202.72047  20878556.135    20878555.270
  20878556.482          49.000          46.2504
 121464367.879 7  94647558.09745  23113898.525    23113898.832
  23113900.404          43.000          30.2504
 107652008.953 8  83884690.09047  20485495.977    20485495.283
  20485496.769          50.750          45.5004
 122325145.794 7  95318291.354 7  23277700.339    23277700.357    23277704.637
  23277704.067          42.750          45.750
 110495084.344 8  86100064.225 8  21026512.761    21026512.949    21026514.244
  21026514.096          53.250          51.000
 20  1  4  0 40  0.0000000  0  9G29G16G10G24G21G13G20G27G15
 122810582.453 7  95696558.777 7  23370076.557    23370076.309    23370078.878
  23370078.676          45.000          42.250
 129724762.933 6 101084237.99943  24685802.826    24685801.039
  24685803.307          38.750          23.2504
 117907797.526 7  91876207.105 8  22437107.273    22437107.289    22437111.349
  22437111.488          47.750          49.750
 128602712.072 6 100209903.396 7  24472282.083    24472282.388    24472285.963
  24472286.094          37.750          42.500
 109706574.013 8  85485647.50847  20876466.746    20876465.994
  20876467.229          49.000          46.0004
 121543793.735 7  94709448.38445  23129012.656    23129013.061
  23129014.562          42.750          30.0004
 107617052.477 8  83857451.29147  20478843.878    20478843.218
  20478844.765          50.750          45.7504
 122249974.796 7  95259716.542 7  23263396.355    23263395.570    23263399.745
  23263399.824          42.500          46.000
 110539581.885 8  86134737.641 8  21034980.552    21034980.635    21034982.171
  21034981.795          53.000          50.750
 20  1  4  0 40 30.0000000  0  9G29G16G10G24G21G13G20G27G15
 122922796.217 7  95783998.082 7  23391430.600    23391430.672    23391431.818
  23391431.819          44.750          42.500
 129787276.528 6 101132949.90143  24697697.816    24697698.409
  24697698.221          38.250          22.2504
 117837660.644 7  91821554.996 8  22423760.186    22423760.541    22423764.430
  22423764.608          47.500          49.500
 128513513.446 6 100140397.949 6  24455307.558    24455307.402    24455312.293
  24455311.731          37.750          38.500
 109695886.486 8  85477319.55347  20874433.182    20874432.184
  20874433.377          49.000          46.2504
 121623638.666 7  94771665.22145  23144207.071    23144206.767
  23144208.523          42.000          30.0004
 107582409.389 8  83830456.67447  20472251.504    20472250.837
  20472252.284          50.500          45.7504
 122175232.637 7  95201475.890 7  23249173.059    23249173.216    23249176.659
  23249177.053          43.000          46.000
 110584651.602 8  86169856.911 8  21043556.962    21043556.949    21043558.420
  21043558.177          53.000          51.000
 20  1  4  0 41  0.0000000  0  9G29G16G10G24G21G13G20G27G15
 123035175.365 7  95871566.260 7  23412814.904    23412815.096    23412816.592
  23412816.543          44.500          42.000
 129850128.429 6 101181925.40543  24709657.650    24709657.677
  24709660.066          37.750          22.7504
 117767742.310 7  91767073.174 8  22410455.478    22410455.782    22410459.843
  22410460.204          47.750          49.750
 128424401.788 6 100070960.313 6  24438350.198    24438349.857    24438354.017
  24438355.163          36.250          40.500
 109685489.511 8  85469218.00047  20872454.433    20872453.812
  20872454.992          48.500          46.2504
 121703898.203 7  94834205.11944  23159480.312    23159479.465
  23159481.247          42.250          29.0004
 107548077.404 8  83803704.48147  20465718.503    20465717.908
  20465719.240          51.000          46.0004
 122100919.879 7  95143569.843 7  23235031.400    23235031.826    23235035.636
  23235035.515          43.750          46.000
 110630289.924 8  86205419.241 8  21052241.583    21052241.672    21052243.310
  21052242.837          52.750          51.000
 20  1  4  0 41 30.0000000  0  9G29G16G10G24G21G13G20G27G15
 123147718.236 7  95959262.006 7  23434231.105    23434231.443    23434233.192
  23434232.835          44.500          42.000
 129913316.077 6 101231162.53343  24721681.385    24721682.194
  24721683.243          38.250          22.0004
 117698043.227 7  91712762.194 8  22397192.330    22397192.599    22397196.089
  22397196.525          47.500          49.750
 128335381.016 6 100001593.436 6  24421410.686    24421409.677    24421414.108
  24421413.151          38.500          38.000
 109675384.517 8  85461343.97547  20870531.735    20870530.951
  20870532.087          48.000          46.2504
 121784570.323 7  94897066.50144  23174830.930    23174831.142
  23174832.388          42.000          29.0004
 107514056.971 8  83777195.05247  20459244.522    20459243.732
  20459245.256          50.250          46.0004
 122027039.328 7  95086000.582 7  23220972.891    23220973.131    23220976.600
  23220976.181          43.000          45.750
 110676494.986 8  86241423.193 8  21061034.093    21061034.246    21061035.561
  21061035.414          52.750          50.750
 20  1  4  0 42  0.0000000  0  9G29G16G10G24G21G13G20G27G15
 123260422.494 7  96047083.515 7  23455678.166    23455677.872    23455680.612
  23455680.827          43.750          42.250
 129976837.673 6 101280659.82144  24733770.280    24733769.661
  24733771.036          39.250          24.0004
 117628564.540 7  91658622.941 8  22383971.278    22383971.441    22383974.867
  22383975.116          47.500          49.500
 128246454.338 6  99932299.981 6  24404488.131    24404488.368    24404492.698
  24404492.672          37.750          38.500
 109665573.455 7  85453698.97947  20868664.583    20868664.005
  20868665.217          47.750          46.2504
 121865653.125 7  94960247.91944  23190260.915    23190261.078
  23190262.645          42.000          29.5004
 107480348.933 8  83750929.04947  20452830.227    20452829.441
  20452831.048          50.250          46.0004
 121953594.292 7  95028770.677 7  23206996.921    23206996.448    23207000.475
  23207000.399          43.000          46.250
 110723265.699 8  86277867.912 8  21069934.317    21069934.450    21069935.809
  21069935.708          52.500          51.000
 20  1  4  0 42 30.0000000  0  9G29G16G10G24G21G13G20G27G15
 123373283.832 7  96135027.413 7  23477155.174    23477154.024    23477157.021
  23477156.635          44.500          42.000
 130040688.916 6 101330414.08743  24745920.388    24745920.860
  24745922.078          39.250          22.0004
 117559305.237 7  91604654.658 8  22370791.352    22370791.472    22370795.050
  22370795.604          46.750          49.750
 128157623.661 6  99863081.222 6  24387585.068    24387584.420    24387587.312
  24387586.904          36.750          37.750
 109656055.924 8  85446282.72347  20866853.498    20866852.837
  20866854.072          48.000          46.2504
 121947142.757 6  95023746.33444  23205767.239    23205767.816
  23205769.438          41.500          29.7504
 107446952.027 8  83724905.48647  20446474.512    20446474.164
  20446475.620          50.250          45.7504
 121880585.872 7  94971880.983 7  23193104.046    23193103.635    23193107.427
  23193107.719          43.250          46.250
 110770598.712 8  86314750.779 8  21078941.598    21078941.695    21078943.281
  21078942.879          52.500          51.000
 20  1  4  0 43  0.0000000  0  9G29G16G10G24G21G13G20G27G15
 123486301.017 7  96223092.754 7  23498661.742    23498661.395    23498663.343
  23498663.368          45.000          43.000
 130104867.751 6 101380423.53243  24758133.552    24758133.247
  24758134.597          40.000          23.0004
 117490266.506 7  91550858.240 8  22357654.001    22357654.351    22357657.739
  22357658.151          47.250          49.750
 128068888.261 6                  24370699.211
                        37.250
 109646834.229 7  85439096.97847  20865098.757    20865098.084
  20865099.279          47.500          46.0004
 122029037.088 7  95087560.11144  23221351.609    23221352.117
  23221353.399          42.250          29.5004
 107413867.502 8  83699125.34147  20440178.996    20440178.318
  20440179.871          50.250          45.7504
 121808017.259 7  94915334.018 7  23179294.664    23179294.281    23179297.920
  23179297.968          43.500          46.000
 110818493.095 8  86352071.090 8  21088055.491    21088055.601    21088056.993
  21088056.738          52.250          50.750
 20  1  4  0 43 30.0000000  0  8G29G16G10G21G13G20G27G15
 123599470.351 7  96311276.654 7  23520196.643    23520196.476    23520199.149
  23520199.233          43.250          43.750
 130169370.555 6 101430685.47243  24770408.093    24770407.830
  24770408.875          40.250          22.7504
 117421447.924 7  91497233.371 8  22344558.116    22344558.395    22344561.991
  22344562.351          47.250          49.750
 109637908.167 7  85432141.59947  20863400.367    20863399.462
  20863400.735          47.500          46.2504
 122111332.680 6  95151686.55644  23237012.204    23237011.804
  23237013.025          41.750          29.5004
 107381094.468 8  83673587.91747  20433942.574    20433941.844
  20433943.588          50.000          46.0004
 121735890.199 7  94859131.110 7  23165569.130    23165569.207    23165572.711
  23165573.094          43.000          46.250
 110866946.101 8  86389826.685 8  21097275.471    21097275.744    21097277.239
  21097277.163          51.750          51.000
 20  1  4  0 44  0.0000000  0  8G29G16G10G21G13G20G27G15
 123712789.709 7  96399577.429 7  23541760.795    23541761.015    23541762.820
  23541763.118          43.500          43.250
 130234194.943 6 101481197.94443  24782743.788    24782743.383
  24782745.053          39.000          21.2504
 117352850.305 7  91443780.684 8  22331504.627    22331504.667    22331508.350
  22331508.740          47.750          50.000
 109629279.735 7  85425418.14147  20861758.155    20861757.512
  20861758.746          47.750          46.5004
 122194027.687 6  95216124.22344  23252748.640    23252748.055
  23252749.635          41.500          29.0004
 107348633.597 8  83648293.73147  20427765.574    20427764.847
  20427766.225          50.000          46.0004
 121664207.617 7  94803274.544 7  23151928.775    23151928.019    23151932.169
  23151931.865          44.000          46.750
 110915956.040 8  86428016.246 8  21106602.045    21106602.026    21106603.738
  21106603.352          51.500          50.750
 20  1  4  0 44 30.0000000  0  8G29G16G10G21G13G20G27G15
 123826257.391 7  96487993.817 7  23563353.048    23563352.478    23563355.029
  23563355.266          43.250          43.250
 130299339.023 6 101531959.57443  24795140.037    24795139.200
  24795143.042          39.000          21.5004
 117284475.177 7  91390501.359 8  22318492.922    22318493.225    22318496.842
  22318497.217          47.000          49.750
 109620950.728 7  85418927.99347  20860173.370    20860172.625
  20860173.822          47.500          46.2504
 122277120.577 6  95280871.93444  23268561.289    23268560.032
  23268561.641          41.500          28.5004
 107316485.748 8  83623243.46047  20421647.823    20421647.291
  20421648.872          50.000          46.0004
 121592973.082 7  94747767.115 7  23138372.799    23138372.846    23138376.012
  23138376.572          43.250          46.000
 110965522.108 8  86466639.162 8  21116034.108    21116034.305    21116035.627
  21116035.544          51.250          50.750
 20  1  4  0 45  0.0000000  0  8G29G16G10G21G13G20G27G15
 123939869.896 7  96576523.029 7  23584972.841    23584972.631    23584975.211
  23584974.745          43.250          43.750
 130364798.771 6 101582967.14443  24807596.317    24807596.231
  24807598.524          38.750          20.2504
 117216321.834 7  91337394.856 8  22305523.998    22305523.872    22305527.835
  22305528.180          46.250          50.000
 109612921.771 7  85412671.66047  20858645.561    20858644.667
  20858645.925          47.000          46.2504
 122360607.643 6  95345926.78244  23284447.656    23284447.710
  23284449.146          41.750          28.7504
 107284650.644 8  83598436.89447  20415590.100    20415589.234
  20415590.724          50.000          46.0004
 121522187.943 7  94692609.852 7  23124903.232    23124902.835    23124906.779
  23124906.384          42.750          46.250
 111015641.120 8  86505692.941 8  21125571.628    21125571.739    21125573.012
  21125572.769          51.500          50.750
 20  1  4  0 45 30.0000000  0  8G29G16G10G21G13G20G27G15
 124053623.698 7  96665162.336 7  23606618.910    23606619.277    23606621.308
  23606621.419          42.500          42.750
 130430570.694 6 101634217.97643  24820112.985    24820112.622
  24820113.803          39.250          21.7504
 117148389.893 7  91284460.886 8  22292597.118    22292597.127    22292600.456
  22292600.964          47.000          50.000
 109605192.492 8  85406648.83447  20857174.442    20857173.877
  20857175.107          48.000          46.2504
 122444485.438 7  95411286.09844  23300409.208    23300409.050
  23300409.710          42.000          28.7504
 107253127.195 8  83573873.16747  20409591.158    20409590.541
  20409592.058          49.250          46.0004
 121451853.889 7  94637804.092 7  23111518.821    23111518.706    23111522.170
  23111522.110          43.500          46.250
 111066310.545 8  86545175.612 8  21135213.387    21135213.689    21135215.001
  21135214.839          51.250          50.750
 20  1  4  0 46  0.0000000  0  8G29G16G10G21G13G20G27G15
 124167516.758 7  96753910.172 7  23628292.641    23628292.254    23628295.291
  23628295.391          42.250          43.000
 130496652.574 6 101685710.36843  24832687.333    24832687.351
  24832688.516          39.250          19.5004
 117080680.196 7  91231700.093 8  22279711.942    22279712.067    22279715.858
  22279716.507          46.750          50.250
 109597765.084 7  85400861.23647  20855761.078    20855760.490
  20855761.743          47.500          46.2504
 122528751.726 7  95476948.15344  23316444.767    23316444.391
  23316445.465          42.000          29.2504
 107221916.001 8  83549552.75847  20403651.976    20403651.265
  20403652.737          49.750          46.0004
 121381973.852 7  94583352.110 7  23098221.613    23098221.040    23098224.869
  23098225.403          42.750          46.250
 111117528.437 8  86585085.661 8  21144960.016    21144960.235    21144961.277
  21144961.313          51.500          50.250
 20  1  4  0 46 30.0000000  0  8G29G16G10G21G13G20G27G15
 124281546.401 6  96842764.425 7  23649991.363    23649991.369    23649994.330
  23649993.843          41.250          42.750
 130563041.862 6 101737442.25543  24845321.603    24845321.429
  24845321.867          40.250          21.2504
 117013193.210 7  91179112.826 8  22266869.867    22266870.006    22266873.315
  22266873.781          46.750          50.250
 109590640.654 7  85395309.71847  20854405.503    20854404.867
  20854406.061          46.750          46.0004
 122613404.009 7  95542910.95644  23332554.066    23332553.421
  23332554.708          42.250          29.5004
 107191017.463 8  83525475.97947  20397772.468    20397771.497
  20397772.963          49.250          46.0004
 121312550.288 7  94529255.831 7  23085010.371    23085010.248    23085013.578
  23085013.895          43.500          46.250
 111169293.152 8  86625421.802 8  21154810.388    21154810.635    21154812.170
  21154811.655          51.000          50.500
 20  1  4  0 47  0.0000000  0  9G29G16G10G21G13G20G24G27G15
 124395710.018 7  96931723.084 7  23671716.136    23671716.326    23671718.277
  23671718.127          42.250          42.750
 130629735.384 6 101789411.22043  24858012.452    24858012.271
  24858013.969          38.500          21.2504
 116945929.370 7  91126699.454 8  22254070.121    22254070.197    22254073.826
  22254074.089          46.750          50.500
 109583820.222 7  85389995.09147  20853107.793    20853106.868
  20853108.156          47.250          46.2504
 122698439.938 7  95609172.74544  23348735.566    23348734.997
  23348736.075          42.000          29.7504
 107160431.553 8  83501642.80647  20391951.760    20391951.082
  20391952.687          49.250          46.0004
 127363034.324 6  99243919.444 6  24236379.930    24236380.354    24236384.792
  24236383.970          36.750          37.000
 121243585.806 7  94475517.269 7  23071886.834    23071886.624    23071890.077
  23071890.217          44.000          46.000
 111221602.609 8  86666182.427 8  21164764.485    21164764.803    21164766.064
  21164765.725          50.500          50.500
 20  1  4  0 47 30.0000000  0  9G29G16G10G21G13G20G24G27G15
 124510005.000 6  97020784.125 6  23693465.954    23693465.815    23693468.458
  23693467.764          41.250          41.750
 130696730.149 6 101841614.92543  24870760.570    24870759.622
  24870762.544          38.000          18.2504
 116878888.827 7  91074460.056 8  22241312.609    22241312.653    22241316.335
  22241316.785          46.250          50.250
 109577304.617 7  85384917.98947  20851867.544    20851867.085
  20851868.287          47.000          46.0004
 122783856.345 7  95675730.97544  23364989.627    23364989.262
  23364990.908          42.000          29.5004
 107130158.442 8  83478053.36947  20386190.859    20386190.138
  20386191.788          49.250          45.7504
 127275349.983 6  99175594.000 7  24219693.339    24219694.401    24219697.524
  24219698.448          37.750          42.000
 121175082.459 6  94422138.043 7  23058850.674    23058850.701    23058854.433
  23058854.215          41.500          46.250
 111274454.739 8  86707365.901 8  21174822.230    21174822.344    21174823.557
  21174823.346          50.500          50.250
 20  1  4  0 48  0.0000000  0  8G29G16G10G21G13G20G27G15
 124624427.962 7  97109944.879 6  23715240.244    23715239.844    23715240.916
  23715241.753          42.750          41.000
 130764022.558 6 101894050.54843  24883566.602    24883566.645
  24883567.977          38.250          18.0004
 116812071.243 7  91022394.419 8  22228597.756    22228597.773    22228601.615
  22228601.745          47.000          50.500
 109571094.436 7  85380078.88147  20850686.001    20850685.287
  20850686.558          46.750          46.2504
 122869650.061 6  95742583.22144  23381314.513    23381315.188
  23381316.103          41.250          29.0004
 107100197.263 8  83454706.99947  20380489.428    20380488.828
  20380490.483          49.250          46.0004
 121107042.010 7  94369119.505 7  23045903.381    23045902.889    23045906.732
  23045907.000          43.500          46.000
 111327846.671 8  86748970.016 8  21184982.020    21184982.329    21184983.451
  21184983.430          50.750          50.000
 20  1  4  0 48 30.0000000  0  9G29G16G10G21G13G20G27G15G24
 124738976.340 7  97199203.362 6  23737037.478    23737038.228    23737040.038
  23737040.436          42.250          41.750
 130831610.066 6 101946716.13543  24896428.323    24896427.491
  24896429.483          38.250          18.5004
 116745477.154 7  90970502.917 8  22215925.310    22215925.486    22215928.723
  22215929.246          47.500          50.250
 109565190.784 7  85375478.62647  20849562.482    20849561.989
  20849563.059          47.250          46.2504
 122955818.644 6  95809727.58744  23397711.668    23397712.044
  23397713.492          40.250          28.5004
 107070548.797 8  83431604.29547  20374847.566    20374846.906
  20374848.516          49.000          46.0004
 121039466.950 7  94316463.603 7  23033043.837    23033043.530    23033047.953
  23033047.702          43.750          46.000
 111381776.349 8  86790993.145 8  21195244.672    21195244.934    21195246.099
  21195245.941          51.000          50.250
 127100384.545 6  99039262.403 7  24186397.964    24186398.777    24186402.515
  24186403.460          37.500          44.500
 20  1  4  0 49  0.0000000  0  9G29G16G10G21G13G20G27G15G24
 124853648.670 7  97288558.421 6  23758859.072    23758859.374    23758861.366
  23758861.122          42.000          41.750
 130899490.750 6 101999610.16843  24909345.494    24909344.835
  24909346.385          37.000          18.0004
 116679108.087 7  90918786.760 8  22203295.495    22203295.532    22203299.085
  22203299.845          47.500          50.250
 109559595.612 7  85371118.74947  20848497.906    20848497.203
  20848498.380          46.750          46.2504
 123042360.607 6  95877162.86844  23414181.090    23414181.142
  23414182.555          39.250          28.0004
 107041213.751 8  83408745.82847  20369265.217    20369264.669
  20369266.250          49.500          46.0004
 120972360.853 7  94264173.133 7  23020274.249    23020273.998    23020277.922
  23020277.630          44.000          46.250
 111436242.731 8  86833434.495 8  21205609.451    21205609.458    21205610.553
  21205610.481          50.500          50.250
 127013106.608 6  98971253.632 6  24169789.469    24169789.884    24169793.758
  24169794.490          37.500          41.000
 20  1  4  0 49 30.0000000  0  9G29G16G10G21G13G20G27G15G24
 124968441.314 7  97378007.240 6  23780703.367    23780703.619    23780705.657
  23780705.586          42.250          41.750
 130967660.504 6 102052729.46442  24922318.352    24922317.960
  24922318.029          38.000          16.0004
 116612963.248 7  90867245.327 8  22190708.721    22190708.982    22190712.476
  22190712.848          47.750          50.500
 109554309.647 7  85366999.80647  20847492.067    20847491.259
  20847492.544          46.750          46.2504
 123129272.139 6  95944886.16044  23430719.585    23430719.195
  23430721.320          40.250          27.2504
 107012191.540 8  83386131.12247  20363742.545    20363741.772
  20363743.371          49.750          45.7504
 120905724.930 7  94212249.034 7  23007593.948    23007594.074    23007597.328
  23007597.072          43.750          46.500
 111491242.739 8  86876291.640 8  21216075.420    21216075.628    21216077.091
  21216076.864          50.000          50.500
 126925970.139 6  98903355.101 7  24153208.582    24153207.977    24153213.002
  24153213.331          37.000          43.250
 20  1  4  0 50  0.0000000  0  9G29G16G10G21G13G20G27G15G24
 125083351.461 6  97467547.615 7  23802570.108    23802570.261    23802572.552
  23802571.972          41.750          42.250
 131036116.411 6 102106071.71342  24935344.299    24935343.738
  24935345.444          37.000          16.5004
 116547042.990 7  90815878.888 8  22178164.295    22178164.423    22178168.346
  22178168.713          47.750          50.750
 109549333.536 7  85363122.31347  20846544.911    20846544.236
  20846545.520          46.250          45.7504
 123216550.505 6  96012895.27644  23447327.046    23447327.605
  23447329.723          40.000          27.5004
 106983482.183 8  83363760.19947  20358279.331    20358278.701
  20358280.223          49.000          46.0004
 120839561.464 7  94160693.090 7  22995003.070    22995003.426    22995007.222
  22995006.843          43.500          46.500
 111546774.137 8  86919562.858 8  21226642.624    21226642.857    21226644.062
  21226643.865          50.000          50.250
 126838979.281 6  98835569.982 6  24136654.805    24136655.100    24136658.505
  24136659.490          37.000          40.750
 20  1  4  0 50 30.0000000  0  8G29G10G21G13G20G24G27G15
 125198376.634 6  97557177.635 7  23824458.370    23824458.970    23824460.880
  23824460.713          41.500          42.500
 116481347.604 7  90764687.684 8  22165662.849    22165663.191    22165666.758
  22165666.860          47.750          50.500
 109544668.295 7  85359487.04847  20845657.086    20845656.562
  20845657.699          46.750          46.0004
 123304192.975 6  96081188.11444  23464005.156    23464005.266
  23464007.632          40.250          28.5004
 106955085.696 8  83341633.06847  20352875.803    20352874.907
  20352876.568          49.000          46.0004
 126752134.276 6  98767894.151 6  24120129.445    24120129.382    24120133.447
  24120133.091          37.750          37.750
 120773872.780 7  94109507.106 7  22982503.003    22982502.833    22982507.276
  22982507.048          43.750          46.500
 111602834.821 8  86963246.506 8  21237310.789    21237310.895    21237311.984
  21237311.985          50.250          50.000
 20  1  4  0 51  0.0000000  0  7G29G10G21G13G20G27G15
 125313514.267 6  97646895.260 7  23846368.511    23846368.678    23846369.642
  23846370.810          40.500          42.500
 116415877.430 7  90713671.977 8  22153204.357    22153204.465    22153208.262
  22153208.735          47.500          50.750
 109540314.987 7  85356094.85347  20844828.718    20844828.227
  20844829.393          46.750          46.0004
 123392197.101 6  96149762.75344  23480752.408    23480752.747
  23480754.158          40.250          28.7504
 106927002.126 8  83319749.76847  20347531.453    20347530.874
  20347532.563          49.250          45.7504
 120708661.184 7  94058692.870 7  22970094.005    22970093.934    22970097.527
  22970097.442          44.250          46.750
 111659422.521 8  87007340.822 8  21248078.960    21248079.007    21248080.409
  21248080.248          49.750          50.250
 20  1  4  0 51 30.0000000  0  7G29G10G21G13G20G27G15
 125428761.867 6  97736698.563 7  23868299.374    23868299.041    23868301.420
  23868301.861          40.500          43.000
 116350633.145 7  90662832.293 8  22140788.456    22140788.789    22140792.328
  22140792.687          47.250          50.500
 109536275.184 7  85352946.94947  20844060.180    20844059.376
  20844060.559          46.750          46.0004
 123480560.272 6  96218617.18344  23497567.948    23497566.832
  23497568.125          40.000          28.2504
 106899232.020 8  83298110.72547  20342247.141    20342246.337
  20342248.107          49.500          46.0004
 120643929.289 7  94008252.434 7  22957775.934    22957775.879    22957779.190
  22957779.720          44.500          47.000
 111716535.177 8  87051844.194 8  21258947.129    21258947.300    21258948.596
  21258948.324          50.250          49.750
 20  1  4  0 52  0.0000000  0  8G29G10G24G21G13G20G27G15
 125544114.889 6  97826584.004 7  23890250.424    23890249.691    23890252.569
  23890252.438          40.500          42.250
 116285613.255 8  90612167.441 8  22128415.976    22128416.180    22128419.611
  22128420.045          48.250          50.750
 126492525.475 6  98565604.931 5  24070728.007    24070728.457    24070731.772
  24070731.590          38.000          35.750
 109532547.815 7  85350042.49747  20843350.707    20843350.177
  20843351.399          46.000          46.2504
 123569278.054 6  96287747.93344  23514449.648    23514449.293
  23514450.908          40.000          27.5004
 106871773.672 8  83276714.61447  20337021.918    20337021.120
  20337022.884          49.750          46.0004
 120579677.577 7  93958186.158 7  22945549.421    22945549.261    22945552.848
  22945552.612          43.750          47.000
 111774169.153 8  87096753.797 8  21269914.602    21269914.845    21269915.810
  21269915.875          49.750          50.000
 20  1  4  0 52 30.0000000  0  8G29G24G10G21G13G20G27G15
 125659572.457 6  97916550.942 6  23912221.340    23912220.897    23912223.276
  23912222.776          41.250          41.000
 126406307.333 6  98498421.768 6  24054320.211                    24054324.594
                        37.250          36.750
 116220819.648 8  90561678.929 8  22116086.101    22116086.237    22116089.879
  22116090.176          48.500          50.500
 109529135.699 7  85347383.69247  20842701.330    20842700.756
  20842702.025          46.500          46.0004
 123658349.259 6  96357154.06244  23531399.100    23531399.109
  23531400.481          39.250          27.5004
 106844628.582 8  83255562.59747  20331856.512    20331855.716
  20331857.262          49.500          45.7504
 120515909.859 7  93908497.023 7  22933414.868    22933414.290    22933417.807
  22933417.977          44.250          46.500
 111832323.513 8  87142068.886 8  21280980.847    21280980.920    21280982.230
  21280982.071          50.000          49.500
 20  1  4  0 53  0.0000000  0  7G29G10G21G13G20G27G15
 125775131.162 6  98006596.700 6  23934211.099    23934211.325    23934213.995
  23934213.271          41.750          41.250
 116156251.855 7  90511366.367 8  22103799.313    22103799.362    22103802.873
  22103803.270          47.750          50.750
 109526039.150 7  85344970.78747  20842112.184    20842111.603
  20842112.862          46.750          46.2504
 123747770.808 6  96426833.18644  23548415.988    23548415.615
  23548417.587          39.000          27.5004
 106817796.229 8  83234654.27147  20326750.062    20326749.625
  20326751.211          49.250          46.0004
 120452627.585 7  93859186.165 7  22921372.491    22921372.745    22921375.654
  22921375.790          42.750          46.500
 111890995.335 8  87187787.189 8  21292145.784    21292145.930    21292147.441
  21292147.183          49.500          50.250
 20  1  4  0 53 30.0000000  0  7G29G10G21G13G20G27G15
 125890788.590 7  98096719.395 6  23956220.556    23956220.858    23956222.989
  23956222.702          42.250          41.500
 116091910.502 8  90461230.237 8  22091555.198    22091555.666    22091559.196
  22091559.499          48.000          50.750
 109523259.333 7  85342804.69047  20841583.174    20841582.628
  20841583.771          46.250          46.0004
 123837539.830 6  96496783.07844  23565498.787    23565497.842
  23565499.741          39.250          26.7504
 106791276.804 8  83213989.79147  20321703.993    20321703.309
  20321704.806          49.500          46.0004
 120389833.334 7  93810255.583 7  22909422.962    22909422.439    22909426.304
  22909426.651          43.250          46.750
 111950182.611 8  87233907.145 8  21303408.693    21303408.890    21303409.905
  21303409.768          49.750          49.500
 20  1  4  0 54  0.0000000  0  7G29G10G21G13G20G27G15
 126006543.108 7  98186917.717 6  23978248.090    23978247.974    23978249.622
  23978249.467          42.250          40.750
 116027796.825 8  90411271.534 8  22079355.344    22079355.335    22079358.610
  22079359.302          48.500          51.000
 109520798.317 7  85340886.99947  20841114.660    20841114.156
  20841115.601          46.500          46.0004
 123927654.821 6  96567002.55944  23582647.554    23582646.249
  23582647.121          40.250          26.2504
 106765071.246 8  83193569.87547  20316717.062    20316716.498
  20316718.042          49.750          46.2504
 120327530.183 7  93761707.688 7  22897567.498    22897567.007    22897570.739
  22897570.670          44.000          47.000
 112009883.773 8  87280427.532 8  21314769.420    21314769.571    21314771.043
  21314770.721          49.500          49.750
 20  1  4  0 54 30.0000000  0  7G29G10G21G13G20G27G15
 126122390.247 7  98277188.223 6  24000292.661    24000293.247    24000295.248
  24000294.156          42.000          40.500
 115963909.171 7  90361488.949 8  22067197.745    22067197.831    22067201.255
  22067201.635          47.750          50.750
 109518655.190 7  85339217.02647  20840706.947    20840706.373
  20840707.638          47.000          46.0004
 124018110.983 6  96637487.90444  23599859.900    23599859.301
  23599861.205          39.250          26.7504
 106739178.082 8  83173393.38847  20311789.947    20311789.062
  20311790.577          49.750          46.0004
 120265718.408 7  93713542.669 7  22885804.724    22885804.655    22885808.488
  22885808.420          42.750          47.250
 112070094.932 8  87327345.320 8  21326227.475    21326227.402    21326228.638
  21326228.506          49.750          49.750
 20  1  4  0 55  0.0000000  0  7G29G10G21G13G20G27G15
 126238328.906 7  98367530.055 6  24022355.186    24022355.217    24022357.567
  24022356.988          42.250          40.000
 115900249.774 8  90311884.223 8  22055083.658    22055083.715    22055087.616
  22055087.851          48.500          51.250
 109516832.832 7  85337796.99947  20840360.135    20840359.607
  20840360.965          45.500          46.0004
 124108907.526 6  96708238.45944  23617137.368    23617137.514
  23617139.374          38.500          27.0004
 106713598.980 8  83153461.62247  20306922.255    20306921.642
  20306923.225          49.750          46.0004
 120204402.123 7  93665763.737 7  22874136.851    22874136.553    22874140.895
  22874140.454          44.250          47.750
 112130815.619 8  87374660.145 8  21337782.093    21337782.154    21337783.548
  21337783.312          49.500          49.750
 20  1  4  0 55 30.0000000  0  8G29G10G24G21G13G20G27G15
 126354354.797 6  98457939.833 6  24044433.694    24044434.025    24044435.921
  24044435.789          41.750          40.250
 115836816.949 8  90262456.060 8  22043013.007    22043012.967    22043016.934
  22043017.194          48.000          51.500
 125892569.576 6                  23956560.234
                        36.750
 109515330.509 7  85336626.35047  20840074.233    20840073.686
  20840075.115          46.000          46.0004
 124200040.006 6  96779250.79344  23634479.993    23634479.881
  23634481.248          39.250          26.2504
 106688331.905 8  83133772.99447  20302113.939    20302113.440
  20302115.112          49.250          45.7504
 120143581.523 7  93618371.056 7  22862563.104    22862562.779    22862566.313
  22862566.862          43.250          47.250
 112192041.428 8  87422368.570 8  21349432.941    21349433.063    21349434.485
  21349434.208          49.500          49.750
 20  1  4  0 56  0.0000000  0  8G29G10G24G21G13G20G27G15
 126470467.453 7  98548417.224 6  24066529.677    24066530.240    24066532.111
  24066531.817          43.000          41.250
 115773613.218 8  90213206.397 8  22030985.637    22030985.522    22030989.124
  22030989.740          48.250          51.250
 125807573.799 6  98031881.698 7  23940386.917    23940387.269    23940391.036
  23940391.325          38.250          43.250
 109514151.093 7  85335707.31047  20839850.000    20839849.277
  20839850.652          46.500          46.0004
 124291507.543 6  96850524.21244  23651885.264    23651885.636
  23651887.153          38.750          26.2504
 106663379.390 8  83114329.47747  20297365.877    20297365.133
  20297366.644          49.750          46.2504
 120083260.970 7  93571368.023 7  22851084.410    22851083.868    22851088.156
  22851087.874          44.250          47.250
 112253772.345 8  87470470.586 8  21361180.128    21361180.280    21361181.588
  21361181.108          50.250          49.500
 20  1  4  0 56 30.0000000  0  8G29G10G24G21G13G20G27G15
 126586662.115 7  98638958.532 6  24088641.314    24088641.108    24088643.277
  24088642.435          42.500          41.250
 115710636.819 8  90164133.881 8  22019001.579    22019001.714    22019005.063
  22019005.609          48.750          51.500
 125722764.356 6  97965796.382 7  23924248.677    23924248.253    23924251.970
  23924251.922          38.500          42.000
 109513293.664 7  85335039.18347  20839686.902    20839686.109
  20839687.506          47.000          46.0004
 124383305.613 6  96922055.15244  23669353.917    23669354.708
  23669355.244          39.000          25.5004
 106638739.557 8  83095129.61347  20292677.059    20292676.321
  20292677.917          49.500          46.0004
 120023440.583 7  93524754.734 7  22839700.912    22839700.960    22839704.261
  22839704.446          44.000          47.000
 112316003.981 8  87518962.770 8  21373022.078    21373022.415    21373023.772
  21373023.492          49.500          49.750
 20  1  4  0 57  0.0000000  0  9G29G10G24G21G13G20G27G15G32
 126702936.558 6  98729561.970 6  24110766.831    24110767.045    24110768.826
  24110769.254          41.500          41.250
 115647888.428 8  90115239.041 8  22007061.037    22007060.922    22007064.707
  22007065.187          48.250          51.500
 125638144.945 6  97899859.191 6  23908145.639    23908145.898    23908148.785
  23908148.349          39.000          40.500
 109512759.675 7  85334623.07447  20839585.046    20839584.632
  20839585.890          47.500          46.0004
 124475431.765 6  96993841.78644  23686885.100    23686885.202
  23686886.713          39.000          26.7504
 106614412.776 8  83076173.68347  20288047.649    20288047.046
  20288048.625          49.500          46.0004
 119964122.809 7  93478533.087 7  22828413.013    22828413.011    22828416.451
  22828416.588          43.750          47.250
 112378734.145 8  87567843.419 8  21384959.291    21384959.358    21384960.840
  21384960.640          50.250          49.250
 130516785.132 6 101701394.068 6  24836518.369                    24836523.032
                        38.500          39.250
 20  1  4  0 57 30.0000000  0  8G29G10G24G21G13G20G27G15
 126819288.233 7  98820225.573 6  24132907.633    24132908.179    24132910.343
  24132910.574          42.000          41.250
 115585368.499 8  90066522.223 8  21995163.800    21995163.909    21995167.581
  21995167.976          48.750          51.250
 125553719.551 6  97834073.161 6  23892079.334    23892079.194    23892083.577
  23892084.176          37.500          41.500
 109512550.369 7  85334459.97647  20839545.363    20839544.714
  20839546.125          47.250          45.7504
 124567883.389 6  97065882.01144  23704478.146    23704478.341
  23704478.950          39.500          26.5004
 106590399.172 8  83057461.78547  20283478.099    20283477.492
  20283479.080          49.000          46.0004
 119905310.010 7  93432704.927 7  22817221.437    22817221.124    22817224.712
  22817225.139          44.250          47.000
 112441960.960 8  87617111.064 8  21396991.146    21396991.201    21396992.382
  21396992.433          50.250          49.000
 20  1  4  0 58  0.0000000  0  8G29G10G24G21G13G20G27G15
 126935714.603 7  98910947.419 6  24155063.408    24155063.347    24155065.423
  24155065.001          42.250          40.500
 115523077.342 8  90017983.665 8  21983310.159    21983310.439    21983314.093
  21983314.432          48.250          51.500
 125469491.292 6  97768440.731 7  23876050.534    23876050.892    23876055.998
  23876055.466          37.250          42.250
 109512666.772 7  85334550.66947  20839567.780    20839566.892
  20839568.313          47.750          46.0004
 124660657.855 6  97138173.79044  23722133.034    23722132.701
  23722132.972          38.750          26.0004
 106566698.810 8  83038993.97447  20278968.045    20278967.395
  20278968.967          49.250          46.0004
 119847004.225 7  93387271.850 7  22806125.898    22806125.856    22806129.127
  22806129.518          44.750          47.000
 112505681.860 8  87666763.707 8  21409116.669    21409116.754    21409117.940
  21409117.950          50.000          49.250
 20  1  4  0 58 30.0000000  0  8G29G10G24G21G13G20G27G15
 127052213.832 6  99001726.020 6  24177232.182    24177231.663    24177234.118
  24177233.967          41.500          40.500
 115461015.780 8  89969624.016 8  21971500.220    21971500.396    21971503.910
  21971504.425          49.000          51.250
 125385463.711 6  97702964.682 6  23860061.002    23860060.703    23860064.985
  23860065.493          36.750          41.750
 109513110.399 7  85334896.34947  20839652.031    20839651.339
  20839652.726          47.250          46.0004
 124753753.081 6  97210715.52044  23739848.590    23739847.706
  23739849.151          39.250          25.7504
 106543312.479 8  83020770.85947  20274517.879    20274517.111
  20274518.779          49.000          46.0004
 119789208.116 7  93342235.916 7  22795127.941    22795127.910    22795131.243
  22795131.349          44.750          47.500
 112569894.999 8  87716799.922 8  21421335.934    21421336.359    21421337.397
  21421337.405          50.000          49.250
 20  1  4  0 59  0.0000000  0  8G29G24G10G21G13G20G27G15
 127168781.109 6  99092557.636 6  24199413.208    24199413.745    24199415.582
  24199415.851          41.250          39.750
 125301644.607 6  97637643.422 6  23844109.744    23844109.605    23844114.955
  23844114.736          37.250          39.250
 115399182.170 8  89921441.981 8  21959733.720    21959733.948    21959737.462
  21959737.559          49.250          51.500
 109513880.185 7  85335496.17747  20839798.597    20839797.797
  20839799.198          47.250          46.2504
 124847164.306 6  97283503.49244  23757624.368    23757624.015
  23757624.526          39.750          26.0004
 106520237.996 8  83002790.74947  20270127.148    20270126.294
  20270127.720          49.250          46.2504
 119731921.768 7  93297597.194 7  22784226.530    22784226.022    22784230.185
  22784229.939          44.750          47.500
 112634596.010 8  87767216.297 8  21433648.099    21433648.448    21433649.413
  21433649.422          50.250          49.000
 20  1  4  0 59 30.0000000  0  9G29G24G10G21G13G20G27G15G32
 127285415.658 7  99183441.721 6  24221609.597    24221610.016    24221610.902
  24221611.264          43.000          40.750
 125218026.934 6  97572486.773 7  23828197.991    23828198.457    23828202.739
  23828203.111          37.750          44.000
 115337578.643 8  89873439.239 8  21948010.715    21948010.682    21948014.544
  21948014.970          48.500          51.250
 109514979.041 7  85336352.41747  20840007.503    20840007.039
  20840008.230          47.250          46.2504
 124940890.683 6  97356537.06444  23775459.191    23775458.819
  23775460.154          39.750          25.2504
 106497477.314 8  82985055.15347  20265795.619    20265795.075
  20265796.618          49.000          46.2504
 119675149.165 7  93253358.800 7  22773423.097    22773422.771    22773426.870
  22773426.863          44.500          47.500
 112699784.706 8  87818012.686 8  21446053.001    21446053.404    21446054.746
  21446054.370          49.750          49.250
 129955327.172 6 101263891.951 5  24729677.128    24729677.680    24729680.535
  24729681.397          38.500          35.000
 20  1  4  1  0  0.0000000  0  9G29G24G10G21G13G20G27G15G32
 127402114.595 7  99274375.940 6  24243816.480    24243816.507    24243817.513
  24243817.588          42.750          39.500
 125134619.250 6  97507493.764 7  23812325.564    23812326.047    23812330.370
  23812329.866          37.000          43.250
 115276205.065 8  89825615.670 8  21936332.006    21936331.976    21936335.534
  21936336.129          49.250          51.250
 109516407.275 7  85337465.32047  20840279.292    20840278.671
  20840280.183          47.500          46.2504
 125034929.109 6  97429813.75144  23793355.065    23793354.087
  23793355.114          40.000          25.5004
 106475030.274 8  82967563.95147  20261524.349    20261523.525
  20261525.068          49.000          46.2504
 119618891.863 7  93209521.932 7  22762717.437    22762717.392    22762721.306
  22762721.474          44.500          47.500
 112765457.877 8  87869186.585 8  21458550.441    21458550.708    21458552.196
  21458551.828          50.250          49.250
 129843188.500 6 101176511.143 6  24708337.473    24708338.203    24708342.060
  24708340.978          39.000          40.000
 20  1  4  1  0 30.0000000  0  9G29G24G10G21G13G20G27G15G32
 127518875.025 6  99365358.081 6  24266035.428    24266034.680    24266036.064
  24266036.122          41.500          39.250
 125051425.161 6  97442667.226 7  23796494.774    23796494.881    23796499.003
  23796499.228          36.500          42.500
 115215061.448 8  89777971.302 8  21924696.482    21924696.748    21924700.429
  21924700.756          48.500          51.500
 109518165.948 8  85338835.70247  20840614.169    20840613.492
  20840614.804          48.250          46.2504
 125129276.528 6  97503331.21144  23811307.713    23811307.686
  23811308.895          39.750          24.7504
 106452896.884 8  82950317.16247  20257312.488    20257311.571
  20257313.225          48.750          46.0004
 119563151.637 7  93166087.986 7  22752110.921    22752110.452    22752114.168
  22752114.031          45.000          47.500
 112831613.007 8  87920736.040 8  21471139.370    21471139.390    21471141.067
  21471140.752          50.250          49.250
 129731105.601 6 101089173.809 6  24687009.624    24687009.841    24687012.265
  24687013.213          38.750          39.500
 20  1  4  1  1  0.0000000  0  8G29G10G21G13G20G27G15G32
 127635692.690 7  99456384.819 6  24288264.839    24288264.671    24288265.621
  24288266.136          42.000          39.750
 115154146.548 8  89730505.153 8  21913105.033    21913105.106    21913108.510
  21913109.084          48.750          51.500
 109520254.363 8  85340463.03847  20841011.472    20841010.913
  20841012.202          48.500          46.0004
 125223928.655 6  97577086.11344  23829319.351    23829319.629
  23829320.672          39.500          25.0004
 106431075.319 8  82933313.34947  20253159.750    20253159.002
  20253160.644          48.750          46.2504
 119507928.936 7  93123057.304 8  22741602.375    22741602.138    22741606.146
  22741606.044          45.000          48.000
 112898245.843 8  87972657.724 8  21483819.106    21483819.278    21483820.499
  21483820.585          50.250          48.750
 129619079.100 6 101001880.457 6  24665691.745    24665691.321    24665695.142
  24665695.361          36.750          39.250
 20  1  4  1  1 30.0000000  0  8G29G10G21G13G20G27G15G32
 127752568.021 6  99547456.475 6  24310505.598    24310505.579    24310506.494
  24310507.422          41.000          39.250
 115093463.645 8  89683219.788 8  21901557.048    21901557.324    21901561.436
  21901561.486          48.500          51.500
 109522676.588 8  85342350.48747  20841472.417    20841471.842
  20841473.098          48.250          46.2504
 125318885.768 6  97651078.69144  23847388.987    23847389.224
  23847389.607          39.500          25.0004
 106409568.655 8  82916554.90847  20249067.333    20249066.431
  20249068.205          49.000          46.2504
 119453228.836 7  93080433.846 7  22731193.077    22731193.350    22731196.474
  22731196.787          45.500          47.750
 112965357.333 8  88024952.386 8  21496590.000    21496590.020    21496591.482
  21496591.545          50.500          49.250
 129507114.189 6 100914635.066 6  24644385.611    24644385.483    24644388.162
  24644388.847          37.250          39.250
 20  1  4  1  2  0.0000000  0  8G29G10G21G13G20G27G15G32
 127869496.379 6  99638569.466 6  24332755.570    24332755.547    24332756.606
  24332757.321          40.250          38.500
 115033010.883 8  89636113.744 8  21890053.882    21890053.880    21890056.952
  21890057.624          49.750          51.250
 109525431.206 8  85344496.93647  20841996.770    20841995.975
  20841997.347          48.250          46.0004
 125414143.165 6  97725305.22343  23865516.012    23865515.646
  23865516.898          39.500          23.2504
 106388374.818 8  82900040.23447  20245034.230    20245033.477
  20245035.078          48.750          46.2504
 119399051.106 7  93038217.435 8  22720883.661    22720883.687    22720886.963
  22720886.977          45.500          48.250
 113032942.733 8  88077616.335 8  21509451.074    21509451.381    21509452.632
  21509452.287          50.250          49.000
 129395211.016 6 100827437.801 6  24623090.699    24623090.399    24623094.917
  24623094.803          37.250          40.500
 20  1  4  1  2 30.0000000  0  8G29G10G21G13G20G27G15G32
 127986474.899 6  99729721.540 6  24355016.503    24355015.815    24355017.315
  24355016.684          40.500          37.000
 114972788.424 8  89589187.161 8  21878593.329    21878593.611    21878597.270
  21878597.719          49.500          51.500
 109528519.229 8  85346903.18347  20842584.459    20842583.549
  20842584.998          49.250          46.2504
 125509697.792 6  97799763.39843  23883699.419    23883699.829
  23883700.738          39.250          23.7504
 106367493.490 8  82883769.06947  20241060.578    20241059.897
  20241061.507          48.750          46.2504
 119345397.578 7  92996409.493 8  22710673.659    22710673.237    22710677.279
  22710677.116          45.250          48.250
 113100999.394 8  88130647.493 8  21522402.013    21522402.133    21522403.614
  21522403.096          50.000          49.000
 129283371.467 6 100740290.102 6  24601809.095    24601808.326    24601811.885
  24601811.939          37.250          40.750
 20  1  4  1  3  0.0000000  0  8G29G10G21G13G20G27G15G32
 128103501.295 6  99820910.933 6  24377285.627    24377287.266    24377287.334
  24377286.896          41.750          37.500
 114912796.717 8  89542440.388 8  21867177.689    21867177.883    21867181.133
  21867181.707          49.750          51.750
 109531941.569 8  85349569.93747  20843235.853    20843234.896
  20843236.138          49.000          46.2504
 125605547.159 6  97874451.23044  23901939.309    23901938.840
  23901939.071          39.500          24.7504
 106346925.569 8  82867742.12147  20237146.806    20237146.207
  20237147.535          49.250          46.2504
 119292270.412 7  92955011.703 8  22700563.525    22700563.085    22700567.112
  22700567.445          44.750          48.000
 113169525.155 8  88184044.189 8  21535441.895    21535442.098    21535443.489
  21535443.275          50.000          49.000
 129171598.083 6 100653193.967 6  24580538.039    24580537.982    24580542.343
  24580543.637          36.750          41.500
 20  1  4  1  3 30.0000000  0  9G29G24G10G21G13G20G27G15G32
 128220574.396 7  99912136.732 6  24399564.171    24399564.385    24399565.267
  24399565.210          42.250          38.500
 124556915.831 6  97057339.993 6  23702393.951    23702394.250    23702397.849
  23702398.138          36.750          37.750
 114853037.460 8  89495874.742 8  21855805.541    21855805.807    21855809.225
  21855809.663          49.250          51.500
 109535701.017 8  85352499.37247  20843951.166    20843950.327
  20843951.593          49.250          46.2504
 125701690.068 6  97949367.77444  23920234.490    23920234.662
  23920235.116          39.250          24.2504
 106326672.227 8  82851960.29547  20233292.673    20233291.930
  20233293.471          48.750          46.2504
 119239672.955 7  92914026.675 8  22690555.011    22690554.697    22690558.581
  22690558.492          44.750          48.000
 113238518.890 8  88237805.537 8  21548571.124    21548571.222    21548572.414
  21548572.376          50.000          49.000
 129059894.443 6 100566152.166 6  24559280.995    24559282.471    24559286.112
  24559285.943          37.000          41.250
 20  1  4  1  4  0.0000000  0  9G29G24G10G21G13G20G27G15G32
 128337689.594 7 100003395.322 6  24421850.646    24421850.572    24421852.108
  24421852.076          42.500          38.750
 124475306.292 6  96993748.118 7  23686863.826    23686864.004    23686867.881
  23686868.131          36.750          42.000
 114793508.925 8  89449488.869 8  21844478.068    21844478.238    21844481.426
  21844481.847          49.500          52.000
 109539796.386 8  85355690.56847  20844730.280    20844729.727
  20844730.892          49.000          46.2504
 125798121.725 6  98024509.32744  23938584.803    23938584.532
  23938585.697          39.250          24.2504
 106306731.652 8  82836422.18547  20229498.055    20229497.449
  20229498.862          49.000          46.2504
 119187605.119 7  92873454.324 8  22680646.439    22680646.456    22680650.282
  22680649.979          45.250          48.250
 113307976.057 8  88291928.013 8  21561788.485    21561788.482    21561789.746
  21561789.576          50.500          49.000
 128948260.682 6 100479164.827 6  24538038.968    24538038.867    24538042.282
  24538042.743          37.500          40.750
 20  1  4  1  4 30.0000000  0  9G29G24G10G32G21G13G20G27G15
 128454844.940 7 100094685.206 6  24444144.275    24444144.293    24444146.317
  24444144.885          42.750          37.250
 124393935.922 6  96930342.593 7  23671379.966    23671380.113    23671384.719
  23671384.801          39.000          42.500
 114734212.143 8  89403283.597 8  21833194.036    21833194.041    21833198.014
  21833198.306          49.250          52.000
 128836700.768 6 100392233.254 6  24516809.050    24516809.192    24516814.559
  24516813.485          36.500          37.500
 109544229.211 8  85359144.72647  20845574.001    20845573.284
  20845574.588          49.500          46.0004
 125894839.997 6  98099874.21244  23956988.204    23956989.701
  23956990.534          38.750          24.5004
 106287104.484 8  82821128.28847  20225763.200    20225762.462
  20225763.877          48.250          46.0004
 119136069.530 7  92833296.722 8  22670840.064    22670839.650    22670843.403
  22670843.407          45.500          48.500
 113377895.045 8  88346410.335 8  21575093.483    21575093.814    21575094.564
  21575094.720          49.750          48.500
 20  1  4  1  5  0.0000000  0  9G29G24G10G21G13G20G27G15G32
 128572037.896 7 100186004.387 6  24466445.886    24466445.295    24466446.708
  24466446.732          42.000          37.000
 124312807.601 6  96867125.706 7  23655942.478    23655942.942    23655946.688
  23655947.333          39.000          42.750
 114675147.208 8  89357258.972 8  21821954.637    21821954.637    21821958.101
  21821958.605          50.000          52.000
 109549000.323 8  85362862.47847  20846481.743    20846480.948
  20846482.325          49.250          46.2504
 125991842.059 6  98175460.24344  23975448.549    23975448.152
  23975449.690          38.750          24.0004
 106267790.479 8  82806078.41647  20222087.595    20222087.021
  20222088.589          48.750          46.0004
 119085067.852 7  92793555.152 8  22661134.471    22661134.104    22661138.048
  22661138.000          44.500          48.250
 113448273.103 8  88401250.387 8  21588486.084    21588486.290    21588487.129
  21588487.077          50.250          48.500
 128725213.672 6 100305360.974 6  24495594.262    24495594.388    24495598.376
  24495599.051          38.000          38.000
 20  1  4  1  5 30.0000000  0  9G29G24G10G21G13G20G27G15G32
 128689265.423 6 100277350.522 6  24488752.895    24488752.772    24488753.652
  24488754.395          41.000          38.500
 124231924.834 6  96804100.131 7  23640550.994    23640550.941    23640555.649
  23640555.703          39.500          43.750
 114616313.938 8  89311414.863 8  21810758.584    21810758.837    21810762.507
  21810762.864          49.500          51.750
 109554110.204 8  85366844.20747  20847454.029    20847453.374
  20847454.727          49.250          46.0004
 126089124.973 6  98251265.10843  23993959.541    23993959.768
  23993961.308          38.000          23.0004
 106248789.400 8  82791272.37847  20218472.140    20218471.254
  20218472.866          48.500          46.0004
 119034601.563 7  92754230.762 8  22651531.362    22651530.825    22651534.827
  22651534.573          45.250          48.500
 113519107.310 8  88456445.878 8  21601965.206    21601965.380    21601966.594
  21601966.279          50.250          48.500
 128613804.193 6 100218548.385 6  24474393.827    24474394.724    24474397.900
  24474398.240          39.250          41.000
 20  1  4  1  6  0.0000000  0  9G29G24G10G21G13G20G27G15G32
 128806525.373 6 100368721.892 6  24511066.656    24511066.539    24511068.908
  24511067.897          41.250          38.250
 124151291.433 6  96741268.864 7  23625207.335    23625207.060    23625210.736
  23625211.974          39.250          43.500
 114557713.130 8  89265751.899 8  21799607.662    21799607.760    21799611.192
  21799611.598          50.250          52.250
 109559560.257 8  85371091.00047  20848491.333    20848490.422
  20848491.749          49.000          46.2504
 126186686.461 6  98327287.06043  24012525.870    24012525.664
  24012527.339          38.250          23.0004
 106230101.806 8  82776710.61747  20214915.715    20214915.233
  20214916.742          48.500          46.2504
 118984673.034 7  92715325.404 8  22642030.200    22642029.959    22642033.247
  22642033.633          45.250          48.000
 113590395.669 8  88511995.248 8  21615530.944    21615530.955    21615532.674
  21615532.184          50.000          48.250
 128502474.071 6 100131797.630 6  24453208.664    24453209.010    24453212.537
  24453212.188          39.250          40.000
 20  1  4  1  6 30.0000000  0  9G29G24G10G21G13G20G27G15G32
 128923814.891 6 100460116.244 6  24533386.301    24533386.512    24533387.276
  24533387.488          40.000          39.000
 124070910.295 6  96678634.190 7  23609910.638    23609910.646    23609915.560
  23609914.821          38.500          43.750
 114499344.802 8  89220270.083 8  21788500.143    21788500.269    21788503.944
  21788504.311          50.000          52.000
 109565351.200 8  85375603.41447  20849593.065    20849592.580
  20849593.808          48.750          46.0004
 126284523.586 6  98403523.76643  24031143.244    24031143.627
  24031144.211          39.000          22.5004
 106211727.482 8  82762392.95847  20211419.293    20211418.641
  20211420.096          48.500          46.0004
 118935283.770 7  92676840.274 8  22632631.699    22632631.149    22632634.894
  22632635.103          46.000          48.250
 113662135.428 8  88567896.359 8  21629182.659    21629182.601    21629183.762
  21629183.727          50.250          48.250
 128391225.136 6 100045110.119 6  24432038.834    24432039.483    24432041.927
  24432041.660          39.250          40.000
 20  1  4  1  7  0.0000000  0  9G29G24G10G21G13G20G27G15G32
 129041132.353 6 100551532.468 6  24555711.096    24555710.517    24555712.260
  24555712.261          41.000          37.000
 123990785.638 6  96616199.402 7  23594662.555    23594662.516    23594667.399
  23594667.037          37.500          44.000
 114441209.945 8  89174970.216 8  21777437.846    21777437.863    21777441.267
  21777441.754          50.500          52.250
 109571484.734 8  85380382.78747  20850760.405    20850759.740
  20850761.020          49.250          46.0004
 126382634.252 6  98479973.65243  24049812.911    24049812.972
  24049814.653          38.750          23.0004
 106193667.200 8  82748320.01547  20207982.417    20207981.621
  20207983.401          48.500          46.0004
 118886436.369 7  92638777.362 8  22623336.337    22623335.945    22623339.777
  22623339.674          45.500          48.500
 113734324.776 8  88624147.792 8  21642919.501    21642920.023    21642920.645
  21642920.942          50.250          48.250
 128280060.377 6  99958488.199 6  24410884.595    24410884.993    24410888.653
  24410888.092          38.750          41.000
 20  1  4  1  7 30.0000000  0  8G29G10G21G13G20G27G15G32
 129158472.780 6 100642966.532 6  24578040.082    24578040.210    24578041.406
  24578041.491          39.500          38.000
 114383306.400 8  89129850.574 8  21766418.731    21766418.774    21766422.533
  21766422.948          50.000          52.000
 109577959.388 8  85385427.96847  20851992.476    20851991.708
  20851993.119          49.500          46.2504
 126481013.265 6  98556632.63943  24068534.629    24068534.052
  24068535.328          38.500          22.2504
 106175918.317 8  82734489.71147  20204604.845    20204604.161
  20204605.887          48.500          46.2504
 118838130.147 7  92601136.152 8  22614143.581    22614143.692    22614147.116
  22614147.069          45.250          48.250
 113806958.477 8  88680745.481 8  21656741.442    21656741.546    21656742.694
  21656742.796          50.250          48.250
 128168979.487 6  99871931.694 6  24389746.469    24389746.827    24389750.790
  24389749.651          38.750          41.750
 20  1  4  1  8  0.0000000  0  9G29G10G24G21G13G20G27G15G32
 129275834.553 7 100734417.233 6  24600373.177    24600373.863    24600374.550
  24600375.209          42.750          38.250
 114325635.590 8  89084912.300 8  21755444.716    21755444.920    21755448.197
  21755448.354          50.750          52.000
 123831322.868 6  96491936.912 6  23564316.586    23564317.099    23564320.666
  23564320.770          38.750          40.250
 109584776.980 8  85390740.37647  20853289.809    20853289.026
  20853290.486          49.000          46.0004
 126579659.262 6  98633499.65543  24087306.307    24087306.832
  24087307.353          38.750          23.7504
 106158482.530 8  82720903.38147  20201287.021    20201286.463
  20201288.045          48.750          46.2504
 118790368.048 7  92563918.929 8  22605055.069    22605054.879    22605058.440
  22605058.223          45.750          48.250
 113880035.436 8  88737688.566 8  21670647.608    21670647.623    21670649.401
  21670648.726          50.000          48.500
 128057985.923 6  99785443.194 6  24368625.574    24368625.538    24368628.904
  24368629.698          39.000          41.750
 20  1  4  1  8 30.0000000  0  9G29G10G24G21G13G20G27G15G32
 129393216.499 7 100825883.674 6  24622710.658    24622710.718    24622710.869
  24622711.875          42.000          36.250
 114268199.170 8  89040156.664 8  21744514.468    21744514.558    21744518.446
  21744518.916          50.500          52.250
 123751983.693 6  96430114.169 7  23549218.931    23549218.975    23549222.672
  23549223.543          38.500          44.250
 109591939.890 8  85396321.86447  20854652.550    20854652.092
  20854653.450          48.750          46.0004
 126678570.855 6  98710573.61843  24106127.857    24106127.767
  24106130.075          38.750          23.0004
 106141361.269 8  82707562.13847  20198029.232    20198028.530
  20198030.059          49.000          46.0004
 118743153.210 7  92527128.144 8  22596070.558    22596070.336    22596073.921
  22596073.777          46.000          48.250
 113953554.763 8  88794976.347 8  21684637.932    21684638.024    21684639.591
  21684639.250          50.250          48.250
 127947083.165 6  99699025.469 6  24347520.487    24347520.980    24347524.866
  24347524.916          39.500          41.500
 20  1  4  1  9  0.0000000  0  9G29G10G24G21G13G20G27G15G32
 129510615.360 6 100917363.303 5  24645050.693    24645051.587    24645050.184
  24645052.612          39.000          33.000
 114210996.675 8  88995583.310 8  21733629.757    21733629.886    21733632.892
  21733633.577          51.500          52.250
 123672913.236 6  96368500.841 7  23534171.183    23534171.827    23534176.179
  23534176.834          37.750          44.500
 109599448.263 8  85402172.54047  20856081.453    20856080.989
  20856082.270          49.250          45.7504
 126777744.588 6  98787851.85643  24125000.689    24125000.505
  24125001.636          39.000          23.5004
 106124553.525 8  82694465.19947  20194830.582    20194830.035
  20194831.599          48.500          46.0004
 118696486.674 7  92490764.608 8  22587190.283    22587189.872    22587193.414
  22587193.347          46.000          48.000
 114027512.590 8  88852605.826 8  21698711.535    21698711.667    21698713.190
  21698712.809          50.000          48.500
 127836272.751 6  99612679.689 6  24326434.246    24326435.097    24326438.607
  24326439.154          39.750          41.750
 20  1  4  1  9 30.0000000  0  9G10G24G21G13G29G20G27G15G32
 114154027.030 8  88951191.379 8  21722788.055    21722788.249    21722792.193
  21722792.542          50.000          52.250
 123594113.731 6  96307098.650 7  23519176.523    23519176.430    23519181.356
  23519181.055          38.750          44.500
 109607301.481 8  85408291.92647  20857575.788    20857575.402
  20857576.731          49.250          46.0004
 126877176.307 6  98865331.13244  24143922.056    24143922.049
  24143922.796          39.500          24.5004
 129628027.775 6                  24667393.424
                        36.000
 106108058.020 8  82681611.55847  20191691.733    20191691.009
  20191692.536          48.750          46.0004
 118650368.731 7  92454828.564 8  22578413.730    22578414.023    22578417.746
  22578417.572          46.250          48.250
 114101905.482 8  88910574.314 8  21712868.077    21712868.080    21712869.726
  21712869.315          50.000          48.250
 127725555.432 6  99526406.420 6  24305365.867    24305365.427    24305369.753
  24305369.507          39.750          41.500
 20  1  4  1 10  0.0000000  0  8G10G24G21G13G20G27G15G32
 114097291.356 8  88906981.795 8  21711992.152    21711992.557    21711995.627
  21711996.068          51.000          52.500
 123515589.066 6  96245910.593 7  23504234.239    23504234.556    23504238.397
  23504238.891          39.750          44.000
 109615501.601 8  85414681.62647  20859136.249    20859135.940
  20859137.154          49.500          46.0004
 126976864.450 6  98943010.17743  24162892.161    24162891.954
  24162893.108          40.250          23.0004
 106091876.110 8  82669002.27647  20188612.486    20188611.643
  20188613.245          49.000          46.0004
 118604802.086 7  92419322.082 8  22569742.802    22569742.817    22569746.451
  22569746.584          45.750          48.500
 114176731.443 8  88968880.257 7  21727107.155    21727107.281    21727108.278
  21727108.217          50.250          47.750
 127614934.421 6  99440208.248 6  24284314.636    24284315.268    24284319.352
  24284319.143          38.750          41.750
 20  1  4  1 10 30.0000000  0  8G10G24G21G13G20G27G15G32
 114040789.563 8  88862954.424 8  21701239.564    21701239.839    21701243.667
  21701244.083          50.250          52.500
 123437342.046 6  96184938.894 7  23489344.271    23489344.724    23489348.269
  23489348.546          38.500          43.250
 109624049.051 8  85421341.97447  20860762.764    20860762.244
  20860763.696          49.750          46.0004
 127076805.787 6  99020886.54743  24181909.871    24181909.840
  24181911.605          39.250          23.2504
 106076006.945 8  82656636.69747  20185592.703    20185591.949
  20185593.343          48.750          46.2504
 118559787.898 7  92384246.086 8  22561176.933    22561177.126    22561180.907
  22561180.425          46.250          48.500
 114251987.439 8  89027521.301 8  21741427.742    21741427.880    21741429.033
  21741428.922          50.000          48.000
 127504411.377 6  99354086.402 7  24263282.839    24263282.983    24263287.654
  24263288.406          38.750          42.750
 20  1  4  1 11  0.0000000  0  9G08G10G24G21G13G20G27G15G32
 131234677.191 6 102260791.418 5  24973129.072    24973130.205    24973133.598
  24973133.675          36.750          34.750
 113984522.354 8  88819109.873 8  21690533.041    21690532.948    21690536.378
  21690536.661          51.000          52.250
 123359376.714 6  96124186.678 7  23474508.252    23474508.622    23474512.131
  23474511.887          40.000          43.500
 109632945.023 8  85428273.89147  20862455.941    20862455.163
  20862456.620          49.750          46.2504
 127176998.038 6  99098958.41343  24200976.204    24200975.666
  24200976.930          40.000          22.2504
 106060451.180 8  82644515.32347  20182632.519    20182631.670
  20182633.261          49.000          46.0004
 118515328.390 7  92349602.306 8  22552716.708    22552716.469    22552720.326
  22552720.353          46.250          48.500
 114327671.721 8  89086496.073 8  21755830.092    21755830.227    21755831.247
  21755831.120          50.250          48.000
 127393989.045 6  99268043.024 7  24242270.239    24242270.673    24242275.469
  24242275.319          40.000          42.500
 20  1  4  1 11 30.0000000  0  8G10G24G21G13G20G27G15G32
 113928489.453 8  88775447.877 8  21679869.848    21679870.049    21679873.711
  21679874.104          51.500          52.500
 123281695.494 6  96063655.840 7  23459725.941    23459726.526    23459730.265
  23459730.238          40.000          43.500
 109642189.833 8  85435477.63247  20864215.057    20864214.418
  20864215.751          49.750          46.2504
 127277437.895 6  99177223.26043  24220089.669    24220089.183
  24220090.725          40.500          23.2504
 106045208.581 8  82632637.98147  20179731.773    20179731.121
  20179732.572          48.750          46.0004
 118471424.573 7  92315391.535 8  22544361.728    22544362.020    22544365.603
  22544365.585          46.250          48.750
 114403781.087 8  89145802.068 8  21770313.406    21770313.281    21770314.585
  21770314.279          50.250          48.000
 127283669.005 6  99182079.358 6  24221277.392    24221278.185    24221281.037
  24221282.570          40.000          41.250
 20  1  4  1 12  0.0000000  0  8G10G24G21G13G20G27G15G32
 113872691.055 8  88731968.627 8  21669252.061    21669252.254    21669255.357
  21669255.835          51.500          52.250
 123204302.524 6  96003349.630 7  23444998.246    23444998.537    23445002.491
  23445002.132          39.500          42.250
 109651784.277 8  85442953.80847  20866040.683    20866040.216
  20866041.604          49.750          46.5004
 127378122.925 6  99255679.15343  24239249.433    24239249.509
  24239249.798          39.250          21.2504
 106030278.831 8  82621004.41147  20176890.768    20176890.074
  20176891.655          48.750          46.0004
 118428078.090 7  92281615.065 8  22536113.554    22536113.248    22536116.907
  22536117.312          46.500          48.500
 114480312.967 8  89205437.296 8  21784876.586    21784876.904    21784878.073
  21784877.708          49.750          48.250
 127173453.490 6  99096197.120 6  24200304.627    24200303.998    24200307.928
  24200307.947          40.500          41.250
 20  1  4  1 12 30.0000000  0  8G10G24G21G13G20G27G15G32
 113817126.984 8  88688671.952 8  21658678.058    21658678.303    21658682.057
  21658682.584          51.000          52.500
 123127199.889 6  95943269.636 7  23430326.945    23430326.356    23430330.482
  23430330.639          39.750          43.000
 109661728.986 8  85450702.92947  20867933.313    20867932.615
  20867933.936          50.000          46.2504
 127479049.736 6  99334323.42743  24258454.724    24258454.711
  24258455.663          38.750          20.7504
 106015661.595 8  82609614.35747  20174109.275    20174108.389
  20174110.051          49.250          46.0004
 118385290.027 7  92248273.714 8  22527971.496    22527971.048    22527974.655
  22527974.677          45.750          48.250
 114557263.992 8  89265399.133 7  21799520.080    21799520.198    21799521.229
  21799520.925          50.000          47.500
 127063344.064 6  99010397.543 6  24179350.261    24179350.661    24179354.429
  24179354.559          39.250          41.000
 20  1  4  1 13  0.0000000  0  9G08G10G24G21G13G20G27G15G32
 130885228.008 6 101988486.842 6  24906630.166    24906629.435    24906634.532
  24906634.707          37.750          38.500
 113761797.830 8  88645558.338 8  21648149.868    21648149.768    21648153.082
  21648153.436          51.500          52.500
 123050391.316 6  95883418.802 7  23415710.173    23415710.147    23415714.150
  23415714.621          40.500          42.500
 109672025.023 8  85458725.81047  20869892.603    20869891.951
  20869893.162          50.000          46.2504
 127580216.185 6  99413154.46143  24277706.299    24277706.293
  24277706.269          38.250          20.0004
 106001357.253 8  82598468.11947  20171386.977    20171386.468
  20171388.036          48.750          46.0004
 118343062.361 7  92215369.025 8  22519935.486    22519935.185    22519939.001
  22519939.060          46.500          48.750
 114634632.073 8  89325685.944 8  21814242.880    21814242.986    21814243.941
  21814243.704          49.750          48.000
 126953343.389 6  98924682.735 6  24158419.128    24158418.724    24158422.397
  24158423.546          40.750          41.500
 20  1  4  1 13 30.0000000  0  9G08G10G24G21G13G20G27G15G32
 130798646.467 6 101921020.695 6  24890153.786    24890153.383    24890158.854
  24890157.818          36.750          38.750
 113706703.593 8  88602627.772 8  21637665.473    21637665.751    21637669.313
  21637669.833          51.750          53.000
 122973879.943 6  95823799.570 7  23401150.251    23401150.525    23401155.483
  23401154.890          40.250          43.250
 109682672.793 8  85467022.77647  20871918.979    20871918.162
  20871919.469          50.500          46.5004
 127681619.207 6  99492169.80643  24297002.251    24297002.168
  24297003.482          37.750          19.0004
 105987365.806 8  82587565.69547  20168724.664    20168724.087
  20168725.578          48.750          46.0004
 118301396.344 7  92182901.999 8  22512006.545    22512006.338    22512010.455
  22512010.655          46.250          48.500
 114712414.332 8  89386295.501 7  21829044.395    21829044.417    21829045.417
  21829045.227          50.000          47.750
 126843453.357 6  98839054.125 7  24137507.410    24137508.074    24137511.526
  24137511.655          41.000          42.250
 20  1  4  1 14  0.0000000  0  8G10G24G21G13G20G27G15G32
 113651845.038 8  88559880.866 8  21627226.372    21627226.546    21627229.562
  21627230.231          51.750          52.250
 122897668.895 6  95764414.356 7  23386648.210    23386648.458    23386652.356
  23386652.559          40.750          43.500
 109693673.772 8  85475594.96347  20874012.369    20874011.571
  20874012.870          50.500          46.5004
 127783256.603 6  99571367.77643  24316343.647    24316342.995
  24316344.318          38.250          20.7504
 105973687.687 8  82576907.42647  20166121.875    20166121.136
  20166122.703          48.750          46.0004
 118260294.112 7  92150874.282 8  22504185.498    22504185.278    22504188.942
  22504188.524          46.500          48.500
 114790608.798 8  89447226.251 7  21843924.047    21843924.253    21843925.252
  21843925.221          49.500          47.750
 126733676.695 6  98753513.897 7  24116617.688    24116617.718    24116623.093
  24116621.819          41.000          43.500
 20  1  4  1 14 30.0000000  0  8G10G24G21G13G20G27G15G32
 113597221.667 8  88517317.198 8  21616831.725    21616831.791    21616835.340
  21616835.681          51.500          52.500
 122821761.267 6  95705265.563 7  23372203.316    23372204.006    23372206.964
  23372207.212          40.500          43.000
 109705027.820 8  85484442.27747  20876172.964    20876172.301
  20876173.445          50.500          46.2504
 127885125.038 6  99650745.78643  24335728.113    24335728.938
  24335730.010          38.250          21.0004
 105960322.336 8  82566492.87047  20163578.534    20163577.737
  20163579.276          49.500          45.7504
 118219756.316 7  92119286.391 8  22496471.580    22496471.241    22496474.775
  22496474.631          47.250          48.250
 114869212.037 8  89508475.535 8  21858881.828    21858881.821    21858883.346
  21858882.882          50.000          48.000
 126624014.731 6  98668063.041 7  24095748.871    24095749.894    24095753.773
  24095753.989          39.750          43.500
 20  1  4  1 15  0.0000000  0  8G10G24G21G13G20G27G15G32
 113542834.230 8  88474937.404 8  21606482.395    21606482.347    21606486.032
  21606486.465          51.750          52.750
 122746161.377 6  95646356.551 7  23357816.863    23357817.912    23357820.351
  23357820.646          40.750          42.000
 109716736.544 8  85493565.95247  20878401.145    20878400.286
  20878401.654          50.250          46.2504
 127987222.169 6  99730301.98443  24355156.482    24355156.501
  24355156.683          39.250          23.7504
 105947269.906 8  82556322.14747  20161094.593    20161093.954
  20161095.541          49.250          45.7504
 118179785.025 7  92088139.933 8  22488865.047    22488865.254    22488868.459
  22488868.716          47.250          48.250
 114948222.066 8  89570041.791 7  21873916.773    21873916.863    21873917.987
  21873917.950          49.750          47.500
 126514470.187 6  98582703.683 7  24074903.063    24074903.493    24074907.465
  24074907.889          39.000          42.750
 20  1  4  1 15 30.0000000  0  8G10G24G21G13G20G27G15G32
 113488682.806 8  88432741.487 8  21596177.531    21596177.615    21596180.890
  21596181.279          52.000          52.250
 122670870.976 6  95587688.705 7  23343489.812    23343489.668    23343494.461
  23343494.299          40.500          43.250
 109728800.323 8  85502966.29247  20880696.586    20880695.970
  20880697.253          50.250          46.5004
 128089545.314 6  99810034.31644  24374628.268    24374628.967
  24374629.777          40.000          24.2504
 105934530.598 8  82546395.41447  20158670.498    20158669.644
  20158671.261          49.000          46.0004
 118140381.485 7  92057435.857 8  22481366.692    22481366.647    22481370.033
  22481370.063          46.750          48.750
 115027635.721 8  89631922.550 7  21889028.799    21889028.917    21889029.706
  21889029.749          50.000          47.000
 126405045.037 6  98497437.330 7  24054080.260    24054080.491    24054085.059
  24054084.994          39.000          42.000
 20  1  4  1 16  0.0000000  0  9G08G10G24G21G13G20G27G15G32
 130370556.623 6 101587450.595 5  24808692.083    24808692.268    24808697.194
  24808697.318          37.500          35.750
 113434766.982 8  88390729.168 8  21585917.984    21585917.901    21585921.001
  21585921.660          52.000          52.750
 122595893.056 6  95529264.338 7  23329221.968    23329221.923    23329226.821
  23329226.395          40.000          44.000
 109741219.432 8  85512643.51947  20883059.840    20883059.185
  20883060.546          50.250          46.2504
 128192091.220 6  99889940.21144  24394142.341    24394141.717
  24394143.039          40.750          24.2504
 105922103.655 8  82536712.08147  20156305.741    20156305.093
  20156306.451          49.250          46.0004
 118101546.570 7  92027174.879 8  22473976.689    22473976.594    22473980.207
  22473980.137          47.250          48.750
 115107449.967 8  89694115.479 7  21904216.949    21904217.157    21904217.830
  21904217.998          49.750          46.750
 126295740.883 6  98412265.278 7  24033281.628    24033281.485    24033284.768
  24033285.268          40.500          42.500
 20  1  4  1 16 30.0000000  0  9G08G10G24G21G13G20G27G15G32
 130285923.384 6 101521502.600 6  24792588.427    24792586.581    24792592.438
  24792591.384          37.750          39.750
 113381088.199 8  88348901.550 8  21575703.082    21575702.878    21575706.437
  21575706.906          51.750          52.750
 122521232.603 6  95471087.387 7  23315014.686    23315014.812    23315019.071
  23315018.320          40.750          43.250
 109753995.889 8  85522599.19247  20885491.031    20885490.490
  20885491.742          50.000          45.7504
 128294858.253 6  99970018.41144  24413697.846    24413698.552
  24413698.733          40.500          24.5004
 105909990.332 8  82527273.13247  20154000.403    20153999.839
  20154001.494          49.250          45.7504
 118063282.841 7  91997358.990 8  22466695.109    22466694.887    22466698.766
  22466698.620          47.000          48.250
 115187663.278 8  89756619.359 7  21919480.641    21919481.358    21919481.967
  21919482.015          49.500          47.000
 126186561.028 6  98327190.054 7  24012505.083    24012504.626    24012508.982
  24012509.287          41.000          43.000
 20  1  4  1 17  0.0000000  0  9G08G10G24G21G13G20G27G15G32
 130201622.545 6 101455813.582 6  24776544.480    24776544.901    24776550.330
  24776549.599          37.500          39.000
 113327644.345 8  88307257.007 8  21565532.923    21565533.183    21565536.287
  21565536.817          52.000          52.750
 122446890.035 6  95413158.097 7  23300867.079    23300867.849    23300871.290
  23300872.263          40.250          43.500
 109767127.948 8  85532831.96147  20887989.919    20887989.387
  20887990.748          49.750          46.0004
 128397841.472 6 100050265.07444  24433295.151    24433294.777
  24433296.291          40.000          24.2504
 105898188.469 8  82518076.87347  20151754.670    20151754.030
  20151755.637          49.250          46.0004
 118025589.416 7  91967987.490 8  22459522.246    22459522.293    22459525.980
  22459525.775          47.250          48.750
 115268270.842 8  89819430.450 7  21934820.114    21934820.108    21934821.310
  21934821.238          49.250          47.250
 126077505.299 6  98242211.581 7  23991752.549    23991752.475    23991756.919
  23991756.559          41.000          43.500
 20  1  4  1 17 30.0000000  0  9G08G10G24G21G13G20G27G15G32
 130117658.646 6 101390387.162 6  24760567.438    24760566.772    24760570.954
  24760571.511          38.750          38.250
 113274438.313 8  88265797.760 8  21555407.965    21555407.973    21555411.864
  21555412.312          51.500          52.750
 122372871.083 6  95355481.007 7  23286782.576    23286782.214    23286786.517
  23286786.128          41.250          44.250
 109780619.099 8  85543344.53947  20890557.383    20890556.714
  20890557.919          50.000          46.0004
 128501040.875 6 100130680.20243  24452933.109    24452933.056
  24452934.898          39.250          22.5004
 105886700.617 8  82509125.29947  20149568.670    20149568.065
  20149569.531          49.250          46.0004
 117988470.250 7  91939063.456 8  22452458.757    22452458.783    22452462.179
  22452462.309          46.750          48.750
 115349272.756 8  89882548.834 7  21950234.119    21950234.483    21950235.612
  21950235.488          49.750          47.500
 125968578.454 6  98157333.524 7  23971023.877    23971024.263    23971028.341
  23971028.538          41.500          43.500
 20  1  4  1 18  0.0000000  0  9G08G10G24G21G13G20G27G15G32
 130034032.344 6 101325223.824 6  24744654.294    24744653.975    24744658.248
  24744658.135          38.750          38.250
 113221468.272 8  88224522.433 8  21545328.235    21545328.549    21545331.599
  21545332.078          52.000          52.500
 122299177.121 6  95298057.142 7  23272759.275    23272759.406    23272762.534
  23272763.124          41.500          44.750
 109794468.086 8  85554135.95547  20893192.641    20893192.084
  20893193.373          49.750          46.2504
 128604451.740 6 100211260.09843  24472611.812    24472612.189
  24472612.620          39.000          21.7504
 105875524.451 8  82500416.60247  20147441.673    20147441.215
  20147442.823          49.000          45.7504
 117951924.702 7  91910586.406 8  22445504.483    22445504.209    22445507.974
  22445508.018          47.250          48.500
 115430664.217 8  89945970.749 7  21965722.391    21965722.720    21965723.574
  21965723.764          49.500          47.750
 125859780.659 7  98072556.029 7  23950321.018    23950321.040    23950325.246
  23950325.814          42.250          43.250
 20  1  4  1 18 30.0000000  0  9G08G10G24G21G13G20G27G15G32
 129950747.408 6 101260326.447 6  24728805.679    24728805.116    24728809.889
  24728810.275          39.500          38.750
 113168735.201 8  88183431.713 8  21535293.091    21535293.408    21535296.927
  21535297.372          51.250          52.750
 122225812.365 6  95240889.835 7  23258798.495    23258798.076    23258802.080
  23258802.718          41.500          45.000
 109808676.130 8  85565207.15347  20895896.285    20895895.736
  20895897.177          49.750          46.0004
 128708071.927 6 100292003.10143  24492330.563    24492330.108
  24492331.662          38.250          20.0004
 105864661.124 8  82491951.67947  20145374.776    20145374.117
  20145375.541          49.250          46.0004
 117915954.782 7  91882557.898 8  22438659.816    22438659.608    22438663.037
  22438663.669          47.500          48.750
 115512443.102 8  90009694.552 7  21981284.782    21981284.725    21981285.873
  21981285.772          49.750          47.500
 125751114.756 7  97987881.298 7  23929642.146    23929642.544    23929645.507
  23929646.169          42.000          42.500
 20  1  4  1 19  0.0000000  0  9G08G10G24G21G13G20G27G15G32
 129867805.714 6 101195696.533 6  24713022.069    24713021.891    24713026.541
  24713026.107          38.750          39.500
 113116239.084 8  88142525.669 8  21525304.080    21525304.022    21525307.411
  21525307.943          52.250          53.000
 122152779.453 6  95183981.092 7  23244900.183    23244900.700    23244904.310
  23244904.293          41.500          45.000
 109823244.055 8  85576558.78347  20898668.690    20898667.914
  20898669.255          49.750          46.0004
 128811898.878 6 100372907.25743  24512088.237    24512087.444
  24512086.966          38.250          19.0004
 105854110.313 8  82483730.26847  20143367.061    20143366.372
  20143367.768          49.500          46.0004
 117880561.591 7  91854978.784 8  22431924.491    22431924.586    22431928.299
  22431928.288          47.250          49.000
 115594606.670 8  90073718.114 7  21996919.607    21996919.822    21996921.461
  21996920.937          49.000          47.250
 125642582.650 6  97903310.831 7  23908988.662    23908989.948    23908992.962
  23908993.241          41.000          42.750
 20  1  4  1 19 30.0000000  0  9G08G10G24G21G13G20G27G15G32
 129785210.350 6 101131336.473 6  24697304.817    24697304.174    24697309.573
  24697309.225          38.000          39.500
 113063980.576 8  88101804.750 8  21515359.110    21515359.311    21515362.882
  21515363.146          51.500          52.750
 122080081.866 6  95127333.645 7  23231066.500    23231067.028    23231070.694
  23231070.756          41.500          45.500
 109838172.760 8  85588191.54047  20901509.603    20901508.841
  20901509.974          50.000          46.0004
 128915930.326 6 100453970.71043  24531884.834    24531883.872
  24531884.514          39.000          19.2504
 105843872.266 8  82475752.57047  20141418.727    20141418.091
  20141419.574          49.500          45.7504
 117845746.851 7  91827850.415 8  22425299.717    22425299.520    22425302.813
  22425303.299          47.750          48.750
 115677152.596 8  90138039.612 7  22012627.455    22012627.856    22012628.792
  22012629.036          49.000          46.750
 125534186.907 6  97818846.624 7  23888361.348    23888361.837    23888366.342
  23888365.728          40.500          43.500
 20  1  4  1 20  0.0000000  0  9G08G10G24G21G13G20G27G15G32
 129702963.657 6 101067248.135 6  24681653.021    24681652.216    24681658.934
  24681657.686          37.750          38.750
 113011959.907 8  88061269.171 8  21505460.139    21505460.205    21505463.783
  21505464.249          52.000          53.000
 122007723.063 6  95070950.199 7  23217296.597    23217296.905    23217301.723
  23217301.418          41.250          45.250
 109853462.984 8  85600105.99747  20904419.084    20904418.356
  20904419.804          50.250          46.0004
 129020163.548 6 100535191.41442  24551719.836    24551718.190
  24551719.633          38.750          17.7504
 105833947.388 8  82468018.89247  20139530.240    20139529.524
  20139531.146          49.500          46.0004
 117811511.820 8  91801173.767 8  22418785.060    22418784.743    22418788.432
  22418788.542          48.000          49.000
 115760078.009 8  90202656.806 7  22028407.985    22028408.002    22028409.041
  22028408.915          49.250          47.000
 125425929.664 6  97734490.365 7  23867760.660    23867761.568    23867765.412
  23867765.874          40.750          43.250
 20  1  4  1 20 30.0000000  0  9G08G10G24G21G13G20G27G15G32
 129621067.970 6 101003433.307 6  24666068.571    24666068.083    24666073.645
  24666073.290          37.000          39.500
 112960176.986 8  88020918.842 8  21495605.987    21495606.026    21495609.636
  21495610.093          52.000          52.750
 121935705.943 6  95014832.978 7  23203592.446    23203592.608    23203597.170
  23203596.986          40.500          45.000
 109869115.214 8  85612302.54147  20907397.509    20907396.891
  20907398.219          50.000          46.0004
 129124595.585 6 100616567.03243  24571592.520    24571592.329
  24571591.862          39.250          19.5004
 105824335.087 8  82460528.78347  20137701.032    20137700.186
  20137701.850          49.250          45.7504
 117777857.406 7  91774949.544 8  22412380.607    22412380.344    22412384.358
  22412384.208          47.500          48.750
 115843380.328 8  90267567.700 7  22044259.684    22044259.910    22044260.885
  22044260.777          49.250          46.750
 125317812.915 6  97650243.547 7  23847187.082    23847187.710    23847191.769
  23847191.164          41.500          43.500
 20  1  4  1 21  0.0000000  0  8G10G24G21G13G20G27G15G32
 112908630.051 8  87980752.406 8  21485797.464    21485797.515    21485800.678
  21485801.039          52.750          53.000
 121864031.255 6  94958982.556 7  23189952.841    23189953.194    23189956.327
  23189957.756          40.500          43.500
 109885128.054 8  85624780.07447  20910444.582    20910444.108
  20910445.498          50.000          46.0004
 129229221.678 6 100698093.87743  24591502.480    24591502.101
  24591503.093          39.500          19.7504
 105815033.492 8  82453280.78647  20135930.877    20135930.333
  20135931.818          49.000          46.0004
 117744782.847 8  91749177.155 8  22406086.806    22406086.578    22406090.375
  22406090.397          48.000          48.750
 115927054.941 8  90332768.706 7  22060182.495    22060182.561    22060183.722
  22060183.741          49.250          47.000
 125209836.514 7  97566106.111 7  23826640.242    23826640.364    23826643.635
  23826644.225          42.000          43.500
 20  1  4  1 21 30.0000000  0  8G10G24G21G13G20G27G15G32
 112857321.824 8  87940771.981 8  21476033.157    21476033.366    21476036.989
  21476037.616          51.750          53.500
 121792704.785 6  94903403.496 7  23176380.234    23176380.019    23176384.479
  23176384.937          41.500          44.250
 109901504.715 8  85637541.10647  20913561.262    20913560.473
  20913561.909          50.750          46.5004
 129334041.785 6 100779771.88143  24611448.752    24611447.945
  24611448.722          40.250          21.0004
 105806045.376 8  82446277.05647  20134220.529    20134220.015
  20134221.426          49.500          46.0004
 117712291.840 7  91723859.484 8  22399903.981    22399903.814    22399907.357
  22399907.447          47.750          48.500
 116011101.456 8  90398259.491 7  22076176.282    22076176.070    22076177.545
  22076177.156          49.250          46.750
 125102005.212 7  97482081.731 7  23806120.984    23806120.812    23806124.627
  23806124.686          43.000          43.250
 20  1  4  1 22  0.0000000  0  8G10G24G21G13G20G27G15G32
 112806251.384 8  87900976.834 8  21466315.156    21466315.438    21466318.608
  21466318.937          52.500          52.750
 121721729.141 6  94848097.799 7  23162874.020    23162874.092    23162878.533
  23162878.839          41.000          44.250
 109918244.858 8  85650585.37047  20916746.686    20916746.106
  20916747.411          50.250          46.2504
 129439052.234 6 100861598.24143  24631431.021    24631430.890
  24631431.876          40.250          20.2504
 105797369.402 8  82439516.56147  20132569.747    20132568.775
  20132570.390          49.500          45.7504
 117680384.427 7  91698996.561 8  22393832.280    22393832.057    22393835.773
  22393835.729          47.250          48.750
 116095516.014 8  90464037.075 7  22092239.597    22092239.697    22092241.027
  22092240.764          48.750          46.500
 124994320.037 7  97398171.216 7  23785628.566    23785629.082    23785632.666
  23785632.805          43.000          42.750
 20  1  4  1 22 30.0000000  0  9G10G24G21G13G08G20G27G15G32
 112755420.844 8  87861368.628 8  21456642.269    21456642.118    21456646.058
  21456646.510          51.750          53.250
 121651108.364 6  94793068.613 7  23149434.180    23149434.901    23149438.341
  23149439.103          40.500          43.250
 109935350.981 8  85663914.80647  20920001.702    20920001.217
  20920002.594          50.500          46.0004
 129544252.098 6 100943572.17843  24651450.088    24651449.894
  24651450.979          39.750          20.7504
 129297041.101 6 100750940.767 7  24604409.002    24604409.142    24604414.330
  24604413.463          39.500          42.750
 105789007.233 8  82433000.58247  20130978.235    20130977.613
  20130979.055          49.500          45.7504
 117649063.601 7  91674590.718 8  22387872.149    22387871.703    22387875.688
  22387875.407          47.250          48.500
 116180297.968 8  90530100.935 7  22108372.766    22108373.244    22108374.275
  22108373.963          48.500          46.250
 124886784.930 7  97314377.620 7  23765165.597    23765165.876    23765169.654
  23765169.301          42.500          43.000
 20  1  4  1 23  0.0000000  0  9G10G24G21G13G08G20G27G15G32
 112704827.189 8  87821945.012 8  21447014.631    21447014.924    21447018.157
  21447018.545          52.000          53.250
 121580842.835 6  94738316.258 7  23136064.116    23136064.178    23136068.746
  23136068.440          40.250          45.250
 109952820.409 8  85677527.34847  20923326.248    20923325.530
  20923326.898          50.500          46.0004
 129649635.570 6 101025689.16943  24671504.109    24671503.635
  24671504.564          40.250          21.5004
 129216935.947 6 100688521.155 6  24589165.896    24589165.593    24589170.582
  24589170.295          39.500          41.500
 105780955.702 8  82426726.66147  20129446.149    20129445.481
  20129446.997          48.750          45.7504
 117618327.279 7  91650640.341 8  22382022.885    22382022.598    22382026.899
  22382026.540          47.000          48.750
 116265441.542 8  90596446.576 7  22124575.146    22124575.308    22124576.673
  22124576.204          48.750          46.250
 124779398.837 7  97230700.139 7  23744730.228    23744731.039    23744734.574
  23744734.061          42.250          43.750
 20  1  4  1 23 30.0000000  0  9G10G24G21G13G08G20G27G15G32
 112654472.206 8  87782707.376 8  21437432.258    21437432.332    21437435.984
  21437436.344          52.000          53.000
 121510937.369 6  94683844.495 7  23122761.645    23122762.035    23122765.647
  23122765.909          40.750          45.000
 109970655.538 8  85691424.84847  20926720.324    20926719.595
  20926720.786          50.250          46.2504
 129755201.870 6 101107948.63043  24691591.364    24691592.398
  24691591.919          39.500          22.0004
 129137196.611 6 100626386.609 6  24573992.117    24573991.655    24573996.875
  24573997.166          39.500          41.000
 105773216.651 8  82420696.23247  20127973.255    20127972.740
  20127974.219          49.500          45.7504
 117588178.174 7  91627147.533 8  22376285.880    22376285.686    22376289.120
  22376289.356          47.750          48.750
 116350945.530 8  90663073.063 7  22140846.129    22140846.256    22140847.466
  22140847.198          48.500          46.500
 124672165.426 7  97147141.650 7  23724324.349    23724325.266    23724328.413
  23724328.799          42.500          43.250
 20  1  4  1 24  0.0000000  0  9G10G24G21G13G08G20G27G15G32
 112604356.318 8  87743656.036 8  21427895.826    21427895.963    21427899.159
  21427899.611          52.750          53.000
 121441395.515 6  94629656.046 7  23109528.115    23109528.221    23109533.169
  23109533.406          41.250          46.000
 109988857.020 8  85705607.81947  20930183.947    20930183.084
  20930184.397          50.750          46.2504
 129860948.545 6 101190348.64143  24711715.619    24711714.812
  24711715.831          39.500          22.5004
 129057825.935 6 100564539.325 6  24558887.585    24558887.194    24558892.517
  24558892.163          38.000          40.000
 105765790.084 8  82414909.29347  20126560.385    20126559.526
  20126561.068          49.250          45.7504
 117558617.481 7  91604113.223 8  22370660.474    22370660.207    22370664.136
  22370664.194          47.500          48.750
 116436807.213 8  90729978.268 7  22157185.301    22157185.121    22157186.608
  22157186.320          48.500          46.500
 124565086.989 7  97063703.917 7  23703948.289    23703948.567    23703952.040
  23703952.488          42.250          44.250
 20  1  4  1 24 30.0000000  0  9G10G24G21G13G08G20G27G15G32
 112554479.252 8  87704790.785 8  21418404.352    21418404.583    21418407.640
  21418408.237          52.500          53.000
 121372218.983 6  94575752.290 7  23096364.740    23096363.866    23096368.790
  23096369.269          40.750          45.000
 110007424.857 8  85720076.26047  20933717.143    20933716.555
  20933717.842          50.500          46.2504
 129966872.022 6 101272886.42843  24731872.078    24731871.170
  24731872.135          38.750          20.7504
 128978825.803 6 100502980.767 6  24543854.631    24543854.455    24543860.032
  24543858.622          38.250          39.750
 105758675.658 8  82409365.58047  20125206.319    20125205.721
  20125207.201          49.500          45.7504
 117529645.830 8  91581537.913 8  22365147.521    22365147.589    22365150.928
  22365151.182          48.000          48.750
 116523023.725 8  90797159.963 7  22173591.499    22173591.701    22173592.998
  22173592.609          48.250          46.000
 124458165.215 7  96980388.267 7  23683601.853    23683601.654    23683606.338
  23683605.959          42.750          44.500
 20  1  4  1 25  0.0000000  0  9G10G24G21G13G08G20G27G15G32
 112504841.370 8  87666111.916 8  21408958.729    21408958.856    21408962.227
  21408962.719          52.750          53.250
 121303411.590 6  94522136.138 7  23083270.741    23083271.001    23083275.189
  23083275.510          40.750          45.750
 110026359.910 8  85734830.84947  20937320.334    20937319.722
  20937320.991          50.250          46.5004
 130072970.018 6 101355560.21743  24752061.443    24752062.095
  24752062.514          39.000          20.7504
 128900199.055 6 100441713.166 6  24528891.550    24528892.162    24528897.415
  24528897.379          38.500          39.750
 105751873.457 8  82404065.17047  20123911.992    20123911.266
  20123912.743          49.250          45.7504
 117501264.374 8  91559422.491 8  22359747.072    22359746.535    22359750.099
  22359750.271          48.000          48.500
 116609592.398 8  90864616.073 7  22190064.939    22190065.079    22190065.876
  22190066.179          48.000          46.250
 124351402.316 7  96897196.422 7  23663285.222    23663285.706    23663289.285
  23663289.461          42.250          44.000
 20  1  4  1 25 30.0000000  0  9G10G24G21G13G08G20G27G15G32
 112455442.477 8  87627619.285 8  21399558.242    21399558.540    21399561.770
  21399562.154          52.000          53.000
 121234975.427 6  94468809.279 7  23070247.758    23070247.975    23070252.603
  23070252.563          41.250          45.500
 110045662.575 8  85749871.88147  20940993.659    20940992.921
  20940994.226          50.500          46.2504
 130179239.743 6 101438367.77643  24772283.349    24772283.141
  24772283.652          38.250          19.2504
 128821947.409 6 100380737.830 6  24514002.688    24514001.839    24514006.412
  24514005.878          39.250          40.750
 105745383.187 8  82399007.82047  20122676.835    20122676.178
  20122677.719          48.750          45.7504
 117473473.677 8  91537767.411 8  22354458.592    22354458.164    22354462.080
  22354461.907          48.250          48.750
 116696510.004 8  90932344.068 7  22206604.636    22206605.020    22206605.568
  22206606.004          48.500          45.750
 124244799.975 7  96814129.672 7  23642999.360    23643000.143    23643003.846
  23643003.639          42.250          44.500
 20  1  4  1 26  0.0000000  0  9G10G24G21G13G08G20G27G15G32
 112406284.136 8  87589314.078 8  21390203.941    21390203.845    21390207.431
  21390207.645          52.250          53.250
 121166915.615 6  94415775.664 7  23057296.553    23057297.003    23057300.525
  23057300.596          41.500          44.500
 110065334.560 8  85765200.69447  20944737.037    20944736.404
  20944737.739          50.750          46.2504
 130285679.960 6 101521308.21743  24792539.058    24792538.774
  24792540.886          38.000          18.5004
 128744074.306 6 100320057.456 6  24499183.396    24499183.451    24499188.368
  24499187.796          40.500          41.250
 105739206.134 8  82394194.53547  20121501.367    20121500.796
  20121502.234          49.000          45.7504
 117446276.079 8  91516574.473 8  22349283.023    22349282.466    22349286.497
  22349286.499          48.000          48.750
 116783775.094 8  91000342.832 7  22223210.996    22223211.230    22223212.342
  22223212.187          48.250          46.000
 124138361.650 7  96731190.730 7  23622745.057    23622745.621    23622749.823
  23622749.572          42.750          44.250
 20  1  4  1 26 30.0000000  0  9G10G24G21G13G08G20G27G15G32
 112357364.115 8  87551194.593 8  21380894.850    21380894.773    21380898.096
  21380898.511          52.500          53.000
 121099232.382 6  94363035.482 7  23044417.180    23044416.629    23044420.924
  23044420.827          41.500          44.750
 110085374.049 8  85780815.88147  20948550.431    20948549.687
  20948551.065          50.500          46.0004
 130392285.438 6 101604377.40243  24812825.233    24812823.966
  24812825.433          38.250          19.2504
 128666580.628 6 100259672.760 6  24484436.965    24484436.762    24484441.974
  24484440.820          40.000          41.500
 105733339.840 8  82389623.39447  20120385.318    20120384.502
  20120386.074          49.250          46.0004
 117419670.127 8  91495842.559 8  22344220.061    22344219.922    22344223.741
  22344223.582          48.750          48.750
 116871383.029 8  91068608.751 7  22239881.808    22239882.195    22239883.774
  22239883.156          48.000          46.250
 124032086.997 7  96648379.313 7  23602522.042    23602522.516    23602526.094
  23602525.789          42.750          44.000
 20  1  4  1 27  0.0000000  0  9G10G24G21G13G08G20G27G15G32
 112308683.190 8  87513261.405 8  21371630.930    21371631.087    21371634.522
  21371635.061          52.000          53.500
 121031929.908 6  94310592.016 7  23031609.747    23031609.806    23031612.910
  23031613.559          41.000          44.500
 110105782.371 8  85796718.47147  20952433.928    20952433.265
  20952434.688          50.000          46.2504
 130499054.161 6 101687573.81343  24833142.725    24833143.114
  24833143.647          38.250          18.7504
 128589468.841 6 100199585.649 6  24469762.986    24469762.324    24469767.384
  24469767.174          39.000          41.750
 105727784.798 8  82385294.79347  20119327.965    20119327.367
  20119328.897          48.500          45.7504
 117393657.260 8  91475572.794 8  22339269.804    22339269.728    22339273.165
  22339273.225          48.750          48.750
 116959331.617 8  91137140.117 7  22256618.303    22256618.792    22256619.665
  22256619.257          48.250          45.750
 123925978.637 7  96565697.472 7  23582330.147    23582330.351    23582333.636
  23582334.560          42.500          43.250
 20  1  4  1 27 30.0000000  0  9G10G24G21G13G08G20G27G15G32
 112260242.712 8  87475515.588 8  21362412.972    21362413.101    21362416.593
  21362416.983          52.500          53.500
 120965011.675 6  94258447.925 7  23018875.999    23018875.928    23018879.827
  23018879.679          41.750          45.500
 110126561.188 8  85812909.75647  20956388.116    20956387.333
  20956388.647          50.250          46.0004
 130605984.839 6 101770896.43642  24853490.610    24853489.386
  24853491.454          38.750          17.7504
 128512742.747 6 100139799.063 7  24455162.200    24455161.146    24455167.929
  24455167.334          39.250          42.000
 105722542.225 8  82381209.67347  20118330.310    20118329.783
  20118331.160          48.250          45.7504
 117368239.579 8  91455766.801 8  22334433.028    22334432.767    22334436.626
  22334436.638          49.000          48.750
 117047619.245 8  91205935.679 7  22273419.116    22273419.040    22273420.289
  22273419.699          48.250          46.000
 123820039.896 7  96483147.816 7  23562170.351    23562170.539    23562174.340
  23562174.600          42.500          43.750
 20  1  4  1 28  0.0000000  0  9G10G24G21G13G08G20G27G15G32
 112212042.575 8  87437957.032 8  21353240.773    21353240.803    21353244.414
  21353244.676          52.250          53.500
 120898480.806 6  94206605.695 7  23006215.285    23006214.803    23006218.978
  23006219.296          41.250          45.250
 110147710.756 8  85829389.93247  20960412.513    20960411.904
  20960413.266          50.000          46.0004
 130713074.436 6 101854342.87642  24873868.609    24873868.191
  24873869.233          38.500          16.5004
 128436404.180 6 100080314.474 6  24440635.036    24440635.360    24440640.544
  24440640.141          40.750          41.500
 105717611.948 8  82377367.90447  20117392.373    20117391.601
  20117393.011          48.500          45.7504
 117343417.578 8  91436424.983 8  22329709.607    22329709.340    22329712.819
  22329712.943          49.250          48.750
 117136242.494 7  91274992.744 7  22290283.068    22290283.440    22290284.317
  22290283.932          47.500          45.750
 123714272.440 7  96400731.603 7  23542043.947    23542043.830    23542047.263
  23542046.874          42.500          43.250
 20  1  4  1 28 30.0000000  0  9G10G24G21G13G08G20G27G15G32
 112164083.020 8  87400585.958 8  21344114.409    21344114.659    21344118.120
  21344118.569          52.500          53.500
 120832340.203 6  94155067.579 7  22993629.089    22993629.076    22993633.985
  22993633.572          41.250          46.500
 110169231.312 8  85846159.18847  20964507.942    20964507.149
  20964508.588          50.250          45.7504
 130820320.665 6 101937911.38942  24894276.453    24894276.517
  24894278.230          38.500          17.2504
 128360455.588 6 100021133.741 6  24426183.299    24426182.597    24426187.755
  24426187.864          40.500          41.250
 105712993.805 8  82373769.34547  20116513.495    20116512.791
  20116514.150          48.750          45.7504
 117319192.211 8  91417548.059 8  22325099.617    22325099.338    22325102.969
  22325102.987          49.000          49.000
 117225199.111 7  91344309.597 7  22307211.100    22307211.484    22307212.437
  22307212.207          47.750          46.000
 123608678.413 7  96318450.554 7  23521949.533    23521949.701    23521953.889
  23521953.357          42.250          44.250
 20  1  4  1 29  0.0000000  0  9G10G24G21G13G08G20G27G15G32
 112116362.861 8  87363401.412 8  21335033.607    21335033.752    21335037.128
  21335037.424          52.750          53.250
 120766591.544 6  94103834.857 7  22981117.035    22981117.526    22981122.355
  22981121.998          40.750          46.250
 110191122.384 8  85863217.16547  20968673.658    20968672.925
  20968674.385          49.750          46.0004
 130927719.276 6 102021598.63643  24914715.631    24914714.979
  24914714.797          38.750          18.7504
 128284898.338 6  99962257.965 6  24411804.924    24411804.687    24411810.092
  24411809.082          40.500          41.500
 105708686.437 8  82370412.95847  20115693.832    20115693.040
  20115694.646          48.500          45.7504
 117295562.882 8  91399135.588 8  22320603.098    22320603.003    22320606.595
  22320606.366          49.250          49.000
 117314484.956 7  91413882.987 7  22324201.410    22324201.945    22324203.044
  22324202.792          47.750          45.750
 123503258.525 7  96236305.181 7  23501889.547    23501889.677    23501893.518
  23501893.893          43.250          44.500
 20  1  4  1 29 30.0000000  0  9G10G24G21G13G08G20G27G15G32
 112068883.466 8  87326404.483 8  21325998.595    21325998.796    21326002.106
  21326002.570          52.750          53.750
 120701239.077 6  94052910.896 7  22968680.607    22968681.194    22968686.501
  22968686.324          40.750          46.750
 110213385.306 8  85880564.89547  20972910.032    20972909.320
  20972910.886          50.250          46.0004
 131035268.956 6 102105403.63642  24935179.915    24935181.427
  24935180.657          38.750          17.0004
 128209735.674 6  99903689.634 7  24397501.798    24397501.243    24397506.600
  24397507.039          40.500          42.500
 105704690.969 8  82367299.60447  20114933.314    20114932.710
  20114934.209          48.500          45.7504
 117272531.530 8  91381189.081 8  22316220.422    22316220.116    22316223.978
  22316223.943          49.000          49.000
 117404098.343 8  91483711.611 7  22341254.674    22341254.743    22341256.125
  22341255.669          48.000          45.750
 123398015.923 6  96154297.983 7  23481861.638    23481862.458    23481865.790
  23481866.424          41.750          44.250
 20  1  4  1 30  0.0000000  0  9G10G24G21G13G08G20G27G15G32
 112021645.225 8  87289595.474 8  21317009.356    21317009.517    21317013.041
  21317013.341          52.750          53.500
 120636285.650 7  94002297.853 7  22956321.105    22956320.807    22956325.613
  22956325.611          42.000          46.000
 110236021.069 8  85898203.15147  20977217.815    20977216.879
  20977218.194          50.250          46.0004
 131142967.474 6 102189324.55442  24955674.870    24955674.885
  24955675.702          38.250          17.7504
 128134970.237 6  99845430.828 7  24383274.649    24383274.353    24383279.258
  24383278.549          40.500          42.250
 105701007.821 8  82364429.63047  20114232.719    20114231.924
  20114233.322          48.250          45.7504
 117250099.149 8  91363709.300 8  22311951.446    22311951.436    22311954.934
  22311955.245          49.000          49.250
 117494037.021 7  91553793.678 7  22358369.230    22358369.560    22358370.626
  22358370.441          47.500          45.750
 123292952.913 7  96072430.701 7  23461869.098    23461869.763    23461873.753
  23461873.396          42.250          44.750
 20  1  4  1 30 30.0000000  0  9G10G24G21G13G08G20G27G15G32
 111974648.365 8  87252974.542 8  21308066.433    21308066.436    21308069.629
  21308070.185          52.750          53.500
 120571734.361 6  93951998.149 7  22944037.272    22944037.693    22944041.540
  22944041.404          41.000          45.000
 110259030.163 8  85916132.32147  20981596.034    20981595.272
  20981596.630          49.750          45.7504
 131250812.229 6 102273359.40843  24976197.055    24976197.452
  24976198.613          38.500          18.7504
 128060604.791 6  99787483.709 7  24369123.645    24369123.191    24369128.242
  24369127.638          41.000          42.250
 105697636.652 8  82361802.75047  20113590.959    20113590.360
  20113591.893          48.500          45.7504
 117228266.509 8  91346696.846 8  22307797.025    22307796.865    22307800.369
  22307800.388          49.000          49.000
 117584298.101 7  91624126.974 7  22375545.540    22375545.785    22375546.512
  22375546.631          47.750          45.500
 123188071.601 7  95990705.015 7  23441910.064    23441911.180    23441915.022
  23441914.887          42.000          45.000
 20  1  4  1 31  0.0000000  0  9G10G24G21G13G08G20G27G15G32
 111927891.894 8  87216540.936 8  21299168.822    21299168.852    21299172.299
  21299172.608          52.500          53.750
 120507586.676 6  93902012.943 7  22931829.735    22931830.481    22931834.013
  22931834.261          41.750          45.250
 110282411.814 8  85934351.78347  20986045.256    20986044.798
  20986046.079          49.750          46.0004
 131358799.258 6 102357505.12743  24996746.733    24996745.528
  24996747.274          37.000          18.2504
 127986639.741 6  99729848.610 7  24355048.614    24355048.099    24355053.103
  24355052.917          41.500          42.000
 105694576.587 8  82359418.28447  20113008.819    20113008.138
  20113009.572          48.250          45.7504
 117207033.157 8  91330151.373 8  22303756.587    22303756.277    22303760.381
  22303759.862          49.250          49.250
 117674878.006 7  91694708.714 7  22392782.021    22392782.225    22392783.103
  22392783.251          47.500          45.250
 123083372.843 7  95909121.559 7  23421987.270    23421987.668    23421991.425
  23421991.988          42.750          44.750
 20  1  4  1 31 30.0000000  0  9G10G24G21G13G08G20G27G15G32
 111881376.844 8  87180295.434 8  21290317.161    21290317.387    21290320.619
  21290321.113          52.500          53.750
 120443846.942 6  93852345.630 7  22919700.981    22919700.976    22919704.742
  22919704.903          41.000          44.750
 110306167.360 8  85952862.59747  20990565.676    20990565.209
  20990566.581          50.000          46.0004
 131466926.817 6 102441760.37643  25017322.299    25017322.006
  25017324.355          36.750          20.2504
 127913078.796 6  99672528.385 6  24341050.809    24341050.029    24341054.765
  24341054.102          41.250          41.500
 105691827.999 8  82357276.52847  20112485.693    20112485.001
  20112486.441          48.000          45.7504
 117186400.577 8  91314074.033 8  22299829.957    22299830.015    22299833.743
  22299833.702          48.500          49.500
 117765774.490 8  91765537.143 7  22410079.729    22410079.550    22410080.578
  22410080.208          48.000          45.000
 122978859.466 7  95827682.558 7  23402099.698    23402099.733    23402103.108
  23402103.453          43.750          44.500
 20  1  4  1 32  0.0000000  0  9G10G24G21G13G08G20G27G15G32
 111835102.838 8  87144237.777 8  21281511.474    21281511.690    21281515.102
  21281515.653          52.750          53.500
 120380517.085 6  93802997.663 7  22907649.601    22907649.660    22907653.806
  22907653.682          41.250          45.250
 110330296.644 8  85971664.62847  20995157.642    20995156.922
  20995158.345          50.000          45.7504
 131575192.377 6 102526123.12943  25037925.344    25037925.157
  25037925.793          37.500          19.0004
 127839923.481 6  99615524.245 6  24327129.698    24327128.997    24327133.163
  24327133.003          40.750          41.500
 105689390.934 8  82355377.51647  20112021.888    20112021.322
  20112022.745          49.000          45.7504
 117166368.909 8  91298464.934 8  22296018.331    22296018.158    22296021.691
  22296021.589          49.000          49.500
 117856984.557 7  91836609.929 7  22427435.600    22427435.949    22427437.205
  22427436.387          47.500          44.750
 122874532.998 7  95746389.223 7  23382246.658    23382247.067    23382250.951
  23382250.740          43.500          45.000
 20  1  4  1 32 30.0000000  0  8G10G24G21G08G20G27G15G32
 111789070.208 8  87108368.190 8  21272751.819    21272751.814    21272755.356
  21272755.843          52.250          53.500
 120317600.532 6  93753971.820 7  22895676.765    22895676.730    22895682.048
  22895681.955          40.500          46.500
 110354800.225 8  85990758.31847  20999820.666    20999819.915
  20999821.181          50.500          46.0004
 127767176.762 6  99558838.483 6  24313285.551    24313285.464    24313290.152
  24313290.749          40.750          41.250
 105687265.178 8  82353721.09147  20111617.245    20111616.695
  20111618.230          48.250          45.7504
 117146938.892 8  91283324.663 8  22292321.102    22292320.954    22292324.570
  22292324.740          48.750          49.500
 117948505.639 7  91907925.050 7  22444851.605    22444852.255    22444853.344
  22444852.674          47.500          45.250
 122770395.549 7  95665243.154 7  23362429.994    23362430.053    23362433.941
  23362433.965          43.750          44.750
 20  1  4  1 33  0.0000000  0  9G13G10G24G21G08G20G27G15G32
 131792118.688 6 102695152.82542  25079205.425    25079206.020
  25079207.596          36.250          17.0004
 111743279.040 8  87072686.775 9  21264038.142    21264038.327    21264041.945
  21264042.252          52.500          54.000
 120255099.979 6  93705270.118 7  22883783.760    22883783.714    22883787.822
  22883788.518          40.750          45.750
 110379678.434 8  86010143.92847  21004554.535    21004554.018
  21004555.209          50.000          45.7504
 127694840.555 6  99502472.602 6  24299520.606    24299520.375    24299525.358
  24299524.963          40.000          41.750
 105685450.720 8  82352307.23347  20111272.127    20111271.395
  20111273.004          48.500          45.7504
 117128111.065 8  91268653.627 8  22288737.820    22288737.977    22288741.342
  22288741.808          48.500          49.750
 118040334.857 7  91979480.281 7  22462326.489    22462326.305    22462328.161
  22462327.671          47.750          45.500
 122666449.082 7  95584245.906 7  23342650.279    23342650.181    23342654.290
  23342653.569          43.000          44.250
 20  1  4  1 33 30.0000000  0  8G10G24G21G08G20G27G15G32
 111697729.932 8  87037193.963 8  21255370.186    21255370.406    21255373.901
  21255374.297          52.250          53.750
 120193018.959 6  93656895.304 7  22871970.024    22871970.077    22871973.517
  22871973.710          40.750          45.000
 110404931.941 8  86029821.97847  21009360.177    21009359.502
  21009360.997          49.750          45.7504
 127622917.260 6  99446428.472 7  24285833.787    24285833.547    24285838.551
  24285838.644          41.750          42.750
 105683947.587 7  82351135.96247  20110985.985    20110985.494
  20110986.882          47.750          45.7504
 117109886.420 8  91254452.604 8  22285269.945    22285269.694    22285273.957
  22285273.917          48.250          50.000
 118132469.571 7  92051273.560 7  22479859.092    22479859.372    22479860.779
  22479860.142          47.500          45.750
 122562696.014 7  95503399.369 7  23322905.570    23322906.139    23322910.031
  23322909.574          42.250          44.500
 20  1  4  1 34  0.0000000  0  8G10G24G21G08G20G27G15G32
 111652422.584 8  87001889.534 9  21246748.614    21246748.904    21246752.346
  21246752.683          52.250          54.000
 120131359.357 6  93608848.870 7  22860236.875    22860236.352    22860240.322
  22860241.149          41.250          45.250
 110430560.943 8  86049792.61947  21014237.434    21014236.567
  21014237.985          49.750          46.0004
 127551408.797 7  99390707.586 7  24272226.552    24272226.494    24272231.753
  24272231.643          42.000          42.750
 105682755.359 7  82350206.96247  20110759.131    20110758.502
  20110760.101          47.250          45.7504
 117092264.999 7  91240721.632 8  22281916.880    22281916.766    22281920.060
  22281920.271          47.750          49.500
 118224907.037 7  92123302.744 7  22497449.060    22497449.261    22497450.774
  22497450.221          47.250          45.750
 122459137.896 7  95422704.731 7  23303199.092    23303200.158    23303203.318
  23303203.812          42.750          44.750
 20  1  4  1 34 30.0000000  0  8G10G24G21G08G20G27G15G32
 111607357.737 8  86966774.082 8  21238173.009    21238173.204    21238176.553
  21238177.140          52.250          53.500
 120070124.573 6  93561133.468 7  22848584.052    22848584.577    22848588.534
  22848588.794          41.000          46.500
 110456566.425 8  86070056.62447  21019186.047    21019185.292
  21019186.671          49.000          45.7504
 127480318.261 7  99335312.336 7  24258698.937    24258697.922    24258703.118
  24258703.436          42.500          42.750
 105681874.709 7  82349520.74347  20110591.575    20110590.914
  20110592.437          47.500          45.5004
 117075247.949 8  91227461.593 8  22278678.514    22278678.512    22278682.309
  22278682.274          48.250          49.750
 118317645.140 7  92195566.183 7  22515096.680    22515096.368    22515098.243
  22515098.276          47.250          45.500
 122355777.257 7  95342163.983 7  23283530.504    23283531.012    23283534.595
  23283534.444          43.500          44.750
 20  1  4  1 35  0.0000000  0  9G10G24G21G13G08G20G27G15G32
 111562535.193 8  86931847.424 8  21229643.416    21229643.685    21229646.972
  21229647.570          52.000          53.500
 120009316.801 6  93513750.823 7  22837013.071    22837013.166    22837016.299
  22837016.136          41.500          44.000
 110482948.168 8  86090613.82747  21024206.277    21024205.490
  21024206.854          49.500          45.7504
 132227530.323 6 103034437.59142  25162062.197    25162061.073
  25162062.490          38.000          17.2504
 127409647.709 7  99280244.384 7  24245251.130    24245250.472    24245254.334
  24245254.372          42.750          42.500
 105681305.119 8  82349076.91147  20110483.111    20110482.450
  20110484.104          48.250          45.7504
 117058835.324 8  91214672.538 8  22275555.152    22275555.310    22275558.709
  22275559.018          48.250          49.750
 118410680.636 7  92268061.383 7  22532800.489    22532800.884    22532802.147
  22532801.938          47.000          45.000
 122252615.763 7  95261778.388 7  23263899.472    23263900.314    23263903.769
  23263903.662          43.500          44.750
 20  1  4  1 35 30.0000000  0  9G10G24G21G13G08G20G27G15G32
 111517954.605 8  86897109.308 9  21221160.382    21221160.421    21221163.691
  21221164.150          52.250          54.000
 119948939.792 6  93466703.764 7  22825523.255    22825523.135    22825527.228
  22825527.091          41.500          45.000
 110509706.103 8  86111464.15947  21029297.793    21029297.323
  21029298.849          50.000          45.7504
 132336689.660 6 103119496.79942  25182835.068    25182834.291
  25182835.815          38.000          16.7504
 127339398.221 7  99225504.535 7  24231882.681    24231882.824    24231887.344
  24231887.330          42.500          42.750
 105681046.414 7  82348875.32747  20110433.988    20110433.204
  20110434.755          47.750          45.7504
 117043027.133 7  91202354.459 8  22272547.062    22272546.665    22272550.524
  22272550.821          47.250          49.750
 118504010.397 7  92340785.875 7  22550561.342    22550561.248    22550562.188
  22550562.441          47.750          44.750
 122149654.834 7  95181549.095 7  23244307.612    23244307.078    23244310.936
  23244311.422          44.000          45.000
 20  1  4  1 36  0.0000000  0  9G10G24G21G13G08G20G27G15G32
 111473617.200 8  86862560.681 9  21212723.078    21212723.174    21212726.513
  21212727.067          51.750          54.000
 119888995.694 6  93419994.129 7  22814115.674    22814116.097    22814120.694
  22814120.555          41.000          45.750
 110536841.645 8  86132608.73947  21034461.689    21034461.072
  21034462.738          49.500          45.7504
 132445966.988 6 103204648.02042  25203629.750    25203630.090
  25203629.366          38.500          16.0004
 127269573.378 6  99171095.556 7  24218594.570    24218594.484    24218600.364
  24218599.771          41.500          43.250
 105681099.243 7  82348916.49247  20110444.222    20110443.369
  20110444.767          47.750          45.7504
 117027824.814 7  91190508.493 8  22269654.225    22269653.934    22269657.674
  22269657.753          47.500          49.750
 118597632.785 7  92413738.387 7  22568376.703    22568376.553    22568377.818
  22568377.467          47.250          44.500
 122046897.563 7  95101478.488 7  23224753.435    23224753.379    23224756.955
  23224757.158          43.500          45.500
 20  1  4  1 36 30.0000000  0  9G10G24G21G13G08G20G27G15G32
 111429522.794 8  86828201.403 8  21204332.234    21204332.441    21204335.628
  21204336.171          52.000          53.750
 119829487.736 7  93373624.273 7  22802792.720    22802792.237    22802796.544
  22802796.092          42.500          46.250
 110564354.721 8  86154047.49147  21039697.280    21039696.655
  21039698.137          49.750          45.5004
 132555359.687 6 103289889.07142  25224446.408    25224444.934
  25224447.608          38.000          16.2504
 127200175.180 6  99117019.009 7  24205388.460    24205388.226    24205394.375
  24205393.391          41.250          43.250
 105681463.613 7  82349200.42447  20110513.236    20110512.607
  20110514.250          47.500          45.5004
 117013228.474 7  91179134.711 8  22266876.682    22266876.523    22266879.904
  22266880.305          47.250          49.750
 118691544.673 7  92486916.484 7  22586247.471    22586247.890    22586249.058
  22586248.527          47.750          44.750
 121944345.476 7  95021567.780 7  23205237.771    23205238.228    23205241.694
  23205241.680          43.250          45.500
 20  1  4  1 37  0.0000000  0  9G10G24G21G13G08G20G27G15G32
 111385671.359 8  86794031.457 8  21195987.635    21195987.666    21195991.129
  21195991.449          52.750          53.750
 119770418.340 7  93327596.188 7  22791552.391    22791551.983    22791556.000
  22791555.957          42.500          46.000
 110592245.722 8  86175780.73047  21045004.903    21045004.108
  21045005.791          49.500          45.7504
 132664865.093 6 103375217.96942  25245285.406    25245284.831
  25245285.853          37.250          13.5004
 127131205.395 7  99063276.310 7  24192264.467    24192264.815    24192269.564
  24192269.038          42.500          43.250
 105682138.859 7  82349726.59547  20110641.672    20110641.082
  20110642.620          47.500          45.5004
 116999238.216 8  91168233.220 8  22264214.386    22264214.135    22264218.337
  22264217.974          48.500          49.500
 118785743.277 7  92560317.976 7  22604172.698    22604172.635    22604174.126
  22604174.089          47.250          45.000
 121842000.405 7  94941818.396 7  23185762.143    23185762.612    23185766.217
  23185766.445          43.000          45.750
 20  1  4  1 37 30.0000000  0  9G10G24G21G13G08G20G27G15G32
 111342063.354 8  86760051.191 8  21187689.179    21187689.429    21187692.557
  21187693.189          52.000          53.750
 119711790.386 7  93281912.101 7  22780396.161    22780395.719    22780399.618
  22780399.354          42.000          46.500
 110620514.965 8  86197808.71247  21050384.219    21050383.453
  21050385.103          49.500          45.5004
 132774480.862 6 103460632.84542  25266143.549    25266144.713
  25266144.198          37.000          16.0004
 127062666.603 6  99009869.434 7  24179221.270    24179221.443    24179226.848
  24179226.463          41.500          43.250
 105683124.908 7  82350494.95047  20110829.355    20110828.858
  20110830.372          47.250          45.7504
 116985854.710 8  91157804.511 8  22261667.943    22261667.393    22261671.094
  22261671.122          48.000          49.750
 118880226.022 7  92633940.894 7  22622152.434    22622152.204    22622153.910
  22622154.224          47.250          45.000
 121739864.544 7  94862232.020 7  23166326.508    23166326.390    23166330.572
  23166330.611          42.250          45.750
 20  1  4  1 38  0.0000000  0  8G10G24G21G08G20G27G15G32
 111298697.835 8  86726259.878 8  21179437.161    21179437.280    21179440.187
  21179441.021          52.250          53.750
 119653606.162 6  93236573.723 7  22769323.120    22769323.341    22769327.506
  22769327.844          41.750          47.250
 110649161.844 8  86220130.94847  21055835.732    21055834.912
  21055836.440          49.750          45.7504
 126994559.916 7  98956799.262 7  24166261.336    24166261.195    24166266.383
  24166265.861          42.000          43.250
 105684421.234 7  82351505.08947  20111076.185    20111075.292
  20111077.006          47.250          45.5004
 116973077.294 7  91147848.083 8  22259236.258    22259236.009    22259239.694
  22259239.624          47.750          49.500
 118974989.224 7  92707782.337 7  22640185.221    22640185.383    22640186.773
  22640186.472          47.250          44.750
 121637938.874 7  94782809.441 7  23146930.117    23146930.327    23146934.651
  23146934.646          42.500          45.250
 20  1  4  1 38 30.0000000  0  8G10G24G21G08G20G27G15G32
 111255575.845 8  86692658.330 8  21171231.095    21171231.302    21171234.769
  21171235.035          52.500          53.750
 119595868.802 6  93191583.598 7  22758336.169    22758336.191    22758340.410
  22758340.218          41.750          46.500
 110678187.379 8  86242748.25047  21061358.706    21061358.265
  21061359.778          49.000          45.7504
 126926888.503 7  98904068.272 7  24153384.558    24153384.300    24153389.034
  24153388.783          43.000          42.750
 105686028.352 8  82352757.38947  20111382.165    20111381.144
  20111382.805          48.000          45.2504
 116960907.075 7  91138364.789 8  22256920.186    22256920.010    22256923.958
  22256924.022          47.750          49.250
 119070031.343 7  92781841.133 7  22658270.932    22658271.079    22658272.753
  22658271.968          47.000          44.250
 121536226.121 7  94703552.752 7  23127575.243    23127575.917    23127579.157
  23127579.311          43.500          45.250
 20  1  4  1 39  0.0000000  0  8G10G24G21G08G20G27G15G32
 111212697.278 8  86659246.463 9  21163071.668    21163071.846    21163075.312
  21163075.616          52.000          54.000
 119538580.673 6  93146943.548 7  22747433.971    22747434.189    22747439.191
  22747439.241          41.000          47.250
 110707591.591 8  86265660.61547  21066954.402    21066953.727
  21066955.288          49.750          45.5004
 126859653.784 7  98851677.606 7  24140590.321    24140589.902    24140595.018
  24140593.648          43.000          42.750
 105687946.063 7  82354251.71947  20111746.845    20111746.135
  20111747.850          47.750          45.2504
 116949344.001 7  91129354.599 8  22254719.859    22254719.805    22254723.254
  22254723.417          47.500          49.750
 119165348.760 8  92856114.441 7  22676409.683    22676409.558    22676410.437
  22676410.309          48.000          44.250
 121434727.950 7  94624463.252 7  23108260.785    23108261.101    23108264.144
  23108264.722          43.500          44.500
 20  1  4  1 39 30.0000000  0  8G10G24G21G08G20G27G15G32
 111170063.286 8  86626025.177 9  21154958.696    21154958.849    21154962.307
  21154962.678          52.500          54.000
 119481745.683 6  93102656.529 7  22736618.933    22736619.462    22736624.141
  22736624.109          41.750          47.250
 110737375.648 8  86288868.95647  21072622.146    21072621.478
  21072623.024          49.500          45.5004
 126792859.471 7  98799630.087 7  24127879.289    24127879.213    24127884.689
  24127883.696          42.500          43.250
 105690175.397 8  82355988.86647  20112171.065    20112170.379
  20112171.957          48.000          45.5004
 116938389.395 8  91120818.538 8  22252635.320    22252635.000    22252639.006
  22252638.983          48.250          50.000
 119260940.017 7  92930601.134 7  22694599.653    22694599.612    22694601.703
  22694600.764          47.000          44.500
 121333447.319 7  94545543.282 7  23088988.434    23088988.135    23088991.330
  23088991.696          43.750          44.750
 20  1  4  1 40  0.0000000  0  8G10G24G21G08G20G27G15G32
 111127672.772 8  86592993.611 9  21146892.071    21146892.232    21146895.633
  21146896.099          52.500          54.250
 119425364.800 6  93058723.402 7  22725889.318    22725890.104    22725893.978
  22725894.194          40.750          46.250
 110767538.586 8  86312372.54547  21078361.940    21078361.510
  21078362.810          49.500          45.5004
 126726506.304 7  98747926.303 7  24115252.412    24115252.242    24115257.413
  24115256.669          42.000          42.750
 105692715.014 7  82357967.79347  20112654.613    20112653.700
  20112655.239          47.750          45.7504
 116928042.156 7  91112755.747 8  22250665.943    22250665.873    22250669.771
  22250669.642          47.500          49.250
 119356801.280 7  93005298.239 7  22712841.216    22712841.749    22712842.889
  22712842.724          46.750          44.500
 121232384.891 7  94466793.327 7  23069756.598    23069756.428    23069759.843
  23069759.655          44.250          45.000
 20  1  4  1 40 30.0000000  0  8G10G24G21G08G20G27G15G32
 111085526.161 8  86560152.096 9  21138871.840    21138871.893    21138875.282
  21138875.678          52.250          54.000
 119369441.676 7  93015146.942 7  22715248.904    22715248.204    22715253.320
  22715252.444          42.500          47.250
 110798081.198 8  86336171.97847  21084174.212    21084173.515
  21084174.915          49.500          45.7504
 126660596.515 7  98696568.036 7  24102710.930    24102710.821    24102715.763
  24102714.925          42.000          43.500
 105695564.786 8  82360188.40047  20113196.623    20113195.868
  20113197.560          48.250          45.5004
 116918302.783 7  91105166.625 8  22248812.917    22248812.704    22248816.218
  22248816.148          47.750          49.500
 119452930.021 7  93080203.755 7  22731134.063    22731134.313    22731135.570
  22731135.413          47.000          44.250
 121131542.824 7  94388215.099 7  23050566.590    23050566.863    23050570.754
  23050570.868          43.500          45.500
 20  1  4  1 41  0.0000000  0  8G10G24G21G08G20G27G15G32
 111043624.045 8  86527501.092 9  21130898.108    21130898.182    21130901.600
  21130901.928          52.500          54.000
 119313978.604 7  92971928.980 7  22704693.439    22704694.259    22704698.570
  22704698.617          42.000          46.500
 110829003.867 8  86360267.56647  21090058.326    21090057.823
  21090059.264          49.750          45.7504
 126595132.489 7  98645557.098 7  24090253.547    24090253.903    24090258.284
  24090258.044          42.250          43.500
 105698725.242 8  82362651.09647  20113798.059    20113797.411
  20113798.908          48.000          45.5004
 116909171.887 8  91098051.634 8  22247075.528    22247074.927    22247078.718
  22247078.727          48.000          49.500
 119549324.267 7  93155316.138 7  22749477.690    22749477.775    22749478.630
  22749479.150          47.000          44.500
 121030923.510 7  94309810.441 7  23031419.218    23031419.876    23031423.157
  23031423.261          44.000          45.750
 20  1  4  1 41 30.0000000  0  8G10G24G21G08G20G27G15G32
 111001966.759 8  86495040.874 9  21122970.902    21122971.040    21122974.648
  21122974.962          52.500          54.000
 119258979.000 6  92929072.184 7  22694227.103    22694227.429    22694232.092
  22694232.128          40.750          46.250
 110860307.058 8  86384659.66547  21096015.492    21096014.675
  21096016.036          50.000          45.7504
 126530116.654 7  98594895.396 7  24077881.948    24077881.522    24077885.957
  24077885.367          42.750          43.250
 105702196.651 8  82365356.09247  20114458.520    20114457.955
  20114459.502          48.250          45.5004
 116900649.721 7  91091410.977 8  22245453.290    22245453.451    22245457.112
  22245457.094          47.500          49.250
 119645981.247 7  93230633.251 7  22767870.690    22767870.711    22767872.267
  22767871.691          46.500          44.500
 120930528.985 7  94231580.946 7  23012314.488    23012314.856    23012319.221
  23012318.889          43.500          46.500
 20  1  4  1 42  0.0000000  0  8G10G24G21G08G20G27G15G32
 110960553.828 8  86462771.056 9  21115090.309    21115090.487    21115093.835
  21115094.259          52.750          54.250
 119204444.724 6  92886577.964 7  22683850.140    22683850.740    22683855.163
  22683854.838          41.250          47.250
 110891990.330 8  86409347.93447  21102044.365    21102043.759
  21102045.160          49.750          45.7504
 126465550.248 7  98544583.910 7  24065594.901    24065594.439    24065599.446
  24065599.272          43.250          43.500
 105705978.193 8  82368302.75147  20115178.243    20115177.531
  20115179.160          48.250          45.5004
 116892735.782 8  91085244.268 8  22243947.787    22243947.621    22243950.941
  22243951.123          48.750          49.000
 119742897.580 7  93306152.476 7  22786313.335    22786313.528    22786314.332
  22786314.254          47.000          43.750
 120830360.544 7  94153527.625 7  22993253.509    22993253.053    22993257.589
  22993257.866          43.750          46.000
 20  1  4  1 42 30.0000000  0  8G10G24G21G08G20G27G15G32
 110919386.122 8  86430692.332 9  21107256.467    21107256.615    21107259.960
  21107260.385          53.000          54.000
 119150378.896 7  92844448.762 7  22673562.244    22673562.175    22673565.786
  22673566.548          42.750          46.250
 110924054.547 8  86434333.03347  21108146.056    21108145.532
  21108146.802          50.000          45.7504
 126401436.341 7  98494625.039 7  24053394.086    24053394.246    24053398.728
  24053398.756          42.500          43.000
 105710070.396 8  82371491.48747  20115956.972    20115956.127
  20115957.893          48.500          45.5004
 116885430.862 8  91079552.124 8  22242558.177    22242557.638    22242561.088
  22242561.143          48.000          49.500
 119840071.535 7  93381872.441 7  22804805.105    22804805.257    22804806.030
  22804806.238          47.000          43.750
 120730420.789 7  94075652.487 7  22974235.211    22974236.461    22974239.278
  22974240.040          43.750          45.500
 20  1  4  1 43  0.0000000  0  8G10G24G21G08G20G27G15G32
 110878463.613 8  86398804.668 9  21099469.343    21099469.224    21099472.616
  21099473.127          53.000          54.250
 119096783.305 6  92802685.976 7  22663362.416    22663363.372    22663366.437
  22663366.942          41.750          45.250
 110956499.745 8  86459615.01047  21114319.981    21114319.463
  21114320.917          49.750          45.5004
 126337776.661 7  98445020.099 7  24041280.221    24041279.331    24041284.752
  24041284.383          42.500          43.000
 105714473.267 7  82374922.30647  20116794.937    20116794.097
  20116795.551          47.750          45.5004
 116878734.857 8  91074334.452 8  22241283.517    22241283.339    22241287.230
  22241287.254          48.500          50.000
 119937500.203 7  93457790.896 7  22823345.266    22823345.102    22823345.990
  22823346.095          47.250          44.000
 120630711.433 7  93997956.876 7  22955261.345    22955262.022    22955265.163
  22955265.231          44.000          45.500
 20  1  4  1 43 30.0000000  0  8G10G24G21G08G20G27G15G32
 110837785.099 8  86367107.131 9  21091728.091    21091728.265    21091731.807
  21091732.213          52.500          54.250
 119043660.566 7  92761291.639 7  22653254.444    22653254.663    22653258.076
  22653258.774          43.000          45.750
 110989324.537 8  86485192.77347  21120566.412    21120565.842
  21120567.191          49.750          45.5004
 126274571.898 7  98395769.605 7  24029252.905    24029252.479    24029257.432
  24029257.528          43.000          43.250
 105719185.047 7  82378593.82547  20117691.515    20117690.703
  20117692.147          47.750          45.5004
 116872646.395 8  91069590.181 8  22240124.955    22240124.660    22240128.483
  22240128.322          48.750          49.750
 120035179.382 7  93533904.541 7  22841932.976    22841932.949    22841933.814
  22841933.278          47.000          43.750
 120531232.983 7  93920441.186 7  22936331.351    22936331.591    22936335.289
  22936335.318          43.750          45.500
 20  1  4  1 44  0.0000000  0  8G10G24G21G08G20G27G15G32
 110797352.853 8  86335601.485 9  21084034.200    21084034.278    21084037.827
  21084038.248          52.750          54.250
 118991013.951 7  92720268.323 7  22643236.800    22643235.829    22643239.240
  22643240.041          43.250          45.500
 111022531.613 8  86511068.42147  21126885.601    21126884.974
  21126886.406          50.000          45.5004
 126211825.903 7  98346876.619 7  24017312.750    24017312.340    24017316.944
  24017316.529          42.750          43.500
 105724207.950 8  82382507.77847  20118647.241    20118646.547
  20118647.986          48.250          45.2504
 116867167.627 7  91065321.018 8  22239082.156    22239081.741    22239086.075
  22239085.912          47.750          49.750
 120133108.646 7  93610213.052 7  22860567.856    22860567.870    22860568.856
  22860569.395          46.500          43.750
 120431989.419 7  93843108.544 7  22917445.802    22917446.509    22917449.721
  22917450.611          44.500          46.000
 20  1  4  1 44 30.0000000  0  8G10G24G21G08G20G27G15G32
 110757166.222 8  86304287.233 9  21076386.966    21076387.051    21076390.289
  21076390.826          52.750          54.000
 118938846.530 7  92679618.358 7  22633309.069    22633309.075    22633312.184
  22633312.672          43.000          45.000
 111056120.023 8  86537241.20047  21133277.275    21133276.655
  21133278.052          50.000          45.5004
 126149540.298 7  98298342.370 7  24005459.704    24005459.827    24005464.641
  24005464.873          42.500          42.750
 105729541.268 8  82386663.61047  20119662.242    20119661.424
  20119663.001          48.250          45.2504
 116862297.668 8  91061526.236 8  22238155.400    22238155.163    22238159.284
  22238159.018          48.250          49.750
 120231284.493 7  93686713.691 7  22879249.840    22879249.937    22879251.758
  22879251.395          46.250          44.000
 120332981.832 7  93765959.765 7  22898605.426    22898606.087    22898609.307
  22898609.592          44.500          46.500
 20  1  4  1 45  0.0000000  0  8G10G24G21G08G20G27G15G32
 110717224.724 8  86273163.998 9  21068786.317    21068786.446    21068789.839
  21068790.254          52.750          54.500
 118887159.271 7  92639342.591 7  22623473.064    22623473.040    22623476.893
  22623477.324          43.500          46.250
 111090089.214 8  86563710.70647  21139741.267    21139740.763
  21139742.203          50.000          45.5004
 126087716.313 7  98250167.844 7  23993694.658    23993695.302    23993699.709
  23993699.896          42.000          43.500
 105735184.185 8  82391060.69147  20120735.898    20120735.227
  20120736.799          48.750          45.2504
 116858035.883 8  91058205.355 8  22237344.848    22237344.530    22237348.278
  22237348.115          49.250          49.750
 120329703.802 7  93763404.069 7  22897978.794    22897979.476    22897980.729
  22897979.665          46.750          44.000
 120234211.427 7  93688995.819 7  22879809.434    22879810.064    22879814.333
  22879814.789          43.500          47.000
 20  1  4  1 45 30.0000000  0  8G10G24G21G08G20G27G15G32
 110677528.903 8  86242232.189 9  21061232.400    21061232.577    21061235.842
  21061236.428          52.750          54.000
 118835955.060 7  92599443.235 7  22613729.135    22613729.677    22613733.324
  22613733.941          44.250          46.500
 111124439.562 8  86590477.20747  21146278.167    21146277.452
  21146278.824          50.250          45.2504
 126026356.009 6  98202354.627 7  23982018.226    23982018.423    23982022.932
  23982022.736          41.250          43.500
 105741137.173 8  82395699.38947  20121868.697    20121868.087
  20121869.651          48.500          45.2504
 116854382.547 8  91055358.598 8  22236649.128    22236649.250    22236652.834
  22236652.990          48.750          49.500
 120428364.106 7  93840282.234 7  22916753.153    22916753.618    22916754.479
  22916754.443          46.500          43.250
 120135680.452 7  93612218.454 7  22861059.900    22861060.436    22861064.390
  22861065.046          43.750          47.250
 20  1  4  1 46  0.0000000  0  8G10G24G21G08G20G27G15G32
 110638079.829 8  86211492.659 9  21053725.305    21053725.551    21053729.028
  21053729.548          52.250          54.250
 118785237.925 7  92559923.411 7  22604077.657    22604078.166    22604081.878
  22604082.567          44.250          46.750
 111159172.284 8  86617541.65847  21152887.332    21152886.722
  21152888.187          49.750          45.2504
 125965462.498 6  98154905.129 7  23970430.754    23970430.736    23970435.085
  23970435.009          41.500          43.500
 105747400.715 8  82400580.07247  20123060.670    20123059.927
  20123061.529          48.250          45.2504
 116851338.489 8  91052986.592 8  22236070.109    22236069.890    22236073.746
  22236073.933          49.250          50.000
 120527263.398 7  93917346.601 7  22935573.439    22935573.383    22935574.003
  22935574.508          46.000          43.250
 120037391.693 7  93535629.806 7  22842356.256    22842356.693    22842360.857
  22842361.567          44.500          46.750
 20  1  4  1 46 30.0000000  0  8G10G24G21G08G20G27G15G32
 110598876.282 8  86180944.441 9  21046265.408    21046265.499    21046268.781
  21046269.308          52.750          54.000
 118735008.539 7  92520783.648 7  22594519.339    22594520.087    22594524.076
  22594524.398          43.500          47.250
 111194286.081 8  86644903.05647  21159569.213    21159568.567
  21159570.018          50.000          45.0004
 125905036.243 7  98107819.739 7  23958932.574    23958932.218    23958937.234
  23958936.641          42.000          44.000
 105753973.493 8  82405701.72247  20124311.446    20124310.760
  20124312.249          48.250          45.2504
 116848902.139 8  91051088.138 8  22235606.708    22235606.312    22235610.199
  22235610.241          49.250          49.750
 120626398.107 7  93994594.434 7  22954438.062    22954437.995    22954439.612
  22954438.968          46.250          43.500
 119939345.578 7  93459230.233 7  22823698.909    22823699.101    22823703.107
  22823703.410          44.500          46.500
 20  1  4  1 47  0.0000000  0  8G10G24G21G08G20G27G15G32
 110559919.294 8  86150588.355 9  21038852.027    21038852.144    21038855.584
  21038856.071          52.750          54.250
 118685269.837 7  92482026.236 7  22585055.070    22585054.564    22585059.279
  22585059.457          44.000          47.000
 111229781.898 8  86672562.13947  21166324.005    21166323.339
  21166324.687          50.000          45.5004
 125845080.030 6  98061100.624 7  23947523.024    23947522.800    23947527.669
  23947527.482          41.500          44.000
 105760856.294 8  82411064.94947  20125621.086    20125620.473
  20125621.957          48.500          45.5004
 116847074.274 8  91049663.816 8  22235258.472    22235258.431    22235262.191
  22235262.238          48.250          49.750
 120725766.353 7  94072024.232 7  22973346.812    22973347.215    22973347.476
  22973347.945          45.500          42.750
 119841544.797 7  93383021.826 7  22805087.614    22805088.163    22805092.010
  22805091.968          43.750          46.250
 20  1  4  1 47 30.0000000  0  8G10G24G21G08G20G27G15G32
 110521208.734 8  86120424.279 9  21031485.677    21031485.806    21031489.365
  21031489.779          52.500          54.250
 118636024.317 7  92443653.094 7  22575683.455    22575683.449    22575687.523
  22575687.704          44.250          46.750
 111265659.373 8  86700518.60647  21173151.198    21173150.556
  21173152.128          49.750          45.2504
 125785595.367 6  98014748.929 7  23936203.500    23936203.306    23936208.549
  23936208.122          41.750          44.250
 105768049.116 8  82416669.74947  20126990.121    20126989.249
  20126990.841          48.750          45.5004
 116845854.392 8  91048713.251 8  22235026.757    22235026.402    22235030.018
  22235030.209          48.750          49.750
 120825365.199 7  94149633.710 7  22992299.973    22992300.069    22992301.667
  22992301.513          45.750          43.750
 119743990.945 7  93307005.838 7  22786523.804    22786524.330    22786528.485
  22786528.403          44.250          47.000
 20  1  4  1 48  0.0000000  0  8G10G24G21G08G20G27G15G32
 110482744.877 8  86090452.453 9  21024166.077    21024166.347    21024169.515
  21024170.168          52.500          54.250
 118587274.194 7  92405665.996 7  22566406.741    22566406.642    22566411.024
  22566411.160          44.750          46.250
 111301918.437 8  86728772.42347  21180051.250    21180050.485
  21180051.904          50.000          45.5004
 125726584.752 6  97968766.643 7  23924974.252    23924974.510    23924978.911
  23924978.719          41.750          44.000
 105775551.442 8  82422515.72147  20128417.570    20128416.936
  20128418.355          48.000          45.5004
 116845242.367 8  91048236.342 8  22234910.069    22234909.813    22234913.750
  22234913.895          49.000          49.750
 120925192.108 7  94227420.924 7  23011296.712    23011296.674    23011297.975
  23011298.174          46.250          43.500
 119646685.904 7  93231183.735 7  22768007.536    22768008.021    22768012.083
  22768012.028          45.000          47.000
 20  1  4  1 48 30.0000000  0  8G10G24G21G08G20G27G15G32
 110444528.232 8  86060673.252 9  21016893.688    21016893.942    21016897.277
  21016897.857          52.500          54.250
 118539022.486 7  92368067.260 7  22557224.908    22557225.106    22557229.006
  22557228.658          44.250          47.500
 111338560.214 8  86757324.45847  21187023.753    21187023.230
  21187024.614          49.250          45.2504
 125668050.250 6  97923155.330 7  23913835.131    23913835.272    23913840.404
  23913839.414          41.500          44.250
 105783363.611 7  82428603.13547  20129904.357    20129903.434
  20129904.980          47.500          45.2504
 116845238.328 8  91048233.178 8  22234909.547    22234909.341    22234912.737
  22234912.747          49.000          49.500
 121025244.763 7  94305384.027 7  23030335.831    23030336.589    23030337.961
  23030336.713          46.000          43.500
 119549631.873 7  93155557.203 7  22749538.567    22749539.238    22749542.691
  22749543.082          44.750          46.500
 20  1  4  1 49  0.0000000  0  8G10G24G21G08G20G27G15G32
 110406558.352 8  86031086.334 9  21009668.359    21009668.525    21009671.821
  21009672.335          52.250          54.250
 118491270.863 7  92330858.187 7  22548137.052    22548138.036    22548141.812
  22548142.701          43.250          46.250
 111375583.935 8  86786174.10147  21194069.143    21194068.558
  21194070.149          50.250          45.2504
 125609992.775 7  97877915.737 7  23902787.893    23902787.541    23902792.477
  23902792.275          42.250          44.250
 105791484.986 8  82434931.48147  20131449.841    20131448.921
  20131450.517          48.750          45.2504
 116845841.418 8  91048703.114 8  22235024.147    22235024.186    22235027.729
  22235027.750          49.500          49.500
 121125520.129 7  94383520.674 7  23049417.734    23049417.955    23049418.678
  23049419.021          46.000          43.000
 119452830.075 7  93080127.218 7  22731117.997    22731118.545    22731121.819
  22731122.428          44.750          46.500
 20  1  4  1 49 30.0000000  0  8G10G24G21G08G20G27G15G32
 110368835.844 8  86001692.176 9  21002489.800    21002490.145    21002493.513
  21002494.001          52.500          54.250
 118444022.150 7  92294041.010 7  22539147.024    22539146.814    22539150.375
  22539150.944          44.500          46.250
 111412989.816 8  86815321.53847  21201187.276    21201186.637
  21201188.090          50.000          45.0004
 125552414.825 7  97833049.791 7  23891830.909    23891830.272    23891835.182
  23891834.857          42.250          43.750
 105799916.340 8  82441501.36747  20133054.172    20133053.473
  20133055.016          48.500          45.5004
 116847051.756 8  91049646.237 8  22235254.458    22235254.415    22235258.280
  22235257.991          48.750          49.750
 121226015.564 7  94461828.792 7  23068541.343    23068541.615    23068542.541
  23068542.698          45.500          43.250
 119356282.705 7  93004895.503 7  22712745.395    22712745.962    22712750.327
  22712750.561          44.500          47.250
 20  1  4  1 50  0.0000000  0  8G10G24G21G08G20G27G15G32
 110331360.185 8  85972490.365 9  20995358.684    20995358.704    20995362.250
  20995362.690          52.500          54.250
 118397277.859 7  92257616.909 7  22530251.626    22530251.655    22530254.868
  22530255.945          44.500          46.500
 111450777.169 8  86844766.22747  21208377.690    21208377.255
  21208378.787          49.750          45.0004
 125495317.366 7  97788558.260 7  23880965.308    23880965.360    23880970.503
  23880970.240          42.500          44.000
 105808656.612 8  82448311.96747  20134717.637    20134716.686
  20134718.083          48.500          45.2504
 116848868.353 8  91051061.749 8  22235599.826    22235599.615    22235603.443
  22235603.776          48.500          49.500
 121326728.117 7  94540306.120 7  23087706.266    23087706.242    23087707.988
  23087707.305          45.000          43.000
 119259990.915 7  92929862.943 7  22694421.854    22694422.254    22694426.264
  22694426.159          44.250          47.250
 20  1  4  1 50 30.0000000  0  8G10G24G21G08G20G27G15G32
 110294133.564 8  85943482.612 9  20988274.670    20988274.807    20988278.197
  20988278.590          52.750          54.000
 118351042.546 7  92221589.435 7  22521452.622    22521453.095    22521457.197
  22521457.604          43.000          46.750
 111488947.950 8  86874509.68947  21215641.447    21215640.923
  21215642.437          50.250          45.2504
 125438704.550 7  97744444.379 7  23870192.417    23870191.955    23870197.554
  23870196.952          42.500          43.500
 105817707.766 8  82455364.82447  20136439.992    20136438.941
  20136440.527          48.500          45.2504
 116851292.872 8  91052950.991 8  22236061.511    22236061.153    22236064.990
  22236064.976          49.000          49.500
 121427657.289 7  94618952.215 7  23106912.330    23106912.613    23106913.066
  23106913.583          44.500          42.500
 119163958.534 7  92855032.528 7  22676147.657    22676147.993    22676152.138
  22676152.387          45.250          47.750
 20  1  4  1 51  0.0000000  0  8G10G24G21G08G20G27G15G32
 110257153.905 8  85914667.303 9  20981237.775    20981237.829    20981241.259
  20981241.618          52.750          54.500
 118305316.816 7  92185958.996 7  22512751.069    22512751.997    22512755.788
  22512756.202          43.000          47.250
 111527500.105 8  86904550.32147  21222977.876    21222977.119
  21222978.773          50.000          45.0004
 125382575.729 7  97700707.622 7  23859511.294    23859511.094    23859516.021
  23859515.935          42.250          43.750
 105827067.182 8  82462657.87747  20138220.790    20138220.073
  20138221.460          48.250          45.2504
 116854322.717 8  91055311.894 8  22236637.963    22236637.846    22236641.695
  22236641.788          48.500          49.750
 121528797.994 7  94697763.134 7  23126158.731    23126159.530    23126160.958
  23126160.206          45.000          43.500
 119068185.038 7  92780403.829 7  22657922.383    22657922.921    22657926.822
  22657926.863          45.000          47.250
 20  1  4  1 51 30.0000000  0  8G10G24G21G08G20G27G15G32
 110220422.511 8  85886045.437 9  20974248.088    20974248.199    20974251.469
  20974251.894          53.000          54.500
 118260103.089 7  92150727.534 7  22504148.092    22504148.148    22504151.524
  22504151.868          43.750          46.750
 111566434.618 8  86934888.90047  21230386.899    21230386.310
  21230387.870          50.250          45.2504
 125326933.912 7  97657350.355 7  23848923.305    23848923.033    23848927.954
  23848927.547          42.750          44.250
 105836736.107 8  82470192.10947  20140060.710    20140059.894
  20140061.443          48.250          45.2504
 116857958.582 8  91058145.028 8  22237329.823    22237329.334    22237333.857
  22237333.647          48.250          49.500
 121630148.914 7  94776737.873 7  23145445.865    23145445.503    23145446.001
  23145446.604          46.000          42.250
 118972673.385 7  92705979.163 7  22639747.359    22639747.517    22639751.873
  22639751.380          45.250          47.000
 20  1  4  1 52  0.0000000  0  8G10G24G21G08G20G27G15G32
 110183939.008 8  85857616.739 9  20967305.420    20967305.596    20967308.864
  20967309.211          53.000          54.500
 118215403.424 7  92115896.616 7  22495642.611    22495642.193    22495646.170
  22495645.932          45.750          47.250
 111605750.910 8  86965524.96647  21237868.703    21237867.927
  21237869.470          50.250          45.0004
 125271780.217 7  97614373.439 7  23838427.774    23838427.176    23838432.461
  23838432.109          43.250          43.750
 105846714.056 8  82477967.13747  20141959.304    20141958.576
  20141960.285          48.000          45.2504
 116862199.543 8  91061449.662 8  22238136.901    22238136.751    22238140.439
  22238140.739          49.000          49.500
 121731706.982 7  94855874.037 7  23164771.208    23164771.217    23164772.951
  23164772.406          45.000          42.750
 118877424.822 7  92631759.498 7  22621622.408    22621622.069    22621625.870
  22621626.437          45.000          47.000
 20  1  4  1 52 30.0000000  0  8G10G24G21G08G20G27G15G32
 110147704.054 8  85829381.712 9  20960410.205    20960410.251    20960413.666
  20960414.028          52.750          54.500
 118171220.818 7  92081468.621 7  22487233.822    22487234.739    22487238.374
  22487238.687          44.000          47.500
 111645449.307 8  86996458.77847  21245423.073    21245422.291
  21245423.739          50.250          45.2504
 125217117.017 7  97571778.723 7  23828026.040    23828025.071    23828030.961
  23828030.559          43.250          43.750
 105857001.313 8  82485983.18047  20143917.035    20143916.188
  20143917.766          48.250          45.5004
 116867045.585 8  91065225.787 8  22239059.098    22239058.792    22239062.595
  22239062.596          48.500          49.250
 121833470.169 7  94935170.024 7  23184135.942    23184136.335    23184136.852
  23184137.161          45.000          42.000
 118782441.544 7  92557746.563 7  22603547.213    22603548.111    22603551.061
  22603551.486          45.500          47.000
 20  1  4  1 53  0.0000000  0  8G10G24G21G08G20G27G15G32
 110111717.456 8  85801340.210 9  20953561.982    20953562.213    20953565.419
  20953565.950          52.750          54.500
 118127557.045 7  92047444.911 8  22478925.864    22478925.485    22478929.987
  22478929.929          45.250          48.250
 111685529.692 8  87027690.24047  21253050.013    21253049.388
  21253050.715          50.250          44.7504
 125162945.444 7  97529567.115 7  23817716.669    23817717.076    23817721.769
  23817722.246          42.750          44.000
 105867597.803 8  82494240.18747  20145933.169    20145932.655
  20145934.222          48.500          45.0004
 116872495.912 8  91069472.787 8  22240096.267    22240095.993    22240099.780
  22240099.923          48.250          49.500
 121935435.418 7  95014623.434 7  23203539.779    23203539.393    23203541.436
  23203540.820          45.000          43.250
 118687725.003 7  92483941.453 7  22585523.464    22585523.552    22585527.720
  22585527.273          45.250          47.250
 20  1  4  1 53 30.0000000  0  8G10G24G21G08G20G27G15G32
 110075980.427 8  85773493.171 9  20946761.700    20946761.741    20946764.957
  20946765.534          53.250          54.500
 118084414.731 7  92013827.542 8  22470715.479    22470715.639    22470720.204
  22470719.971          43.750          48.250
 111725993.229 8  87059220.26447  21260749.955    21260749.126
  21260750.498          50.250          44.7504
 125109268.401 7  97487740.840 7  23807502.561    23807502.360    23807508.181
  23807507.295          42.000          44.250
 105878504.399 8  82502738.83047  20148008.726    20148008.169
  20148009.689          48.500          45.2504
 116878551.042 8  91074191.060 8  22241248.531    22241248.406    22241251.980
  22241252.162          48.250          49.500
 122037601.276 7  95094233.181 7  23222981.225    23222981.656    23222981.924
  23222982.051          45.000          42.500
 118593277.991 7  92410346.380 7  22567550.337    22567550.964    22567555.377
  22567555.134          45.250          47.750
 20  1  4  1 54  0.0000000  0  8G10G24G21G08G20G27G15G32
 110040491.798 8  85745839.700 9  20940008.461    20940008.410    20940011.803
  20940012.235          52.750          54.500
 118041795.218 7  91980617.557 8  22462605.680    22462605.240    22462610.206
  22462609.869          44.500          48.000
 111766838.060 8  87091047.41147  21268522.598    21268521.752
  21268523.307          49.500          44.7504
 125056086.218 7  97446300.166 7  23797382.104    23797381.443    23797387.179
  23797387.203          42.000          43.500
 105889719.341 8  82511477.74047  20150142.820    20150142.282
  20150143.742          48.500          45.5004
 116885209.045 8  91079379.094 8  22242515.646    22242515.335    22242518.953
  22242519.324          48.750          49.250
 122139963.687 7  95173996.090 7  23242460.412    23242460.094    23242461.047
  23242461.420          45.000          42.750
 118499100.845 7  92336961.611 7  22549629.381    22549629.677    22549633.405
  22549633.965          45.000          47.500
 20  1  4  1 54 30.0000000  0  8G10G24G21G08G20G27G15G32
 110005252.728 8  85718380.688 9  20933302.333    20933302.619    20933305.956
  20933306.466          52.750          54.500
 117999701.511 7  91947817.261 7  22454595.316    22454595.254    22454599.660
  22454599.487          45.250          47.750
 111808065.112 8  87123172.38647  21276367.502    21276366.835
  21276368.358          50.250          44.7504
 125003401.699 7  97405247.276 7  23787356.914    23787356.497    23787361.768
  23787360.847          42.250          43.500
 105901243.519 8  82520457.62247  20152336.032    20152335.276
  20152336.753          49.250          45.2504
 116892470.469 8  91085037.343 8  22243897.427    22243897.329    22243901.015
  22243900.909          48.750          49.250
 122242520.963 7  95253910.844 7  23261976.073    23261976.590    23261977.122
  23261977.228          44.750          42.000
 118405196.335 7  92263789.261 7  22531759.845    22531760.301    22531763.806
  22531764.309          45.750          47.000
 20  1  4  1 55  0.0000000  0  8G10G24G21G08G20G27G15G32
 109970262.828 8  85691115.828 9  20926644.096    20926644.268    20926647.763
  20926648.149          52.750          55.000
 117958135.168 7  91915427.879 7  22446685.616    22446685.476    22446689.961
  22446689.497          45.500          47.750
 111849673.616 8  87155594.60147  21284285.459    21284284.931
  21284286.389          49.750          44.7504
 124951215.990 7  97364583.099 7  23777426.097    23777426.569    23777430.342
  23777430.379          43.000          42.750
 105913076.361 8  82529678.02147  20154587.682    20154587.000
  20154588.362          48.750          45.2504
 116900334.105 8  91091164.825 8  22245393.706    22245393.609    22245397.261
  22245397.252          48.750          49.500
 122345270.174 7  95333975.156 7  23281529.013    23281528.668    23281529.963
  23281529.843          44.750          42.250
 118311565.600 7  92190830.248 8  22513942.333    22513943.173    22513946.802
  22513946.965          45.250          48.000
 20  1  4  1 55 30.0000000  0  8G10G24G21G08G20G27G15G32
 109935521.904 8  85664044.983 9  20920033.144    20920033.186    20920036.744
  20920037.197          52.500          54.750
 117917097.726 7  91883450.659 7  22438876.357    22438876.287    22438879.851
  22438880.659          45.000          46.500
 111891662.883 8  87188313.51147  21292275.937    21292275.073
  21292276.702          49.500          44.7504
 124899529.801 7  97324308.133 7  23767591.375    23767590.824    23767595.878
  23767595.887          42.750          43.750
 105925217.595 7  82539138.72247  20156897.945    20156897.423
  20156898.800          47.750          45.0004
 116908798.992 8  91097760.841 8  22247004.547    22247004.317    22247008.215
  22247008.164          49.000          49.500
 122448208.493 7  95414186.805 7  23301116.913    23301116.817    23301117.654
  23301117.807          43.250          42.250
 118218210.019 7  92118085.646 7  22496178.020    22496178.110    22496181.930
  22496181.955          45.750          47.750
 20  1  4  1 56  0.0000000  0  8G10G24G21G08G20G27G15G32
 109901031.073 8  85637169.007 9  20913469.737    20913469.909    20913473.205
  20913473.751          52.750          54.750
 117876592.916 7  91851888.454 7  22431168.905    22431168.873    22431172.666
  22431172.216          45.250          47.000
 111934033.852 8  87221329.83647  21300338.772    21300338.027
  21300339.546          49.250          44.5004
 124848346.414 7  97284424.984 7  23757851.173    23757851.255    23757855.838
  23757855.871          42.750          44.000
 105937667.897 8  82548840.25947  20159267.442    20159266.687
  20159268.162          48.000          45.2504
 116917865.400 8  91104825.559 8  22248729.960    22248729.680    22248733.654
  22248733.384          49.250          49.500
 122551334.187 7  95494544.462 7  23320740.972    23320741.180    23320743.112
  23320742.542          44.000          42.500
 118125132.206 7  92045557.478 7  22478465.457    22478465.931    22478469.278
  22478469.303          46.000          47.250
 20  1  4  1 56 30.0000000  0  9G10G24G21G08G20G27G15G32G14
 109866790.440 8  85610488.001 9  20906953.915    20906954.184    20906957.383
  20906957.920          52.750          54.750
 117836622.294 7  91820742.516 7  22423562.444    22423562.511    22423566.731
  22423566.504          45.750          47.500
 111976786.452 8  87254643.55247  21308474.339    21308473.638
  21308475.177          49.250          44.5004
 124797667.063 7  97244934.565 7  23748207.824    23748207.094    23748212.140
  23748211.406          43.250          44.250
 105950427.210 8  82558782.58747  20161695.174    20161694.751
  20161696.139          48.250          45.2504
 116927532.583 8  91112358.418 8  22250569.528    22250569.594    22250573.014
  22250573.088          48.750          49.500
 122654644.713 7  95575046.158 7  23340400.500    23340401.038    23340402.442
  23340401.724          43.500          42.750
 118032333.843 7  91973247.067 7  22460806.422    22460807.105    22460810.718
  22460810.663          45.500          47.500
 130252043.819 6 101495098.33643  24786139.661    24786139.968
  24786141.585          37.250          22.2504
 20  1  4  1 57  0.0000000  0  8G10G24G21G08G20G27G15G32
 109832800.011 8  85584001.956 9  20900485.947    20900485.968    20900489.222
  20900489.786          52.750          54.500
 117797187.928 7  91790014.455 7  22416058.056    22416058.308    22416062.756
  22416062.590          44.750          47.250
 112019920.286 8  87288254.33047  21316682.252    21316681.694
  21316683.089          49.750          44.5004
 124747492.934 7  97205837.853 7  23738659.806    23738659.312    23738663.570
  23738663.738          42.500          43.750
 105963494.984 8  82568965.26747  20164182.095    20164181.310
  20164182.951          48.750          45.2504
 116937799.704 8  91120358.762 8  22252523.446    22252523.418    22252527.021
  22252527.063          49.000          49.750
 122758137.393 7  95655689.803 7  23360094.535    23360094.404    23360095.809
  23360095.532          44.000          42.000
 117939816.395 7  91901155.560 8  22443201.056    22443201.626    22443205.399
  22443205.579          45.250          48.000
 20  1  4  1 57 30.0000000  0  8G10G24G21G08G20G27G15G32
 109799060.222 8  85557711.213 9  20894065.353    20894065.502    20894068.796
  20894069.344          52.500          54.750
 117758291.450 7  91759705.522 7  22408656.085    22408656.575    22408659.472
  22408660.690          44.500          46.250
 112063435.562 8  87322162.33147  21324963.022    21324962.445
  21324963.930          49.250          44.5004
 124697826.355 7  97167136.622 7  23729208.302    23729208.377    23729212.606
  23729212.509          42.750          44.000
 105976871.794 7  82579388.75047  20166727.520    20166726.852
  20166728.457          47.250          45.2504
 116948666.293 7  91128826.223 8  22254591.347    22254591.125    22254594.717
  22254595.004          47.000          49.500
 122861809.964 7  95736473.599 6  23379822.769    23379822.913    23379823.962
  23379824.122          43.750          41.750
 117847581.855 7  91829284.498 7  22425649.421    22425649.839    22425653.648
  22425653.286          45.750          47.750
 20  1  4  1 58  0.0000000  0  8G10G24G21G08G20G27G15G32
 109765570.788 8  85531615.550 9  20887692.556    20887692.675    20887696.232
  20887696.514          52.500          55.000
 117719935.120 7  91729817.456 7  22401357.108    22401357.762    22401361.832
  22401361.431          44.750          47.000
 112107331.537 8  87356366.97947  21333316.202    21333315.457
  21333317.049          48.750          44.5004
 124648668.015 6  97128831.427 7  23719853.392    23719852.946    23719858.072
  23719857.891          41.750          44.250
 105990557.005 8  82590052.55547  20169331.773    20169331.182
  20169332.542          48.000          45.2504
 116960131.161 8  91137759.875 8  22256772.947    22256772.527    22256776.869
  22256776.893          48.000          50.250
 122965659.418 7  95817395.218 6  23399584.734    23399584.724    23399586.192
  23399585.463          42.750          41.250
 117755631.436 7  91757634.817 7  22408152.299    22408152.465    22408156.071
  22408156.083          46.750          47.500
 20  1  4  1 58 30.0000000  0  8G10G24G21G08G20G27G15G32
 109732332.477 8  85505715.575 9  20881367.382    20881367.666    20881371.091
  20881371.432          52.750          54.500
 117682120.851 7  91700351.802 7  22394161.294    22394161.921    22394165.873
  22394165.116          44.000          47.250
 112151608.532 8  87390868.53247  21341741.743    21341741.091
  21341742.677          49.500          44.2504
 124600020.272 7  97090924.075 7  23710596.342    23710595.473    23710600.901
  23710601.267          42.000          44.250
 106004551.041 8  82600957.00747  20171994.657    20171994.070
  20171995.617          48.500          45.2504
 116972194.094 8  91147159.540 8  22259068.364    22259068.157    22259071.980
  22259072.269          48.250          49.500
 123069683.602 7  95898453.023 6  23419379.949    23419380.039    23419381.484
  23419380.416          43.000          41.000
 117663967.391 7  91686208.292 7  22390709.061    22390709.473    22390712.959
  22390713.224          46.000          47.750
 20  1  4  1 59  0.0000000  0  8G10G24G21G08G20G27G15G32
 109699345.411 8  85480011.372 9  20875090.427    20875090.429    20875093.829
  20875094.190          52.500          54.750
 117644850.819 7  91671310.204 7  22387069.158    22387069.401    22387073.312
  22387073.297          43.500          46.750
 112196266.229 8  87425666.72747  21350240.017    21350239.153
  21350240.727          49.500          44.5004
 124551884.435 7  97053415.634 7  23701436.446    23701435.690    23701440.149
  23701440.684          42.500          43.750
 106018853.585 7  82612101.84447  20174716.476    20174715.842
  20174717.300          46.250          45.2504
 116984854.268 7  91157024.604 8  22261477.475    22261477.130    22261481.228
  22261481.163          45.750          49.750
 123173880.227 7  95979645.176 6  23439207.561    23439208.040    23439208.853
  23439208.901          43.250          41.500
 117572591.272 7  91615006.123 8  22373320.419    22373320.727    22373324.972
  22373324.595          46.500          48.000
 20  1  4  1 59 30.0000000  0  8G10G24G21G08G20G27G15G32
 109666608.749 8  85454502.291 9  20868860.789    20868860.905    20868864.258
  20868864.604          52.500          54.750
 117608126.823 7  91642694.093 7  22380081.088    22380080.721    22380084.582
  22380085.348          46.750          46.500
 112241303.387 8  87460760.61047  21358810.146    21358809.516
  21358810.981          49.000          44.5004
 124504261.275 7  97016306.683 7  23692373.670    23692373.187    23692378.437
  23692378.051          42.250          44.000
 106033463.699 7  82623486.34747  20177496.735    20177495.897
  20177497.557          45.500          45.2504
 116998109.788 7  91167353.577 8  22263999.888    22264000.069    22264003.410
  22264003.559          45.000          49.500
 123278246.034 7  96060969.176 6  23459067.806    23459067.780    23459069.118
  23459068.997          43.000          41.500
 117481503.751 7  91544028.821 8  22355987.193    22355987.752    22355991.096
  22355991.324          45.750          48.000
 20  1  4  2  0  0.0000000  0  8G10G24G21G08G20G27G15G32
 109634123.678 8  85429189.253 9  20862678.929    20862679.027    20862682.462
  20862682.866          52.500          54.750
 117571950.523 7  91614504.777 7  22373196.673    22373196.733    22373201.223
  22373201.308          46.750          47.500
 112286720.781 8  87496150.77947  21367452.949    21367452.236
  21367453.740          49.500          44.5004
 124457152.703 7  96979598.701 7  23683409.096    23683409.014    23683414.061
  23683414.004          42.000          43.750
 106048382.347 8  82635111.27447  20180335.385    20180334.749
  20180336.470          48.250          45.2504
 117011960.835 7  91178146.596 8  22266635.906    22266635.766    22266639.370
  22266639.523          47.250          49.250
 123382779.455 7  96142423.773 6  23478960.106    23478959.981    23478961.430
  23478960.787          42.750          41.750
 117390707.500 7  91473278.499 8  22338709.193    22338709.448    22338713.546
  22338713.355          46.000          48.000
 20  1  4  2  0 30.0000000  0  8G10G24G21G08G20G27G15G32
 109601889.853 8  85404071.986 9  20856545.088    20856545.224    20856548.458
  20856548.971          52.000          55.000
 117536324.193 7  91586744.010 7  22366417.587    22366417.244    22366421.797
  22366421.873          45.000          47.250
 112332517.779 8  87531836.73947  21376167.716    21376166.985
  21376168.544          49.000          44.5004
 124410560.139 7  96943292.805 7  23674542.482    23674542.820    23674548.215
  23674548.091          42.000          44.500
 106063608.882 8  82646976.11147  20183233.032    20183232.251
  20183233.861          48.250          45.2504
 117026406.013 7  91189402.561 8  22269384.704    22269384.423    22269388.085
  22269388.165          47.750          49.500
 123487477.118 7  96224006.340 6  23498883.534    23498883.607    23498884.965
  23498884.602          43.000          41.750
 117300203.606 7  91402755.988 8  22321486.915    22321486.990    22321491.203
  22321490.935          46.000          48.000
 20  1  4  2  1  0.0000000  0  8G10G24G21G08G20G27G15G32
 109569908.580 8  85379151.520 9  20850459.184    20850459.414    20850462.673
  20850462.977          52.500          54.750
 117501250.151 7  91559413.579 7  22359742.861    22359743.059    22359747.263
  22359747.248          47.250          47.500
 112378695.144 8  87567819.09447  21384955.096    21384954.295
  21384955.846          49.750          44.5004
 124364485.991 7  96907390.888 7  23665775.185    23665775.018    23665780.183
  23665779.331          42.000          44.250
 106079144.094 8  82659081.47147  20186189.159    20186188.503
  20186190.220          48.500          45.0004
 117041445.505 8  91201121.638 8  22272246.514    22272246.240    22272249.633
  22272250.000          48.000          49.000
 123592337.755 7  96305715.919 6  23518837.798    23518837.495    23518838.658
  23518838.103          43.500          41.000
 117209994.780 7  91332463.390 8  22304320.382    22304320.966    22304324.673
  22304325.077          45.750          48.250
 20  1  4  2  1 30.0000000  0  8G10G24G21G08G20G27G15G32
 109538180.594 8  85354428.415 9  20844421.640    20844421.808    20844425.055
  20844425.448          52.750          55.000
 117466730.850 7  91532515.426 7  22353174.598    22353174.046    22353178.818
  22353178.572          47.250          47.750
 112425252.989 8  87604097.92547  21393814.521    21393813.999
  21393815.606          49.500          44.2504
 124318932.716 7  96871894.819 7  23657107.028    23657106.399    23657111.312
  23657111.393          42.250          44.000
 106094988.522 8  82671427.77547  20189204.382    20189203.724
  20189205.218          49.000          45.0004
 117057079.020 7  91213303.601 8  22275221.716    22275221.349    22275225.241
  22275225.068          47.500          49.500
 123697359.663 7  96387551.159 6  23538822.841    23538822.886    23538824.315
  23538824.061          43.500          41.750
 117120083.281 7  91262402.489 8  22287211.031    22287211.371    22287215.250
  22287215.364          46.000          48.000
 20  1  4  2  2  0.0000000  0  8G10G24G21G08G20G27G15G32
 109506703.753 8  85329901.012 9  20838431.873    20838431.885    20838435.043
  20838435.639          52.750          54.750
 117432766.186 7  91506049.445 7  22346710.982    22346710.490    22346715.468
  22346715.116          47.000          47.750
 112472188.765 8  87640671.25147  21402746.035    21402745.642
  21402747.075          48.750          44.2504
 124273898.667 7  96836803.355 7  23648537.477    23648537.198    23648541.666
  23648541.856          42.000          43.750
 106111139.947 8  82684013.30247  20192277.918    20192277.209
  20192278.697          48.250          45.2504
 117073303.200 7  91225945.793 8  22278308.744    22278308.532    22278312.550
  22278312.621          47.250          49.250
 123802537.904 7  96469508.205 6  23558837.688    23558837.431    23558838.980
  23558838.343          43.250          41.750
 117030468.337 7  91192572.660 8  22270158.330    22270158.602    22270162.325
  22270161.933          47.250          48.000
 20  1  4  2  2 30.0000000  0  8G10G24G21G08G20G27G15G32
 109475478.835 8  85305569.907 9  20832489.942    20832490.088    20832493.251
  20832493.738          52.500          55.000
 117399358.410 7  91480017.424 7  22340353.294    22340353.471    22340357.785
  22340357.943          46.000          47.750
 112519503.156 8  87677539.60047  21411749.920    21411749.286
  21411750.675          49.000          44.5004
 124229386.099 7  96802118.235 7  23640067.127    23640066.966    23640070.755
  23640071.356          42.250          43.750
 106127598.898 8  82696838.46447  20195409.859    20195409.140
  20195410.820          48.500          45.2504
 117090117.637 8  91239047.951 8  22281508.426    22281508.481    22281512.405
  22281512.451          48.000          49.500
 123907870.684 7  96551585.659 7  23578881.926    23578881.553    23578883.591
  23578882.536          42.500          42.250
 116941152.149 7  91122975.616 8  22253161.656    22253162.124    22253165.555
  22253165.561          46.500          48.000
 20  1  4  2  3  0.0000000  0  8G10G24G21G08G20G27G15G32
 109444506.483 8  85281435.620 9  20826595.824    20826596.090    20826599.481
  20826599.913          52.250          54.750
 117366509.829 7  91454421.118 7  22334102.955    22334102.667    22334107.155
  22334106.818          46.750          47.750
 112567195.678 8  87714702.59747  21420825.634    21420824.849
  21420826.242          49.000          44.2504
 124185396.772 7  96767840.824 7  23631696.203    23631695.735    23631701.014
  23631700.122          42.500          44.250
 106144365.554 7  82709903.38647  20198600.446    20198599.713
  20198601.512          47.750          45.0004
 117107521.823 7  91252609.655 8  22284820.418    22284820.126    22284824.029
  22284824.065          47.750          49.500
 124013356.090 7  96633782.064 6  23598954.749    23598954.857    23598956.433
  23598956.013          42.000          41.250
 116852136.786 7  91053613.002 8  22236222.731    22236223.085    22236226.932
  22236226.652          46.750          48.500
 20  1  4  2  3 30.0000000  0  8G10G24G21G08G20G27G15G32
 109413786.841 8  85257498.235 9  20820750.330    20820750.492    20820753.686
  20820754.083          52.500          55.000
 117334222.180 7  91429261.912 7  22327958.683    22327958.598    22327962.810
  22327962.671          46.750          47.500
 112615265.884 8  87752159.88947  21429972.962    21429972.341
  21429973.929          50.000          44.2504
 124141931.930 7  96733972.123 7  23623425.088    23623424.609    23623429.455
  23623429.315          42.500          43.750
 106161439.764 8  82723207.95547  20201849.688    20201848.963
  20201850.590          48.000          45.2504
 117125514.671 7  91266630.044 8  22288244.318    22288244.161    22288248.163
  22288248.122          47.500          49.750
 124118991.355 7  96716095.208 6  23619056.710    23619056.710    23619058.551
  23619057.611          43.000          41.500
 116763423.736 7  90984485.942 8  22219341.250    22219341.502    22219345.003
  22219344.999          46.750          48.750
 20  1  4  2  4  0.0000000  0  8G10G24G21G08G20G27G15G32
 109383321.178 8  85233758.766 9  20814952.876    20814952.998    20814956.316
  20814956.816          52.000          54.750
 117302497.769 7  91404541.606 8  22321921.220    22321921.443    22321926.237
  22321925.973          44.250          48.000
 112663714.765 8  87789912.25647  21439192.357    21439191.954
  21439193.377          49.750          44.0004
 124098994.035 7  96700514.014 7  23615254.167    23615253.827    23615258.768
  23615258.278          42.000          44.250
 106178822.669 7  82736753.07647  20205157.537    20205156.803
  20205158.408          46.250          45.2504
 117144096.228 7  91281109.161 8  22291780.301    22291780.089    22291783.980
  22291783.862          45.000          49.500
 124224775.409 7  96798524.303 6  23639186.083    23639186.848    23639188.708
  23639188.437          43.000          41.750
 116675015.712 7  90915596.573 8  22202517.566    22202518.031    22202521.868
  22202521.893          47.000          48.750
 20  1  4  2  4 30.0000000  0  8G10G24G21G08G20G27G15G32
 109353107.706 8  85210215.800 9  20809203.317    20809203.498    20809206.773
  20809207.277          50.500          55.000
 117271336.941 6  91380260.436 7  22315991.638    22315991.780    22315996.206
  22315996.187          41.250          47.750
 112712539.996 8  87827957.87947  21448483.684    21448482.972
  21448484.512          49.250          44.2504
 124056582.429 7  96667466.004 7  23607183.337    23607183.068    23607188.057
  23607187.636          42.000          44.250
 106196511.999 7  82750536.96847  20208523.670    20208522.953
  20208524.609          46.250          45.0004
 117163263.326 7  91296044.558 8  22295427.662    22295427.414    22295431.255
  22295431.214          45.250          49.250
 124330703.883 7  96881065.945 6  23659344.739    23659344.246    23659346.370
  23659345.772          44.000          41.000
 116586912.249 7  90846944.526 8  22185752.242    22185752.526    22185756.292
  22185756.398          47.250          49.000
 20  1  4  2  5  0.0000000  0  8G10G24G21G08G20G27G15G32
 109323148.899 8  85186871.277 9  20803502.664    20803502.602    20803505.917
  20803506.265          52.250          55.000
 117240743.214 7  91356421.152 8  22310169.674    22310169.951    22310174.344
  22310174.512          44.250          48.000
 112761743.545 8  87866298.28847  21457846.637    21457846.211
  21457847.735          48.750          44.0004
 124014700.931 7  96634831.072 7  23599213.773    23599213.703    23599217.605
  23599218.027          42.000          44.250
 106214509.854 8  82764561.26047  20211948.478    20211947.748
  20211949.574          48.500          45.2504
 117183017.247 7  91311437.213 8  22299186.564    22299186.502    22299190.357
  22299190.645          47.000          49.500
 124436776.515 7  96963719.935 6  23679528.669    23679529.448    23679530.435
  23679530.230          43.000          39.750
 116499117.219 7  90778532.813 8  22169045.311    22169045.574    22169049.271
  22169049.442          46.750          48.750
 20  1  4  2  5 30.0000000  0  8G10G24G21G08G20G27G15G32
 109293443.942 8  85163724.567 9  20797849.826    20797849.907    20797853.034
  20797853.571          52.250          54.750
 117210717.581 7  91333024.585 7  22304456.738    22304456.431    22304460.472
  22304460.659          46.250          47.250
 112811323.969 8  87904932.36947  21467281.422    21467280.995
  21467282.522          48.500          44.0004
 123973349.563 7  96602609.227 7  23591344.342    23591344.151    23591349.459
  23591348.975          42.000          44.000
 106232815.515 8  82778825.40947  20215431.883    20215431.186
  20215432.953          48.250          45.2504
 117203355.817 7  91327285.437 8  22303056.897    22303056.932    22303060.939
  22303060.848          47.500          49.500
 124542989.958 7  97046483.650 6  23699741.284    23699741.507    23699742.914
  23699742.130          44.250          40.000
 116411631.166 7  90710361.861 8  22152396.992    22152397.260    22152401.261
  22152401.458          46.500          48.750
 20  1  4  2  6  0.0000000  0  8G10G24G21G08G20G27G15G32
 109263993.264 8  85140775.987 9  20792245.553    20792245.673    20792248.883
  20792249.411          52.750          54.750
 117181261.379 7  91310071.682 7  22298851.352    22298851.074    22298855.653
  22298855.536          46.750          47.750
 112861281.094 8  87943859.99247  21476788.246    21476787.556
  21476789.254          49.250          43.7504
 123932529.658 7  96570801.512 7  23583577.136    23583576.205    23583581.864
  23583581.495          42.250          44.250
 106251428.777 7  82793329.24647  20218973.936    20218973.151
  20218974.938          47.250          45.2504
 117224278.077 7  91343588.491 8  22307038.325    22307038.048    22307041.792
  22307042.015          46.250          49.000
 124649341.761 7  97129355.149 6  23719979.045    23719979.127    23719981.780
  23719979.992          43.250          41.000
 116324455.802 7  90642433.021 8  22135808.507    22135808.811    22135812.280
  22135812.304          47.250          49.000
 20  1  4  2  6 30.0000000  0  8G10G24G21G08G20G27G15G32
 109234796.045 8  85118024.909 9  20786689.306    20786689.558    20786692.724
  20786693.301          52.250          55.000
 117152375.779 7  91287563.421 7  22293354.686    22293354.662    22293358.685
  22293358.521          46.250          47.250
 112911613.457 8  87983080.01447  21486366.213    21486365.394
  21486367.055          49.250          44.0004
 123892241.790 6  96539408.365 7  23575910.467    23575910.317    23575914.839
  23575914.654          41.500          44.000
 106270348.780 8  82808072.10747  20222574.147    20222573.700
  20222575.375          48.250          45.2504
 117245781.864 7  91360344.684 8  22311130.392    22311130.402    22311134.095
  22311134.049          47.250          49.250
 124755829.040 7  97212332.206 6  23740242.700    23740243.534    23740244.236
  23740243.895          43.500          40.500
 116237591.706 7  90574746.706 8  22119278.759    22119278.978    22119282.638
  22119282.547          47.250          49.000
 20  1  4  2  7  0.0000000  0  8G10G24G21G08G20G27G15G32
 109205854.058 8  85095472.712 9  20781181.934    20781182.044    20781185.437
  20781185.822          51.500          55.000
 117124063.903 7  91265502.225 8  22287966.668    22287966.801    22287971.345
  22287971.228          43.750          48.500
 112962322.228 8  88022593.33147  21496015.684    21496014.948
  21496016.507          48.750          43.5004
 123852488.012 6  96508431.401 7  23568345.776    23568345.248    23568350.081
  23568349.904          41.750          43.750
 106289576.719 8  82823054.91047  20226233.461    20226232.882
  20226234.268          48.500          45.2504
 117267867.503 7  91377554.259 8  22315333.071    22315332.984    22315336.798
  22315336.922          47.500          49.000
 124862450.531 7  97295413.875 6  23760533.265    23760532.510    23760533.297
  23760533.160          44.500          40.000
 116151041.965 7  90507305.353 8  22102808.750    22102809.106    22102812.929
  22102813.404          47.250          49.500
 20  1  4  2  7 30.0000000  0  9G14G10G24G21G08G20G27G15G32
 127946127.853 6  99698281.98943  24347339.443    24347338.653
  24347339.673          37.500          20.7504
 109177167.125 8  85073119.262 9  20775723.021    20775723.080    20775726.297
  20775726.902          50.750          55.250
 117096326.341 6  91243888.534 7  22282688.061    22282688.589    22282692.307
  22282692.992          41.500          47.750
 113013406.544 8  88062399.28247  21505736.744    21505735.926
  21505737.586          48.500          43.5004
 123813269.805 6  96477871.761 7  23560883.079    23560882.025    23560887.266
  23560886.510          41.750          43.750
 106309112.107 8  82838277.29647  20229950.764    20229950.024
  20229951.539          48.250          45.5004
 117290533.409 8  91395216.001 8  22319646.290    22319646.088    22319649.861
  22319649.939          48.250          49.000
 124969203.911 7  97378598.314 6  23780847.152    23780846.896    23780847.329
  23780847.710          44.000          39.750
 116064807.704 7  90440109.830 8  22086398.998    22086399.397    22086403.185
  22086402.808          47.250          49.250
 20  1  4  2  8  0.0000000  0  9G14G10G24G21G08G20G27G15G32
 127842708.758 6  99617695.68743  24327658.612    24327657.802
  24327660.506          37.250          22.2504
 109148735.570 8  85050964.810 9  20770312.721    20770312.808    20770316.008
  20770316.525          52.750          55.000
 117069165.430 7  91222724.202 7  22277520.004    22277519.677    22277524.305
  22277524.385          46.250          47.750
 113064866.039 8  88102497.58847  21515528.987    21515528.408
  21515529.800          48.750          43.5004
 123774588.240 7  96447730.280 7  23553521.682    23553521.152    23553526.682
  23553525.401          42.000          44.000
 106328954.834 8  82853739.15847  20233726.876    20233726.015
  20233727.690          49.500          45.2504
 117313778.460 8  91413329.020 8  22324069.903    22324069.666    22324073.283
  22324073.349          48.000          49.000
 125076086.559 7  97461883.461 6  23801185.537    23801186.387    23801186.799
  23801187.003          42.000          39.750
 115978890.547 7  90373161.399 8  22070049.306    22070049.879    22070053.147
  22070053.506          47.250          49.250
 20  1  4  2  8 30.0000000  0  9G14G10G24G21G08G20G27G15G32
 127739423.950 6  99537214.02043  24308003.894    24308002.375
  24308005.706          37.500          21.0004
 109120558.094 8  85029008.339 9  20764950.647    20764950.660    20764954.156
  20764954.545          52.750          55.250
 117042580.685 7  91202008.805 7  22272460.890    22272460.667    22272464.912
  22272465.125          46.500          47.750
 113116698.801 8  88142886.74847  21525392.593    21525392.018
  21525393.294          48.750          43.5004
 123736443.036 7  96418006.745 7  23546263.189    23546262.736    23546268.005
  23546267.369          42.750          44.000
 106349103.758 8  82869439.60747  20237561.028    20237560.171
  20237561.927          48.750          45.2504
 117337599.815 7  91431891.118 8  22328602.822    22328602.623    22328606.235
  22328606.511          47.250          48.750
 125183094.717 7  97545266.418 6  23821548.829    23821548.944    23821550.228
  23821549.386          42.500          39.000
 115893290.499 7  90306460.043 8  22053760.259    22053760.482    22053764.099
  22053764.224          47.750          48.750
 20  1  4  2  9  0.0000000  0  9G14G10G24G21G08G20G27G15G32
 127636277.165 6  99456839.91843  24288374.549    24288375.574
  24288378.453          37.000          22.2504
 109092636.778 8  85007251.466 9  20759637.137    20759637.555    20759640.777
  20759641.405          52.500          55.000
 117016575.836 7  91181745.296 7  22267512.324    22267512.616    22267516.848
  22267516.730          46.000          47.500
 113168906.080 8  88183567.74547  21535327.355    21535326.793
  21535328.283          49.250          43.5004
 123698837.388 7  96388703.646 7  23539106.662    23539106.584    23539111.624
  23539111.258          42.250          44.000
 106369560.571 8  82885379.97847  20241454.066    20241453.039
  20241454.782          49.000          45.5004
 117361998.107 7  91450902.759 8  22333246.104    22333245.768    22333249.237
  22333249.410          47.250          49.250
 125290228.105 7  97628746.937 6  23841936.030    23841936.681    23841936.208
  23841936.836          43.750          39.000
 115808010.880 7  90240008.410 8  22037531.826    22037532.492    22037536.096
  22037536.103          47.500          49.000
 20  1  4  2  9 30.0000000  0  9G14G10G24G21G08G20G27G15G32
 127533269.771 6  99376574.44643  24268774.239    24268773.751
  24268776.579          37.500          22.0004
 109064971.395 8  84985694.021 9  20754372.935    20754372.979    20754376.340
  20754376.815          52.750          55.250
 116991151.213 7  91161933.895 7  22262674.306    22262674.505    22262678.083
  22262678.423          47.000          47.000
 113221487.222 8  88224540.05247  21545333.250    21545332.412
  21545334.018          49.000          43.5004
 123661771.559 7  96359821.184 7  23532053.709    23532053.035    23532058.177
  23532057.054          42.750          44.000
 106390324.462 8  82901559.62547  20245404.866    20245404.294
  20245405.990          48.500          45.5004
 117386971.546 7  91470362.579 8  22337997.743    22337997.572    22338001.479
  22338001.561          47.250          48.750
 125397483.736 7  97712322.724 6  23862345.889    23862346.016    23862346.284
  23862346.728          44.000          39.000
 115723052.783 8  90173807.276 8  22021365.016    22021365.317    22021369.189
  22021369.048          48.000          49.250
 20  1  4  2 10  0.0000000  0  9G14G10G24G21G08G20G27G15G32
 127430401.505 6  99296417.37043  24249198.527    24249198.423
  24249200.453          37.500          22.0004
 109037560.335 8  84964334.757 9  20749156.604    20749156.915    20749160.183
  20749160.656          52.750          55.250
 116966307.492 7  91142575.155 7  22257947.314    22257946.676    22257951.208
  22257951.231          47.750          47.750
 113274439.767 8  88265801.76047  21555409.607    21555409.012
  21555410.572          48.750          43.2504
 123625244.965 7  96331358.887 7  23525102.320    23525102.504    23525107.483
  23525106.922          42.250          44.250
 106411393.520 8  82917977.07647  20249414.099    20249413.464
  20249415.278          48.500          45.2504
 117412516.916 7  91490268.047 8  22342858.969    22342858.927    22342862.804
  22342862.975          47.250          49.000
 125504857.645 7  97795990.689 6  23882779.250    23882779.370    23882779.320
  23882780.079          45.000          39.250
 115638415.808 7  90107856.395 8  22005258.960    22005259.294    22005263.561
  22005263.235          47.500          49.250
 20  1  4  2 10 30.0000000  0  9G14G10G24G21G08G20G27G15G32
 127327677.418 6  99216372.63843  24229650.632    24229650.670
  24229652.433          37.750          21.7504
 109010406.735 8  84943176.108 9  20743989.679    20743989.645    20743993.041
  20743993.365          53.000          55.000
 116942048.523 7  91123672.058 7  22253330.230    22253330.223    22253334.967
  22253334.947          46.750          47.750
 113327765.931 8  88307354.61247  21565557.148    21565556.443
  21565558.178          49.000          43.0004
 123589261.628 7  96303319.920 7  23518255.221    23518255.189    23518259.940
  23518259.509          42.500          43.250
 106432770.540 8  82934634.49447  20253482.150    20253481.545
  20253483.185          48.750          45.2504
 117438635.839 7  91510620.451 8  22347829.304    22347828.940    22347833.017
  22347833.251          47.500          49.000
 125612350.481 7  97879751.279 6  23903234.559    23903234.145    23903234.449
  23903235.246          44.500          38.500
 115554104.385 7  90042159.173 8  21989215.247    21989215.388    21989219.373
  21989219.462          47.750          49.500
 20  1  4  2 11  0.0000000  0  9G14G10G24G21G08G20G27G15G32
 127225097.457 6  99136440.19343  24210130.748    24210130.070
  24210131.677          37.500          20.0004
 108983509.274 8  84922217.050 9  20738871.074    20738871.300    20738874.650
  20738875.062          53.000          55.250
 116918374.203 7  91105224.537 7  22248825.101    22248825.129    22248829.101
  22248829.633          46.500          47.750
 113381463.880 8  88349197.15447  21575775.734    21575774.823
  21575776.632          49.000          43.0004
 123553821.114 7  96275703.932 7  23511511.063    23511510.919    23511515.264
  23511515.229          42.750          43.250
 106454454.106 8  82951530.78047  20257608.207    20257607.866
  20257609.563          48.750          45.5004
 117465325.315 8  91531417.442 8  22352908.424    22352908.225    22352912.007
  22352911.981          48.000          48.750
 125719958.080 7  97963601.317 6  23923710.977    23923710.504    23923711.620
  23923712.156          43.500          38.750
 115470118.396 8  89976715.554 8  21973233.086    21973233.585    21973237.411
  21973237.481          48.500          49.500
 20  1  4  2 11 30.0000000  0  9G14G10G24G21G08G20G27G15G32
 127122663.930 6  99056621.83743  24190638.903    24190637.974
  24190639.444          38.250          21.2504
 108956868.932 8  84901458.349 9  20733801.534    20733801.751    20733804.996
  20733805.510          52.750          55.250
 116895286.634 7  91087234.242 8  22244432.533    22244431.721    22244435.972
  22244436.453          47.500          48.000
 113435533.987 8  88391329.69847  21586064.852    21586064.286
  21586065.803          49.250          43.2504
 123518924.935 7  96248512.103 7  23504870.385    23504869.970    23504875.460
  23504875.311          42.500          43.250
 106476444.601 8  82968666.22847  20261793.210    20261792.429
  20261793.994          49.500          45.5004
 117492584.705 8  91552658.521 8  22358096.022    22358095.859    22358099.224
  22358099.164          48.250          49.000
 125827679.002 7  98047539.684 6  23944209.784    23944210.063    23944211.066
  23944210.197          44.000          39.500
 115386460.065 8  89911527.238 8  21957313.702    21957313.926    21957317.742
  21957317.686          48.250          49.750
 20  1  4  2 12  0.0000000  0  9G14G10G24G21G08G20G27G15G32
 127020378.682 6  98976919.07243  24171174.626    24171173.930
  24171175.227          38.750          22.7504
 108930485.974 8  84880900.198 9  20728781.188    20728781.354    20728784.598
  20728784.991          53.500          55.000
 116872787.308 7  91069702.285 8  22240150.525    22240150.619    22240154.540
  22240155.244          47.500          48.250
 113489975.193 8  88433751.39947  21596424.674    21596424.103
  21596425.468          49.250          43.0004
 123484574.278 7  96221745.340 7  23498333.841    23498333.879    23498338.452
  23498338.078          42.250          43.750
 106498742.187 8  82986040.96247  20266036.061    20266035.529
  20266037.121          49.500          45.5004
 117520412.599 7  91574342.584 8  22363390.988    22363390.863    22363394.574
  22363394.695          47.750          48.750
 125935511.044 7  98131564.654 6  23964729.030    23964729.114    23964731.267
  23964730.263          43.250          39.250
 115303130.869 8  89846595.390 8  21941456.661    21941457.021    21941460.335
  21941460.416          48.500          49.250
 20  1  4  2 12 30.0000000  0  9G14G10G24G21G08G20G27G15G32
 126918241.970 6  98897332.02443  24151738.205    24151737.944
  24151739.933          39.000          23.0004
 108904359.061 8  84860541.559 9  20723809.442    20723809.464    20723812.801
  20723813.266          53.500          55.000
 116850875.292 7  91052628.010 8  22235980.211    22235980.378    22235985.121
  22235984.979          46.000          48.000
 113544785.580 8  88476460.77947  21606854.542    21606854.094
  21606855.743          49.500          43.0004
 123450768.431 7  96195403.116 7  23491901.205    23491900.434    23491905.630
  23491905.962          42.250          43.750
 106521345.104 8  83003653.62647  20270337.498    20270336.731
  20270338.282          49.250          45.5004
 117548805.988 7  91596467.293 8  22368794.041    22368793.797    22368797.830
  22368797.872          47.500          48.750
 126043450.310 7  98215673.176 6  23985270.307    23985270.298    23985270.261
  23985270.085          44.500          37.500
 115220130.680 8  89781919.926 8  21925662.028    21925662.545    21925666.165
  21925666.404          48.750          49.750
 20  1  4  2 13  0.0000000  0  9G14G10G24G21G08G20G27G15G32
 126816258.259 6  98817864.17843  24132330.811    24132331.214
  24132332.731          38.500          22.5004
 108878491.120 8  84840384.732 9  20718886.813    20718886.916    20718890.202
  20718890.759          53.750          55.000
 116829555.276 7  91036015.011 7  22231923.314    22231923.689    22231927.792
  22231927.756          47.000          47.750
 113599967.462 8  88519459.63847  21617355.553    21617354.987
  21617356.197          49.250          42.7504
 123417511.101 7  96169488.315 7  23485571.599    23485571.903    23485576.271
  23485575.918          42.000          43.500
 106544255.991 8  83021506.25847  20274697.372    20274696.703
  20274698.113          49.500          45.2504
 117577766.047 7  91619033.572 8  22374305.089    22374304.625    22374308.738
  22374308.672          47.500          48.500
 126151497.412 7  98299865.631 6  24005830.517    24005830.543    24005830.853
  24005830.768          43.500          38.750
 115137463.595 8  89717504.017 8  21909931.201    21909931.672    21909935.048
  21909935.368          49.250          49.750
 20  1  4  2 13 30.0000000  0  9G14G10G24G21G08G20G27G15G32
 126714427.285 6  98738515.37243  24112953.231    24112953.246
  24112955.923          39.750          23.2504
 108852880.298 8  84820428.247 9  20714013.242    20714013.434    20714016.547
  20714017.165          53.250          55.000
 116808826.477 7  91019862.709 8  22227979.211    22227978.893    22227983.777
  22227983.161          47.500          48.000
 113655518.098 8  88562745.84047  21627926.378    21627925.941
  21627927.326          48.750          42.7504
 123384801.254 7  96144000.116 7  23479347.830    23479347.700    23479352.331
  23479351.596          43.250          43.750
 106567472.626 8  83039597.13947  20279115.016    20279114.502
  20279116.125          49.250          45.2504
 117607289.200 7  91642038.617 8  22379923.396    22379922.891    22379926.662
  22379926.721          47.500          48.250
 126259647.778 7  98384138.633 6  24026410.617    24026410.962    24026412.256
  24026411.312          43.250          39.000
 115055128.961 8  89653347.162 8  21894263.314    21894263.634    21894267.568
  21894267.650          48.250          49.750
 20  1  4  2 14  0.0000000  0  9G14G10G24G21G08G20G27G15G32
 126612750.495 6  98659286.69443  24093605.368    24093604.997
  24093607.681          38.750          22.7504
 108827527.101 8  84800672.513 9  20709188.709    20709188.664    20709192.101
  20709192.613          53.250          55.250
 116788690.250 7  91004172.143 7  22224147.586    22224147.221    22224151.314
  22224151.544          47.750          47.750
 113711437.307 8  88606319.24247  21638567.578    21638566.921
  21638568.365          49.250          43.0004
 123352640.153 7  96118939.508 7  23473227.338    23473226.981    23473232.088
  23473231.705          42.500          43.250
 106590995.257 8  83057926.45647  20283591.548    20283590.636
  20283592.387          49.750          45.2504
 117637374.191 7  91665481.473 8  22385648.280    22385648.167    22385651.569
  22385651.656          47.250          48.500
 126367899.539 7  98468490.592 6  24047010.121    24047010.322    24047010.607
  24047010.988          42.500          38.250
 114973128.409 8  89589450.633 8  21878659.320    21878659.656    21878663.312
  21878663.560          49.250          50.000
 20  1  4  2 14 30.0000000  0  9G14G10G24G21G08G20G27G15G32
 126511230.673 6  98580180.35144  24074286.647    24074286.167
  24074288.154          39.750          24.2504
 108802432.575 8  84781118.338 9  20704413.378    20704413.408    20704416.751
  20704417.294          53.000          55.250
 116769148.358 7  90988944.682 8  22220428.603    22220428.740    22220433.219
  22220433.384          47.750          48.250
 113767725.085 8  88650179.83747  21649278.702    21649278.001
  21649279.492          49.000          42.5004
 123321029.319 7  96094307.685 7  23467212.278    23467212.442    23467216.962
  23467216.256          43.500          43.500
 106614824.674 8  83076494.82747  20288126.018    20288125.256
  20288126.994          49.500          45.5004
 117668020.264 7  91689361.528 8  22391479.951    22391479.654    22391483.527
  22391483.477          47.250          48.500
 126476251.346 7  98552920.520 6  24067629.389    24067629.149    24067630.470
  24067630.449          43.750          39.750
 114891464.184 8  89525816.170 8  21863118.970    21863119.437    21863122.622
  21863123.091          49.250          49.250
 20  1  4  2 15  0.0000000  0  9G14G10G24G21G08G20G27G15G32
 126409869.300 6  98501197.48243  24054997.984    24054997.832
  24055000.303          38.750          23.7504
 108777596.524 8  84761765.568 9  20699687.252    20699687.290    20699690.738
  20699691.165          53.750          55.000
 116750202.027 7  90974181.311 8  22216823.644    22216823.298    22216827.541
  22216827.627          47.500          48.250
 113824380.317 8  88694326.76847  21660059.701    21660059.088
  21660060.906          48.500          42.2504
 123289969.362 7  96070105.123 7  23461301.281    23461301.468    23461306.254
  23461306.861          43.000          43.500
 106638960.013 8  83095301.58747  20292718.816    20292718.039
  20292719.685          49.500          45.2504
 117699225.391 7  91713677.194 8  22397418.052    22397417.881    22397421.902
  22397421.602          47.250          48.750
 126584700.497 7  98637426.310 6  24088265.426    24088266.004    24088266.018
  24088267.326          42.250          39.000
 114810137.219 8  89462444.499 8  21847642.908    21847643.302    21847647.394
  21847647.319          49.250          50.000
 20  1  4  2 15 30.0000000  0  9G14G10G24G21G08G20G27G15G32
 126308668.456 6  98422339.70043  24035740.202    24035740.326
  24035741.229          38.000          23.0004
 108753019.725 8  84742614.817 9  20695010.445    20695010.594    20695013.945
  20695014.325          53.750          55.000
 116731852.800 7  90959883.226 8  22213331.233    22213331.320    22213335.939
  22213336.175          47.000          48.000
 113881403.059 8  88738760.07147  21670911.096    21670910.343
  21670912.085          48.500          42.2504
 123259461.711 7  96046332.923 7  23455496.346    23455496.587    23455500.610
  23455500.963          43.500          43.750
 106663401.958 8  83114347.25247  20297369.909    20297369.191
  20297370.941          49.500          45.2504
 117730988.521 7  91738427.686 8  22403462.297    22403462.354    22403465.964
  22403465.990          47.250          48.750
 126693245.321 7  98722006.641 6  24108921.887    24108921.602    24108923.935
  24108922.318          43.500          40.500
 114729149.450 8  89399337.146 8  21832231.500    21832232.022    21832235.520
  21832235.656          49.500          50.000
 20  1  4  2 16  0.0000000  0  9G14G10G24G21G08G20G27G15G32
 126207628.885 6  98343607.54343  24016513.380    24016512.506
  24016515.040          39.750          23.7504
 108728701.707 8  84723665.705 9  20690382.889    20690383.016    20690386.359
  20690386.740          53.500          55.250
 116714100.976 7  90946050.640 7  22209953.146    22209953.353    22209957.392
  22209957.850          47.750          47.750
 113938791.922 8  88783478.66147  21681831.860    21681831.197
  21681832.701          49.000          42.5004
 123229506.043 7  96022990.845 7  23449796.014    23449795.601    23449800.319
  23449800.754          43.250          44.000
 106688149.498 8  83133631.04947  20302078.858    20302078.552
  20302080.146          49.500          45.2504
 117763307.310 7  91763611.144 8  22409612.425    22409612.139    22409616.146
  22409616.264          46.750          49.000
 126801882.766 7  98806659.173 6  24129594.636    24129595.117    24129596.455
  24129595.734          43.500          39.500
 114648501.480 8  89336494.575 8  21816884.700    21816885.111    21816889.044
  21816888.948          49.500          50.000
 20  1  4  2 16 30.0000000  0  9G14G10G24G21G08G20G27G15G32
 126106752.924 6  98265002.88343  23997317.794    23997316.572
  23997318.548          39.750          22.7504
 108704643.107 8  84704918.746 9  20685804.601    20685804.762    20685808.198
  20685808.508          53.250          55.000
 116696947.991 7  90932684.681 7  22206688.996    22206689.169    22206693.284
  22206693.872          47.500          47.750
 113996546.657 8  88828482.33947  21692821.891    21692821.305
  21692822.900          48.250          42.2504
 123200104.057 7  96000080.201 7  23444200.816    23444200.822    23444206.083
  23444205.569          43.000          43.750
 106713203.147 8  83153153.37147  20306846.655    20306845.921
  20306847.657          49.750          45.2504
 117796180.521 7  91789226.624 8  22415867.609    22415867.755    22415871.673
  22415871.839          46.750          49.000
 126910611.072 7  98891382.481 6  24150284.503    24150284.736    24150286.007
  24150285.779          42.750          39.000
 114568195.096 8  89273918.156 8  21801602.630    21801603.120    21801607.340
  21801607.229          49.250          50.000
 20  1  4  2 17  0.0000000  0  9G14G10G24G21G08G20G27G15G32
 126006042.378 6  98186527.13643  23978152.148    23978151.366
  23978153.821          38.500          22.5004
 108680844.546 8  84686374.409 9  20681275.848    20681276.078    20681279.433
  20681279.915          53.500          55.250
 116680395.547 7  90919786.667 7  22203539.960    22203539.493    22203543.488
  22203543.702          47.500          47.750
 114054666.740 8  88873770.70747  21703881.976    21703881.322
  21703883.158          48.250          42.2504
 123171256.833 7  95977601.843 7  23438711.712    23438711.035    23438716.946
  23438716.244          43.000          44.500
 106738562.882 8  83172914.19347  20311672.361    20311671.759
  20311673.501          49.250          45.2504
 117829606.833 7  91815273.078 8  22422228.924    22422228.852    22422232.756
  22422232.425          47.000          48.750
 127019428.352 7  98976175.148 6  24170992.435    24170992.766    24170993.577
  24170993.736          44.000          38.250
 114488231.974 8  89211609.241 8  21786386.297    21786386.894    21786390.611
  21786390.711          49.750          49.750
