     2.11           OBSERVATION DATA    G (GPS)             RINEX VERSION / TYPE
teqc  2018Jun8                          20200105 01:12:02UTCPGM / RUN BY / DATE
Linux 2.4.20-8|x86|gcc -static|Linux 32|=+                  COMMENT
BIT 2 OF LLI FLAGS DATA COLLECTED UNDER A/S CONDITION       COMMENT
POL2                                                        MARKER NAME
GGN                 JPL                                     OBSERVER / AGENCY
02563                 Javad Delta-3             1s jps      REC # / TYPE / VERS
383-1030            TPSCR.G3                                ANT # / TYPE
  1239971.4511  4530790.0876  4302578.7950                  APPROX POSITION XYZ
        0.0780        0.0000        0.0000                  ANTENNA: DELTA H/E/N
     1     1                                                WAVELENGTH FACT L1/2
     8    L1    L2    C1    P1    C2    P2    S1    S2      # / TYPES OF OBSERV
    30.0000                                                 INTERVAL
Forced Modulo Decimation to 30 seconds                      COMMENT
 SNR is mapped to RINEX snr flag value [0-9]                COMMENT
  L1 & L2: min(max(int(snr_dBHz/6), 0), 9)                  COMMENT
teqc edited: all GLONASS satellites excluded                COMMENT
teqc edited: all SBAS satellites excluded                   COMMENT
teqc edited: all Galileo satellites excluded                COMMENT
teqc edited: all Beidou satellites excluded                 COMMENT
teqc edited: all QZSS satellites excluded                   COMMENT
teqc edited: all IRNSS satellites excluded                  COMMENT
pseudorange smoothing corrections not applied               COMMENT
  2020     1     5     0     0    0.0000000     GPS         TIME OF FIRST OBS
                                                            END OF HEADER
 20  1  5  0  0  0.0000000  0 10G26G16G05G29G10G27G21G20G15G13
 128799109.937 6 100362946.183 6  24509656.727    24509656.140    24509661.665
  24509661.433          36.750          40.500
 126292874.671 6  98410030.88544  24032734.307    24032735.592
  24032735.523          37.000          24.5004
 131066180.151 7 102129491.160 6  24941063.833    24941064.028    24941065.885
  24941064.979          43.250          40.000
 115362229.492 8  89892644.134 8  21952699.536    21952699.423    21952700.298
  21952700.247          48.750          48.000
 123490290.833 7  96226203.600 7  23499420.705    23499420.823    23499424.870
  23499425.061          42.250          45.750
 128575025.127 6 100188334.214 6  24467014.599    24467014.206    24467017.051
  24467017.325          41.250          40.500
 111160284.130 7  86618404.23447  21153095.716    21153094.921
  21153095.827          47.250          46.0004
 110902540.602 7  86417564.48647  21104049.862    21104049.302
  21104050.811          46.500          42.7504
 108892630.429 8  84851403.383 8  20721577.386    20721577.517    20721578.282
  20721578.201          51.250          52.000
 117053431.385 7  91210471.20046  22274526.039    22274526.123
  22274527.052          47.750          36.0004
 20  1  5  0  0 30.0000000  0 10G26G16G05G29G10G27G21G20G15G13
 128862222.345 6 100412124.681 7  24521667.010    24521667.275    24521671.559
  24521672.309          37.250          42.500
 126324291.148 6                  24038713.433
                        36.000
 131166990.775 7 102208044.897 6  24960246.929    24960247.194    24960248.124
  24960246.871          42.250          38.000
 115455621.312 8  89965416.983 8  21970471.216    21970471.016    21970472.210
  21970472.233          48.000          48.000
 123405542.845 7  96160166.215 7  23483293.521    23483294.008    23483297.599
  23483298.115          42.750          45.750
 128476211.689 6 100111336.744 6  24448210.617    24448211.043    24448213.965
  24448213.309          41.500          40.000
 111131548.078 7  86596012.50747  21147627.413    21147626.586
  21147627.511          46.750          45.7504
 110845974.717 7  86373487.15747  21093286.370    21093285.613
  21093286.516          47.500          43.2504
 108893219.236 8  84851862.201 8  20721689.564    20721689.634    20721690.542
  20721690.279          51.500          52.250
 117097263.525 7  91244626.10746  22282867.317    22282867.199
  22282868.132          47.750          36.0004
 20  1  5  0  1  0.0000000  0  9G26G05G29G10G27G21G20G15G13
 128925616.507 6 100461522.715 6  24533731.027    24533730.196    24533734.604
  24533735.453          36.250          41.250
 131267778.025 6 102286580.384 6  24979425.418    24979425.579    24979425.984
  24979425.826          40.500          37.750
 115549365.141 7  90038464.110 7  21988309.557    21988309.780    21988311.562
  21988311.386          47.750          47.750
 123320980.506 7  96094273.501 7  23467202.176    23467202.739    23467205.891
  23467206.440          42.750          46.250
 128377639.525 6 100034527.287 6  24429453.378    24429453.373    24429456.067
  24429455.498          41.500          39.750
 111103027.381 7  86573788.58647  21142199.922    21142199.315
  21142200.282          47.750          46.2504
 110789706.372 7  86329641.72647  21082578.453    21082577.624
  21082579.432          46.750          43.0004
 108894458.354 8  84852827.752 8  20721925.321    20721925.427    20721925.972
  20721926.034          51.250          52.250
 117141669.403 8  91279228.10746  22291317.425    22291317.189
  22291317.996          48.250          36.0004
 20  1  5  0  1 30.0000000  0  8G05G29G10G27G21G20G15G13
 131368542.510 6 102365098.140 5  24998599.746    24998599.909    24998601.426
  24998600.798          39.500          35.250
 115643461.071 8  90111785.606 8  22006215.983    22006216.092    22006217.376
  22006217.097          48.750          48.250
 123236606.353 7  96028527.402 7  23451146.356    23451146.436    23451150.508
  23451150.150          42.000          46.000
 128279313.310 6  99957909.464 6  24410742.527    24410741.609    24410745.075
  24410744.822          41.000          39.250
 111074725.186 7  86551734.92547  21136814.176    21136813.612
  21136814.552          47.000          46.0004
 110733738.692 7  86286030.53547  21071928.585    21071927.768
  21071928.805          46.750          43.5004
 108896349.293 8  84854301.211 8  20722285.033    20722285.223    20722286.136
  20722285.835          50.500          52.250
 117186649.627 8  91314277.62246  22299876.923    22299876.910
  22299877.448          48.250          36.0004
 20  1  5  0  2  0.0000000  0  8G05G29G10G27G21G20G15G13
 131469278.488 6 102443593.686 6  25017769.469    25017769.752    25017770.589
  25017770.055          38.750          39.750
 115737901.558 8  90185375.587 8  22024187.213    22024187.281    22024188.527
  22024188.568          48.250          48.250
 123152415.991 7  95962924.536 7  23435125.354    23435125.861    23435129.198
  23435130.305          42.250          46.500
 128181230.625 6  99881481.410 6  24392077.311    24392077.057    24392080.192
  24392080.473          40.750          39.500
 111046637.667 7  86529848.55547  21131469.451    21131468.687
  21131469.699          46.750          46.2504
 110678066.617 7  86242649.72647  21061333.855    21061333.391
  21061335.092          46.750          43.5004
 108898887.110 8  84856278.733 8  20722768.126    20722768.161    20722769.275
  20722769.046          50.000          52.500
 117232197.543 8  91349769.52846  22308544.439    22308544.229
  22308545.034          48.500          36.0004
 20  1  5  0  2 30.0000000  0  9G26G05G29G10G27G21G20G15G13
 129117464.359 6                  24570237.023
                        36.250
 131569986.235 6 102522067.238 6  25036934.946    25036934.364    25036934.510
  25036934.547          41.250          39.750
 115832685.743 7  90259233.391 7  22042224.248    22042223.888    22042225.455
  22042225.078          47.500          47.500
 123068411.695 6  95897466.638 7  23419140.183    23419139.800    23419143.417
  23419143.835          41.750          46.000
 128083395.846 6  99805246.517 6  24373460.082    24373459.611    24373463.840
  24373462.912          40.250          40.250
 111018767.369 7  86508131.43747  21126165.635    21126165.198
  21126166.156          46.500          46.0004
 110622692.351 7  86199500.93647  21050797.101    21050796.213
  21050797.557          47.000          43.5004
 108902072.972 8  84858761.228 8  20723374.287    20723374.279    20723375.326
  20723375.325          50.500          52.250
 117278313.129 7  91385703.75245  22317319.182    22317319.704
  22317320.774          47.500          35.2504
 20  1  5  0  3  0.0000000  0  9G26G05G29G10G27G21G20G15G13
 129181951.586 6 100661269.511 6  24582508.762    24582509.362    24582513.994
  24582514.722          36.250          38.500
 131670666.418 6 102600519.287 6  25056093.044    25056093.586    25056092.912
  25056092.219          40.750          38.250
 115927812.777 8  90333358.340 8  22060325.904    22060326.196    22060328.103
  22060327.434          48.000          48.000
 122984595.689 7  95832155.472 7  23403189.927    23403190.489    23403193.772
  23403194.345          42.000          46.000
 127985813.259 6  99729208.143 6  24354890.916    24354890.241    24354893.792
  24354894.842          40.500          41.000
 110991116.947 7  86486585.65347  21120904.089    21120903.511
  21120904.488          47.250          46.0004
 110567617.496 7  86156585.49347  21040316.384    21040315.546
  21040316.933          46.750          43.2504
 108905908.314 8  84861749.804 8  20724104.014    20724104.204    20724105.125
  20724105.194          50.750          52.250
 117324996.284 7  91422080.23745  22326202.790    22326203.244
  22326203.851          47.500          35.2504
 20  1  5  0  3 30.0000000  0  8G05G29G10G27G21G20G15G13
 131771316.286 6 102678947.737 6  25075245.352    25075245.397    25075247.389
  25075246.906          38.750          40.250
 116023278.550 7  90407747.252 7  22078492.722    22078492.643    22078494.100
  22078493.924          47.750          47.750
 122900966.862 6  95766990.168 7  23387276.085    23387276.339    23387279.826
  23387279.742          41.250          46.000
 127888483.918 6  99653367.115 7  24336369.568    24336369.554    24336372.952
  24336374.200          41.500          42.250
 110963685.921 8  86465210.82947  21115684.311    21115683.583
  21115684.576          48.000          46.0004
 110512840.721 7  86113902.27447  21029892.683    21029892.078
  21029893.279          47.000          43.5004
 108910390.994 8  84865242.811 8  20724957.247    20724957.266    20724958.207
  20724958.137          50.750          52.500
 117372243.462 8  91458896.21445  22335194.144    22335193.766
  22335194.789          48.000          35.2504
 20  1  5  0  4  0.0000000  0  8G05G29G10G27G21G20G15G13
 131871935.161 6 102757352.068 6  25094393.072    25094394.529    25094394.093
  25094394.251          41.000          40.750
 116119081.131 7  90482398.603 8  22096723.341    22096723.366    22096725.052
  22096724.810          47.500          48.000
 122817526.323 7  95701971.558 7  23371398.410    23371398.442    23371401.424
  23371401.989          42.500          46.000
 127791410.881 7  99577725.781 7  24317896.961    24317897.594    24317901.063
  24317900.147          42.250          42.250
 110936475.543 7  86444007.93447  21110506.241    21110505.583
  21110506.422          47.750          46.0004
 110458362.110 7  86071451.44647  21019525.849    21019524.880
  21019526.323          45.750          43.5004
 108915521.021 8  84869240.245 8  20725933.237    20725933.413    20725934.318
  20725934.211          50.750          52.000
 117420053.588 7  91496150.86845  22344292.140    22344292.006
  22344292.640          47.750          35.0004
 20  1  5  0  4 30.0000000  0  9G16G05G29G10G27G21G20G15G13
 126593902.789 6  98644596.07944  24090018.044    24090018.208
  24090018.607          37.500          24.2504
 131972522.981 6 102835732.116 6  25113533.682    25113534.193    25113534.886
  25113534.869          40.750          38.250
 116215218.801 8  90557311.068 7  22115018.096    22115017.925    22115019.159
  22115019.024          48.250          47.750
 122734275.450 7  95637100.757 7  23355555.826    23355556.558    23355559.508
  23355559.645          42.000          46.000
 127694597.682 7  99502286.920 7  24299474.795    24299474.021    24299477.962
  24299477.469          42.500          43.000
 110909487.114 7  86422977.99247  21105370.308    21105369.796
  21105370.747          47.750          46.0004
 110404183.813 7  86029234.56447  21009216.217    21009215.459
  21009216.616          46.750          43.5004
 108921299.107 8  84873742.654 8  20727032.750    20727033.086    20727033.802
  20727033.824          50.750          51.750
 117468425.657 7  91533843.38845  22353497.134    22353497.219
  22353497.895          47.750          34.7504
 20  1  5  0  5  0.0000000  0  9G16G05G29G10G27G21G20G15G13
 126629858.051 6  98672613.14344  24096860.794    24096859.415
  24096860.985          37.000          24.7504
 132073077.218 7 102914086.056 6  25132668.970    25132669.304    25132669.193
  25132669.778          42.500          39.000
 116311687.793 8  90632481.712 7  22133375.248    22133375.071    22133376.638
  22133376.314          48.000          47.500
 122651213.274 7  95572376.998 7  23339750.207    23339749.807    23339752.990
  23339753.551          42.250          46.000
 127598045.450 7  99427051.414 7  24281100.790    24281100.914    24281104.695
  24281104.138          42.000          43.000
 110882721.160 7  86402121.41047  21100277.248    21100276.497
  21100277.314          47.750          46.0004
 110350304.469 7  85987250.69347  20998963.099    20998962.350
  20998963.759          46.000          43.7504
 108927723.339 8  84878748.549 8  20728255.259    20728255.569    20728256.419
  20728256.218          51.000          52.500
 117517356.468 8  91571971.29945  22362808.391    22362808.017
  22362808.627          48.000          35.0004
 20  1  5  0  5 30.0000000  0  8G05G29G10G27G21G20G15G13
 132173598.795 6 102992414.525 6  25151796.887    25151797.364    25151797.979
  25151797.408          39.500          36.000
 116408487.579 7  90707910.122 7  22151795.369    22151795.575    22151796.860
  22151796.771          47.500          47.500
 122568342.396 7  95507802.284 7  23323979.921    23323980.286    23323983.371
  23323983.738          42.750          46.500
 127501758.844 6  99352022.889 7  24262778.021    24262777.959    24262781.572
  24262782.109          41.500          42.750
 110856179.888 8  86381439.90147  21095226.435    21095225.861
  21095226.753          48.500          46.2504
 110296726.327 7  85945501.48147  20988767.481    20988766.722
  20988768.120          47.000          43.5004
 108934794.871 8  84884258.839 8  20729601.004    20729600.997    20729602.546
  20729601.972          51.500          52.500
 117566845.508 8  91610534.19245  22372225.903    22372225.070
  22372226.335          48.000          34.7504
 20  1  5  0  6  0.0000000  0  8G05G29G10G27G21G20G15G13
 132274086.243 6 103070716.433 6  25170920.361    25170920.238    25170922.191
  25170920.676          40.750          37.750
 116505615.233 7  90783593.989 7  22170278.182    22170278.314    22170279.838
  22170279.956          47.250          47.500
 122485662.844 6  95443376.674 7  23308246.524    23308246.420    23308249.935
  23308250.407          41.500          46.000
 127405740.027 6  99277203.029 7  24244506.461    24244506.278    24244509.717
  24244509.945          41.500          42.500
 110829863.975 8  86360934.00047  21090218.646    21090217.995
  21090218.801          48.250          46.0004
 110243448.927 7  85903986.64947  20978629.380    20978628.592
  20978629.884          47.000          44.2504
 108942512.930 8  84890272.921 8  20731069.485    20731069.689    20731070.938
  20731070.823          51.250          52.250
 117616891.413 7  91649531.01545  22381749.200    22381748.790
  22381749.883          47.250          34.7504
 20  1  5  0  6 30.0000000  0  9G16G05G29G10G27G21G20G15G13
 126740684.715 6  98758978.88043  24117950.896    24117950.274
  24117950.557          36.750          22.5004
 132374538.031 6 103148990.580 6  25190035.328    25190034.843    25190035.289
  25190036.390          40.000          36.000
 116603067.945 7  90859531.158 7  22188822.893    22188822.802    22188824.017
  22188824.278          47.000          47.000
 122403174.923 6  95379100.374 7  23292549.161    23292549.490    23292552.814
  23292553.255          41.750          45.500
 127309991.455 6  99202593.764 7  24226285.936    24226286.610    24226289.175
  24226289.293          41.500          42.250
 110803774.536 8  86340604.57147  21085254.047    21085253.523
  21085254.395          48.500          46.0004
 110190472.287 7  85862706.15147  20968547.771    20968547.069
  20968548.620          46.250          43.7504
 108950876.685 8  84896790.142 8  20732661.177    20732661.332    20732662.530
  20732662.220          51.750          52.500
 117667491.876 7  91688959.93545  22391377.890    22391378.301
  22391379.050          47.000          34.5004
 20  1  5  0  7  0.0000000  0  9G26G05G29G10G27G21G20G15G13
 129707244.965 6                  24682468.337
                        36.250
 132474953.394 6 103227236.266 6  25209143.366    25209143.841    25209144.360
  25209144.450          39.250          36.500
 116700843.154 7  90935719.626 7  22207429.111    22207428.701    22207430.444
  22207430.164          47.500          47.250
 122320879.274 7  95314973.901 7  23276888.863    23276888.850    23276892.076
  23276892.574          42.000          45.750
 127214515.864 6  99128197.188 7  24208117.553    24208117.932    24208121.067
  24208120.902          41.000          42.250
 110777912.291 8  86320452.17147  21080332.620    21080332.038
  21080332.865          49.250          46.0004
 110137796.499 8  85821660.09447  20958524.220    20958523.518
  20958524.785          48.000          44.0004
 108959885.820 8  84903810.256 8  20734375.400    20734375.581    20734377.108
  20734376.657          51.750          52.750
 117718644.996 7  91728819.51045  22401112.173    22401111.848
  22401112.997          47.750          34.7504
 20  1  5  0  7 30.0000000  0  9G16G05G29G10G27G21G20G15G13
 126817024.119 6  98818453.20343  24132476.373    24132476.016
  24132476.258          37.000          23.0004
 132575331.863 6 103305453.291 5  25228244.577    25228245.009    25228242.724
  25228244.908          38.750          33.250
 116798939.118 7  91012158.024 7  22226095.905    22226095.967    22226097.370
  22226097.356          47.500          47.250
 122238777.097 7  95250998.187 7  23261265.737    23261265.855    23261268.995
  23261270.303          42.500          46.750
 127119316.560 6  99054015.913 7  24190001.984    24190001.273    24190004.683
  24190004.879          40.750          42.000
 110752279.189 8  86300478.32447  21075454.646    21075454.075
  21075454.884          48.750          46.2504
 110085422.957 7  85780849.54047  20948557.579    20948556.804
  20948558.554          47.750          44.0004
 108969540.074 8  84911333.055 8  20736212.881    20736213.045    20736213.561
  20736213.698          52.250          52.000
 117770349.422 7  91769108.68045  22410950.930    22410950.871
  22410952.025          47.250          35.0004
 20  1  5  0  8  0.0000000  0  9G16G05G29G10G27G21G20G15G13
 126855919.311 6  98848761.17144  24139878.579    24139877.888
  24139878.668          36.750          24.2504
 132675671.420 6 103383639.900 5  25247339.020    25247340.098    25247338.508
  25247339.739          38.750          35.500
 116897352.275 7  91088843.601 7  22244823.431    22244823.237    22244824.655
  22244824.336          47.500          47.000
 122156867.716 7  95187172.714 7  23245678.783    23245678.841    23245681.945
  23245682.809          43.000          46.750
 127024395.031 6  98980051.106 7  24171938.868    24171937.970    24171941.339
  24171942.021          40.750          42.000
 110726874.858 8  86280682.74947  21070620.497    21070619.873
  21070620.812          49.500          46.0004
 110033350.551 7  85740273.65747  20938648.967    20938648.104
  20938649.278          47.750          44.5004
 108979838.016 8  84919357.422 8  20738172.581    20738172.629    20738173.404
  20738173.308          52.750          52.000
 117822602.135 7  91809825.06845  22420894.386    22420894.632
  22420895.262          47.000          34.5004
 20  1  5  0  8 30.0000000  0  9G16G05G29G10G27G21G20G15G13
 126895295.664 6  98879443.98544  24147371.381    24147370.878
  24147371.777          36.750          24.0004
 132775970.316 6 103461794.893 5  25266425.707    25266424.767    25266424.540
  25266425.597          37.750          33.250
 116996079.244 7  91165773.700 7  22263610.412    22263610.496    22263611.756
  22263611.895          47.750          46.750
 122075151.043 7  95123497.389 7  23230128.449    23230128.913    23230132.576
  23230133.056          43.500          46.750
 126929753.211 6  98906304.255 7  24153929.317    24153928.765    24153932.857
  24153932.190          41.500          42.250
 110701699.780 8  86261065.81047  21065829.818    21065829.098
  21065830.066          49.000          46.0004
 109981578.819 7  85699932.04247  20928797.084    20928796.072
  20928797.403          47.750          44.0004
 108990778.285 8  84927882.307 8  20740254.115    20740254.461    20740255.204
  20740255.114          52.500          52.250
 117875400.562 7  91850966.69345  22430942.096    22430941.883
  22430942.777          47.500          35.0004
 20  1  5  0  9  0.0000000  0  9G16G05G29G10G27G21G20G15G13
 126935152.941 6  98910501.62843  24154955.531    24154955.413
  24154956.380          37.000          23.5004
 132876229.651 6 103539919.039 6  25285504.074    25285503.906    25285505.837
  25285505.473          38.500          36.750
 117095119.767 8  91242948.138 7  22282457.345    22282457.567    22282458.653
  22282458.729          48.000          46.750
 121993629.649 7  95059974.247 7  23214615.215    23214615.342    23214619.387
  23214619.503          42.250          46.500
 126835395.962 7  98832779.129 7  24135974.230    24135973.421    24135976.964
  24135976.807          42.250          42.750
 110676756.351 8  86241629.37347  21061083.244    21061082.601
  21061083.567          49.750          46.0004
 109930110.000 7  85659826.46647  20919002.672    20919001.965
  20919003.444          47.750          44.2504
 109002362.319 8  84936908.825 8  20742458.952    20742458.771    20742459.558
  20742459.437          53.000          52.000
 117928744.844 7  91892533.69045  22441092.835    22441092.924
  22441093.140          46.750          34.7504
 20  1  5  0  9 30.0000000  0  8G16G29G10G27G21G20G15G13
 126975488.473 6  98941931.87743  24162631.097    24162630.555
  24162631.875          37.750          23.2504
 117194469.733 7  91320363.696 7  22301363.084    22301363.219    22301364.179
  22301364.364          47.500          47.250
 121912303.004 7  94996602.851 7  23199139.751    23199139.657    23199142.463
  23199143.015          43.000          45.500
 126741324.820 7  98759476.948 7  24118072.476    24118072.931    24118075.963
  24118076.190          42.500          43.750
 110652044.677 8  86222373.52347  21056380.918    21056380.234
  21056381.010          49.250          46.0004
 109878943.418 8  85619956.40247  20909265.822    20909265.338
  20909266.533          48.250          44.2504
 109014588.387 8  84946435.634 8  20744785.076    20744785.457    20744786.121
  20744786.133          53.250          52.250
 117982632.044 7  91934523.70245  22451347.173    22451347.084
  22451348.035          46.750          34.5004
 20  1  5  0 10  0.0000000  0 10G26G16G05G29G10G27G21G20G15G13
 130111543.456 6 101385621.613 5  24759404.593    24759404.161    24759407.535
  24759408.959          38.750          35.750
 127016299.665 6  98973732.83443  24170397.692    24170396.681
  24170398.458          37.500          23.7504
 133076613.428 6 103696062.013 5  25323636.981                    25323637.967
                        36.500          30.500
 117294127.156 7  91398018.817 7  22320327.147    22320327.307    22320328.869
  22320328.834          47.500          47.500
 121831171.735 7  94933383.679 7  23183700.686    23183701.485    23183704.336
  23183704.591          43.500          46.250
 126647542.581 7  98686399.894 7  24100226.721    24100226.741    24100230.016
  24100229.780          42.500          44.000
 110627566.742 8  86203299.82047  21051722.879    21051722.113
  21051723.033          49.250          46.0004
 109828079.320 8  85580322.03747  20899586.800    20899586.282
  20899587.669          48.500          44.2504
 109027455.602 8  84956462.041 8  20747233.695    20747233.797    20747235.083
  20747234.695          53.500          52.500
 118037060.035 7  91976935.13045  22461704.567    22461704.260
  22461705.191          46.750          34.5004
 20  1  5  0 10 30.0000000  0  9G26G16G29G10G27G21G20G15G13
 130179737.188 6 101438759.571 6  24772379.931    24772380.054    24772385.335
  24772386.583          37.250          41.750
 127057585.083 6  99005903.26143  24178253.139    24178253.758
  24178254.154          38.000          23.7504
 117394090.312 7  91475912.172 7  22339349.804    22339349.391    22339350.967
  22339350.407          47.500          46.750
 121750236.970 7  94870317.654 7  23168299.333    23168299.437    23168302.836
  23168303.581          44.000          46.250
 126554052.474 7  98613550.468 7  24082435.492    24082435.144    24082439.451
  24082439.815          42.500          44.000
 110603324.259 8  86184409.56947  21047109.579    21047108.927
  21047109.949          49.250          46.2504
 109777518.654 8  85540924.11747  20889965.555    20889964.658
  20889966.220          48.500          44.2504
 109040963.929 9  84966988.013 8  20749804.371    20749804.407    20749805.228
  20749805.342          54.250          52.250
 118092027.543 7  92019766.95545  22472164.739    22472164.758
  22472165.305          46.750          34.7504
 20  1  5  0 11  0.0000000  0  9G26G16G29G10G27G21G20G15G13
 130248155.486 6 101492072.506 6  24785400.875    24785400.292    24785404.627
  24785405.574          39.000          41.250
 127099343.161 6  99038441.99444  24186199.232    24186199.057
  24186201.000          37.250          24.0004
 117494356.964 8  91554042.028 7  22358429.734    22358429.452    22358430.748
  22358430.905          48.250          46.250
 121669499.614 7  94807405.431 7  23152936.108    23152936.013    23152938.817
  23152939.167          44.750          46.000
 126460857.625 7  98540931.105 7  24064701.278    24064701.413    24064704.963
  24064705.346          42.250          44.000
 110579318.062 8  86165703.44047  21042541.323    21042540.667
  21042541.514          49.500          46.2504
 109727262.094 8  85501763.17147  20880401.910    20880401.400
  20880402.805          49.000          44.5004
 109055113.320 9  84978013.510 8  20752496.825    20752496.989    20752497.938
  20752497.859          54.000          52.250
 118147533.048 7  92063017.99245  22482726.989    22482726.756
  22482727.830          46.500          34.5004
 20  1  5  0 11 30.0000000  0 10G26G05G16G29G10G27G21G20G15G13
 130316794.156 6 101545557.167 6  24798461.145    24798460.790    24798467.329
  24798467.492          36.750          41.250
 133376876.348 6 103930034.379 5  25380776.389    25380776.491    25380776.856
  25380777.453          36.000          31.750
 127141569.970 6  99071346.03844  24194236.198    24194235.582
  24194236.907          37.500          25.0004
 117594922.850 7  91632405.048 7  22377566.287    22377566.440    22377567.864
  22377567.935          47.750          46.500
 121588958.859 7  94744646.415 7  23137609.395    23137609.572    23137612.836
  23137613.087          44.500          46.250
 126367959.333 6  98468542.824 7  24047022.794    24047022.811    24047026.579
  24047026.580          41.750          43.500
 110555547.845 8  86147181.19147  21038018.033    21038017.407
  21038018.267          49.500          46.2504
 109677308.238 8  85462838.09047  20870896.369    20870895.584
  20870896.534          49.000          44.5004
 109069901.324 9  84989536.629 8  20755311.121    20755311.040    20755312.303
  20755311.900          54.500          52.250
 118203573.084 7  92106685.57745  22493390.925    22493390.803
  22493391.196          46.250          34.5004
 20  1  5  0 12  0.0000000  0  9G26G16G29G10G27G21G20G15G13
 130385650.165 6 101599211.198 6  24811564.514    24811564.546    24811569.055
  24811570.020          38.250          40.500
 127184263.123 6  99104613.38744  24202359.301    24202358.677
  24202360.811          37.000          24.2504
 117695785.511 8  91710999.324 7  22396760.140    22396760.343    22396761.082
  22396761.662          48.500          46.250
 121508615.135 7  94682040.921 7  23122320.068    23122320.157    23122323.577
  23122323.848          43.750          46.250
 126275360.227 6  98396387.683 7  24029402.274    24029402.068    24029405.843
  24029406.152          41.750          44.250
 110532014.271 8  86128843.33247  21033539.881    21033539.216
  21033539.954          49.250          46.2504
 109627657.335 8  85424149.07847  20861447.755    20861447.020
  20861448.272          49.000          44.5004
 109085327.164 9  85001556.761 8  20758246.467    20758246.562    20758247.448
  20758247.250          55.000          52.250
 118260145.570 7  92150768.02245  22504155.642    22504155.936
  22504157.340          45.000          34.2504
 20  1  5  0 12 30.0000000  0  9G26G16G29G10G27G21G20G15G13
 130454723.068 6 101653034.211 6  24824707.943    24824707.847    24824713.909
  24824714.161          37.500          41.500
 127227423.598 6  99138244.90844  24210572.898    24210572.195
  24210574.505          37.000          24.0004
 117796944.824 8  91789824.757 7  22416010.359    22416010.122    22416011.943
  22416011.334          48.500          46.250
 121428471.397 7  94619591.261 7  23107069.754    23107069.383    23107073.241
  23107073.335          44.000          46.500
 126183065.409 7  98324469.653 7  24011839.346    24011838.856    24011843.004
  24011842.510          42.000          44.500
 110508721.067 8  86110692.78947  21029107.209    21029106.579
  21029107.424          49.750          46.2504
 109578312.362 8  85385698.45947  20852058.008    20852057.247
  20852058.496          49.250          44.5004
 109101392.478 9  85014075.186 8  20761303.601    20761303.646    20761304.486
  20761304.399          55.000          52.000
 118317250.817 7  92195265.61045  22515023.133    22515023.175
  22515023.395          46.250          34.2504
 20  1  5  0 13  0.0000000  0 10G26G05G16G29G10G27G21G20G15G13
 130524007.523 6 101707022.074 6  24837893.860    24837893.746    24837898.163
  24837898.324          39.250          41.750
 133676735.730 6 104163687.204 5  25437837.254    25437837.233    25437838.517
  25437837.635          36.000          32.500
 127271046.276 6  99172236.57043  24218873.273    24218873.440
  24218876.000          37.250          23.7504
 117898395.665 8  91868877.353 7  22435315.365    22435315.719    22435316.101
  22435316.385          48.250          45.750
 121348525.724 7  94557295.957 7  23091856.105    23091856.590    23091859.813
  23091860.909          44.250          47.250
 126091075.143 6  98252788.926 7  23994334.056    23994334.345    23994337.571
  23994337.635          41.500          44.500
 110485667.136 8  86092728.68147  21024720.413    21024719.718
  21024720.364          50.000          46.5004
 109529270.838 8  85347484.29947  20842725.482    20842724.820
  20842725.945          49.250          44.2504
 109118093.940 9  85027089.314 8  20764481.632    20764481.796    20764482.755
  20764482.405          54.750          52.250
 118374884.631 7  92240175.07845  22525989.662    22525989.903
  22525990.900          44.500          34.2504
 20  1  5  0 13 30.0000000  0  9G26G16G29G10G27G21G20G15G13
 130593501.356 6 101761173.089 6  24851117.121    24851117.571    24851122.754
  24851122.383          38.750          41.250
 127315129.507 6  99206587.12843  24227262.511    24227261.921
  24227263.931          38.500          23.7504
 118000136.591 8  91948156.005 7  22454676.617    22454676.443    22454677.464
  22454677.549          48.750          45.750
 121268779.440 7  94495156.011 7  23076681.342    23076681.084    23076684.255
  23076684.959          44.750          46.750
 125999392.920 6  98181348.242 7  23976887.792    23976887.262    23976890.645
  23976890.992          41.500          44.250
 110462853.864 8  86074952.10847  21020379.262    21020378.361
  21020379.174          50.000          46.2504
 109480533.675 8  85309507.29147  20833451.100    20833450.383
  20833451.816          49.250          44.5004
 109135431.643 9  85040599.218 8  20767780.961    20767781.070    20767782.079
  20767781.814          55.000          51.750
 118433045.314 7  92285495.10245  22537058.121    22537057.801
  22537059.152          45.500          34.5004
 20  1  5  0 14  0.0000000  0  9G26G16G29G10G27G21G20G15G13
 130663200.986 6 101815484.471 6  24864380.652    24864381.261    24864386.120
  24864385.960          38.500          40.000
 127359670.184 6  99241294.14244  24235738.852    24235737.959
  24235740.811          38.750          25.5004
 118102164.360 7  92027658.141 7  22474091.203    22474091.287    22474093.237
  22474092.971          47.750          46.250
 121189232.412 7  94433171.324 7  23061543.876    23061543.852    23061546.806
  23061547.496          45.250          46.500
 125908020.722 6  98110149.145 7  23959499.867    23959500.075    23959502.671
  23959503.259          41.500          43.500
 110440282.074 8  86057363.69847  21016083.792    21016083.097
  21016083.882          49.750          46.2504
 109432100.777 8  85271767.38047  20824234.659    20824233.974
  20824235.346          49.500          44.5004
 109153403.616 9  85054603.361 8  20771200.762    20771200.852    20771201.961
  20771201.800          54.250          52.000
 118491730.321 7  92331223.68445  22548225.114    22548225.559
  22548226.662          45.500          34.5004
 20  1  5  0 14 30.0000000  0 10G26G16G05G29G10G27G21G20G15G13
 130733104.858 6 101869955.043 6  24877684.073    24877683.202    24877687.527
  24877688.797          37.500          40.500
 127404667.593 6  99276357.06444  24244301.161    24244300.746
  24244303.246          38.250          24.0004
 133976156.165 6                  25494814.622
                        37.500
 118204477.594 8  92107382.724 7  22493561.611    22493561.516    22493562.379
  22493562.680          49.000          46.250
 121109886.415 7  94371343.275 7  23046444.835    23046444.972    23046448.210
  23046448.497          44.750          46.500
 125816962.650 6  98039194.803 7  23942172.528    23942172.884    23942175.404
  23942175.162          41.250          43.500
 110417954.346 8  86039965.46447  21011834.849    21011834.220
  21011835.080          50.250          46.0004
 109383973.436 8  85234265.55947  20815076.164    20815075.603
  20815076.862          49.000          44.2504
 109172010.616 9  85069102.335 8  20774741.522    20774741.744    20774742.930
  20774742.635          54.750          52.250
 118550939.036 7  92377360.34145  22559492.587    22559492.353
  22559493.439          45.000          34.2504
 20  1  5  0 15  0.0000000  0 10G26G16G05G29G10G27G21G20G15G13
 130803208.751 6 101924581.450 6  24891023.598    24891023.397    24891027.597
  24891027.719          37.250          39.500
 127450118.009 6  99311772.94744  24252950.491    24252950.220
  24252950.453          39.750          24.5004
 134075861.200 6 104474697.288 6  25513786.832    25513787.386    25513788.943
  25513788.825          38.500          41.250
 118307072.568 8  92187326.864 7  22513084.843    22513084.638    22513085.905
  22513085.457          49.250          46.000
 121030740.715 7  94309671.328 7  23031383.906    23031384.011    23031387.541
  23031387.269          45.500          47.500
 125726220.043 6  97968486.269 7  23924904.361    23924904.642    23924907.226
  23924907.204          41.750          43.250
 110395870.159 8  86022757.00347  21007632.386    21007631.669
  21007632.601          50.000          46.2504
 109336150.763 8  85197001.14947  20805976.068    20805975.303
  20805976.643          49.500          44.5004
 109191250.408 9  85084094.400 8  20778402.668    20778402.867    20778404.061
  20778403.706          54.500          52.500
 118610667.708 7  92423902.16845  22570858.515    22570857.970
  22570858.875          44.750          34.0004
 20  1  5  0 15 30.0000000  0  9G16G05G29G10G27G21G20G15G13
 127496019.746 6  99347540.53244  24261685.620    24261685.202
  24261687.262          40.000          25.2504
 134175514.296 6 104552349.079 6  25532750.778    25532751.394    25532752.019
  25532751.130          39.250          39.500
 118409946.929 7  92267488.698 7  22532660.423    22532660.457    22532662.084
  22532661.859          47.750          45.750
 120951796.309 7  94248156.207 7  23016361.366    23016361.379    23016364.741
  23016364.605          45.500          46.500
 125635796.107 6  97898026.069 7  23907697.082    23907696.777    23907700.141
  23907700.234          41.000          43.500
 110374030.756 8  86005739.28947  21003476.511    21003475.911
  21003476.702          50.000          46.2504
 109288633.460 8  85159974.68347  20796933.739    20796932.921
  20796934.285          49.500          44.5004
 109211122.415 9  85099579.078 8  20782184.174    20782184.417    20782185.397
  20782185.275          54.250          52.500
 118670915.194 7  92470848.25445  22582323.178    22582322.905
  22582323.712          44.500          33.2504
 20  1  5  0 16  0.0000000  0  9G16G05G29G10G27G21G20G15G13
 127542371.444 6  99383658.73144  24270505.503    24270505.500
  24270507.028          39.750          24.7504
 134275115.772 6 104629960.594 6  25551704.651    25551704.962    25551705.518
  25551705.286          39.500          38.250
 118513099.458 8  92347867.281 7  22552289.911    22552289.934    22552291.016
  22552291.461          48.250          46.000
 120873054.833 7  94186799.226 7  23001377.090    23001377.306    23001380.430
  23001380.950          45.000          47.250
 125545694.682 6  97827817.162 7  23890551.737    23890551.170    23890554.412
  23890555.343          41.500          44.000
 110352438.395 8  85988914.07147  20999367.768    20999367.025
  20999367.744          50.250          46.2504
 109241422.821 8  85123187.17647  20787949.822    20787949.055
  20787950.535          49.250          44.7504
 109231626.698 9  85115556.450 8  20786086.178    20786086.489    20786087.320
  20786087.011          54.750          52.250
 118731680.002 7  92518197.44845  22593885.747    22593885.721
  22593886.910          44.500          33.2504
 20  1  5  0 16 30.0000000  0  9G16G05G29G10G27G21G20G15G13
 127589169.390 6  99420124.64243  24279410.497    24279410.534
  24279412.203          38.500          23.5004
 134374663.376 6 104707530.105 6  25570647.881    25570647.848    25570649.829
  25570649.171          38.500          36.500
 118616525.984 8  92428459.371 7  22571971.615    22571971.595    22571972.712
  22571972.587          48.500          46.000
 120794515.250 7  94125599.572 7  22986431.376    22986431.539    22986434.674
  22986435.925          45.000          47.250
 125455916.884 6  97757860.466 7  23873467.564    23873467.156    23873470.383
  23873470.913          41.250          44.000
 110331093.207 8  85972281.45747  20995305.688    20995305.077
  20995305.873          49.750          46.0004
 109194517.539 8  85086637.62147  20779024.175    20779023.365
  20779024.785          49.250          44.7504
 109252760.927 9  85132024.682 8  20790107.858    20790108.040    20790108.978
  20790108.763          54.250          52.000
 118792958.488 7  92565946.94645  22605547.393    22605547.093
  22605547.959          44.750          33.2504
 20  1  5  0 17  0.0000000  0  8G16G29G10G27G21G20G15G13
 127636411.325 6  99456936.50444  24288400.758    24288400.305
  24288402.552          40.250          25.0004
 118720224.260 7  92509263.215 7  22591704.601    22591704.383    22591705.625
  22591705.820          47.750          45.500
 120716178.350 7  94064557.839 7  22971524.556    22971525.092    22971527.751
  22971528.213          45.500          46.750
 125366465.718 6  97688158.268 7  23856445.247    23856445.089    23856448.918
  23856448.824          41.000          44.750
 110309996.386 8  85955842.38147  20991291.198    20991290.574
  20991291.511          49.750          46.2504
 109147918.060 8  85050326.34147  20770156.452    20770155.866
  20770157.052          49.500          44.7504
 109274524.161 9  85148983.039 8  20794249.219    20794249.467    20794250.304
  20794250.161          54.250          52.250
 118854749.092 7  92614095.45245  22617305.908    22617305.106
  22617306.314          45.000          33.0004
 20  1  5  0 17 30.0000000  0  8G16G29G10G27G21G20G15G13
 127684095.750 6  99494093.19144  24297474.518    24297473.862
  24297475.275          38.750          24.0004
 118824192.320 8  92590277.287 7  22611489.009    22611488.838    22611490.153
  22611490.103          48.250          45.000
 120638045.388 7  94003675.027 7  22956656.280    22956656.033    22956659.064
  22956660.336          45.750          46.750
 125277344.605 7  97618713.249 7  23839486.098    23839486.055    23839489.946
  23839489.395          42.000          44.750
 110289149.569 8  85939598.10747  20987324.246    20987323.581
  20987324.355          50.000          46.2504
 109101625.159 8  85014253.94547  20761347.075    20761346.398
  20761347.884          50.000          44.7504
 109296916.202 9  85166431.384 8  20798510.248    20798510.652    20798511.098
  20798511.213          54.250          51.750
 118917050.239 7  92662641.82645  22629160.937    22629161.054
  22629161.518          45.000          33.2504
 20  1  5  0 18  0.0000000  0  8G16G29G10G27G21G20G15G13
 127732218.579 6  99531591.47144  24306631.915    24306632.536
  24306632.914          40.250          24.5004
 118928426.178 8  92671498.455 7  22631324.500    22631324.555    22631325.178
  22631325.169          49.250          45.750
 120560115.364 7  93942950.349 7  22941826.865    22941826.642    22941830.306
  22941830.724          45.250          47.250
 125188554.768 6  97549526.373 7  23822590.291    23822589.787    23822593.721
  23822593.298          41.500          44.750
 110268552.277 8  85923548.26247  20983404.803    20983404.095
  20983404.884          49.750          46.0004
 109055637.704 8  84978419.58547  20752596.037    20752595.430
  20752596.498          49.500          44.7504
 109319934.353 9  85184367.605 8  20802890.530    20802890.703    20802891.325
  20802891.380          54.250          51.750
 118979858.316 7  92711583.17245  22641113.165    22641112.872
  22641113.852          45.250          32.7504
 20  1  5  0 18 30.0000000  0  8G16G29G10G27G21G20G15G13
 127780779.461 6  99569431.10043  24315873.276    24315873.097
  24315873.247          40.000          23.5004
 119032924.941 8  92752926.082 7  22651209.702    22651209.674    22651210.766
  22651210.817          48.500          45.750
 120482390.527 7  93882385.555 7  22927036.179    22927035.917    22927039.395
  22927039.548          45.250          47.250
 125100100.638 7  97480601.085 7  23805757.780    23805757.736    23805761.483
  23805761.275          42.000          45.000
 110248207.327 8  85907695.03647  20979533.346    20979532.511
  20979533.424          50.000          46.0004
 109009957.994 8  84942825.01247  20743903.676    20743902.803
  20743904.103          49.500          44.7504
 109343579.430 9  85202792.345 8  20807390.205    20807390.265    20807390.961
  20807390.895          54.000          51.250
 119043172.717 7  92760919.06945  22653161.085    22653161.070
  22653162.506          44.500          33.0004
 20  1  5  0 19  0.0000000  0  8G16G29G10G27G21G20G15G13
 127829774.693 6  99607609.18344  24325196.172    24325195.838
  24325198.058          39.500          24.0004
 119137685.047 8  92834557.307 7  22671144.598    22671144.318    22671146.296
  22671146.264          48.000          46.000
 120404870.275 7  93821980.170 7  22912284.467    22912284.857    22912287.892
  22912288.583          46.000          47.500
 125011983.810 7  97411938.619 7  23788989.172    23788989.586    23788992.834
  23788993.028          42.000          45.000
 110228114.930 8  85892038.62847  20975709.542    20975709.083
  20975709.913          49.750          46.2504
 108964585.059 8  84907469.48847  20735269.268    20735268.696
  20735269.779          49.750          45.0004
 109367848.690 9  85221703.469 8  20812008.344    20812008.397    20812009.623
  20812009.115          54.000          52.000
 119106990.329 7  92810647.08445  22665305.738    22665305.291
  22665306.765          45.500          33.2504
 20  1  5  0 19 30.0000000  0  8G16G29G10G27G21G20G15G13
 127879201.481 6  99646123.57744  24334602.657    24334601.731
  24334602.953          40.750          24.7504
 119242703.539 7  92916389.887 7  22691128.781    22691129.177    22691130.689
  22691130.089          47.750          45.500
 120327554.768 7  93761734.343 7  22897571.769    22897571.931    22897575.081
  22897575.636          46.000          47.750
 124924206.678 7  97343540.862 7  23772285.543    23772286.030    23772289.485
  23772290.154          42.000          45.000
 110208275.793 8  85876579.56147  20971934.235    20971933.788
  20971934.655          49.500          46.0004
 108919518.732 8  84872352.87247  20726692.947    20726692.645
  20726694.032          49.500          44.7504
 109392741.547 9  85241100.510 8  20816745.369    20816745.445    20816746.425
  20816746.315          54.000          52.000
 119171308.343 7  92860764.99645  22677544.332    22677544.928
  22677546.197          44.750          33.0004
 20  1  5  0 20  0.0000000  0  8G16G29G10G27G21G20G15G13
 127929058.295 6  99684973.03844  24344088.763    24344089.281
  24344090.651          40.250          24.0004
 119347978.914 7  92998422.640 7  22711162.384    22711162.356    22711163.955
  22711163.546          47.750          46.000
 120250445.378 7  93701649.112 7  22882898.180    22882898.504    22882901.884
  22882902.482          45.750          47.750
 124836772.788 7  97275410.566 7  23755648.206    23755647.990    23755651.460
  23755651.357          42.500          45.000
 110188692.062 8  85861319.51747  20968207.693    20968207.070
  20968207.883          49.750          46.0004
 108874760.064 8  84837475.99647  20718176.281    20718175.609
  20718176.856          50.000          45.0004
 109418257.213 9  85260982.853 8  20821600.915    20821601.050    20821601.895
  20821601.696          54.000          51.750
 119236125.638 7  92911271.99845  22689879.028    22689878.184
  22689880.208          45.500          32.7504
 20  1  5  0 20 30.0000000  0  9G16G29G10G27G26G21G20G15G13
 127979342.890 6  99724155.81944  24353658.549    24353657.886
  24353658.918          40.750          24.5004
 119453508.425 7  93080653.418 7  22731243.693    22731243.675    22731245.075
  22731245.257          47.000          45.500
 120173542.686 7  93641724.958 8  22868264.593    22868264.352    22868268.004
  22868268.411          46.000          48.000
 124749684.942 7  97207549.909 7  23739075.663    23739075.624    23739079.365
  23739079.455          42.500          45.250
 131586762.950 6 102535138.682 6  25040128.181    25040127.644    25040133.706
  25040133.983          36.250          38.000
 110169364.845 8  85846259.34047  20964530.089    20964529.296
  20964530.152          49.750          46.5004
 108830309.437 8  84802839.14647  20709717.513    20709716.735
  20709718.192          49.750          44.7504
 109444394.850 9  85281349.843 8  20826574.853    20826574.853    20826575.607
  20826575.595          54.000          51.750
 119301439.839 7  92962166.18745  22702307.935    22702307.938
  22702308.872          45.500          33.2504
 20  1  5  0 21  0.0000000  0  9G16G29G10G27G26G21G20G15G13
 128030051.166 6  99763668.75143  24363307.580    24363307.290
  24363309.286          39.250          23.7504
 119559287.860 7  93163078.950 7  22751373.026    22751373.113    22751374.011
  22751374.464          47.250          45.000
 120096845.645 7  93581961.035 7  22853669.369    22853669.287    22853672.607
  22853673.031          46.000          47.750
 124662944.237 7  97139959.752 7  23722569.104    23722569.177    23722573.155
  23722573.241          42.500          45.000
 131659045.718 6 102591462.927 6  25053883.425    25053883.265    25053888.506
  25053888.091          36.250          38.500
 110150293.746 8  85831398.74447  20960900.564    20960900.198
  20960901.024          49.500          46.2504
 108786165.395 8  84768441.20047  20701316.862    20701316.457
  20701317.770          49.750          44.7504
 109471151.404 8  85302199.109 8  20831666.123    20831666.270    20831667.296
  20831667.124          53.750          51.750
 119367247.132 7  93013444.59745  22714830.543    22714830.904
  22714831.735          45.750          33.0004
 20  1  5  0 21 30.0000000  0  8G16G29G10G27G21G20G15G13
 128081182.679 6  99803511.44843  24373038.885    24373037.536
  24373037.628          40.000          22.7504
 119665316.788 7  93245698.891 7  22771549.788    22771550.193    22771551.487
  22771551.220          47.750          46.000
 120020356.783 7  93522359.335 7  22839113.978    22839114.071    22839117.361
  22839117.818          46.500          47.500
 124576555.513 7  97072643.859 7  23706130.127    23706130.174    23706133.675
  23706133.778          42.750          45.000
 110131481.902 8  85816740.15847  20957321.031    20957320.370
  20957321.208          49.750          46.0004
 108742329.970 8  84734283.72947  20692975.625    20692974.768
  20692976.211          50.000          45.0004
 109498527.627 8  85323531.240 8  20836875.799    20836875.784    20836877.019
  20836876.549          53.500          52.000
 119433547.316 7  93065107.08245  22727447.824    22727447.082
  22727448.255          46.500          33.0004
 20  1  5  0 22  0.0000000  0  8G16G29G10G27G21G20G15G13
 128132732.710 6  99843680.30644  24382848.013    24382847.599
  24382849.007          40.750          24.2504
 119771591.046 7  93328509.987 7  22791773.144    22791773.334    22791774.284
  22791774.189          47.500          45.250
 119944074.869 7  93462918.901 7  22824598.042    22824598.021    22824601.427
  22824601.666          46.250          47.750
 124490519.668 7  97005602.949 7  23689758.113    23689758.315    23689761.834
  23689761.671          43.000          45.250
 110112928.414 8  85802282.89647  20953790.501    20953789.723
  20953790.625          50.000          46.2504
 108698802.024 8  84700365.85047  20684692.627    20684691.685
  20684693.141          50.250          45.0004
 109526520.501 8  85345343.870 8  20842202.579    20842202.598    20842203.427
  20842203.472          53.250          51.500
 119500336.592 7  93117150.68145  22740156.840    22740156.987
  22740157.115          45.750          32.7504
 20  1  5  0 22 30.0000000  0  8G16G29G10G27G21G20G15G13
 128184699.995 6  99884174.26043  24392736.748    24392735.850
  24392738.591          40.000          23.2504
 119878108.134 7  93411510.313 7  22812042.192    22812042.529    22812044.122
  22812043.868          47.250          44.500
 119868000.658 7  93403640.310 7  22810121.692    22810121.907    22810124.727
  22810125.072          46.500          47.750
 124404839.659 7  96938839.295 7  23673453.751    23673453.806    23673457.252
  23673456.843          42.500          45.750
 110094634.737 8  85788028.08547  20950309.483    20950308.672
  20950309.405          49.750          46.0004
 108655581.712 8  84666687.69447  20676467.942    20676467.203
  20676468.416          50.250          45.0004
 109555129.529 8  85367636.614 8  20847646.707    20847646.726    20847647.758
  20847647.555          53.000          51.750
 119567612.823 7  93169573.71945  22752958.601    22752958.694
  22752959.328          45.250          32.2504
 20  1  5  0 23  0.0000000  0  8G16G29G10G27G21G20G15G13
 128237082.623 6  99924991.89043  24402704.869    24402704.510
  24402705.682          39.500          23.0004
 119984866.407 7  93494698.580 7  22832357.751    22832357.805    22832359.138
  22832359.125          47.500          44.750
 119792135.566 7  93344524.654 7  22795685.019    22795685.063    22795688.019
  22795688.713          46.250          47.750
 124319519.119 7  96872355.770 7  23657217.697    23657217.910    23657221.265
  23657221.799          42.750          45.750
 110076603.226 8  85773977.55347  20946877.898    20946877.284
  20946878.220          50.250          46.2504
 108612670.386 8  84633250.30347  20668302.247    20668301.595
  20668302.707          50.500          45.2504
 109584354.093 8  85390409.005 8  20853207.948    20853208.098    20853209.118
  20853208.770          52.750          51.750
 119635374.663 7  93222375.16045  22765853.648    22765853.625
  22765853.804          45.250          32.2504
 20  1  5  0 23 30.0000000  0  8G16G29G10G27G21G20G15G13
 128289876.883 6  99966130.22243  24412750.618    24412750.674
  24412752.664          39.000          21.5004
 120091862.257 7  93578071.957 7  22852718.280    22852718.525    22852720.395
  22852720.141          47.000          45.250
 119716478.892 7  93285571.419 8  22781287.793    22781287.714    22781291.074
  22781291.816          46.500          48.000
 124234559.580 7  96806153.532 7  23641050.604    23641050.419    23641054.090
  23641054.173          43.750          46.000
 110058833.676 8  85760131.14847  20943496.280    20943495.866
  20943496.810          49.750          46.5004
 108570067.083 8  84600052.92747  20660194.914    20660194.435
  20660195.672          50.250          45.5004
 109614191.650 8  85413659.042 8  20858885.958    20858885.973    20858886.719
  20858886.737          52.750          51.250
 119703618.451 7  93275552.14145  22778839.611    22778839.390
  22778841.115          45.000          32.0004
 20  1  5  0 24  0.0000000  0  8G16G29G10G27G21G20G15G13
 128343080.212 6 100007587.37443  24422875.002    24422874.846
  24422876.808          39.750          21.0004
 120199093.018 7  93661628.379 7  22873123.533    22873123.730    22873125.526
  22873125.703          47.250          45.250
 119641031.444 7  93226781.212 8  22766930.878    22766931.155    22766934.211
  22766934.497          46.750          48.250
 124149964.006 7  96740234.913 7  23624952.884    23624952.598    23624956.276
  23624955.678          43.500          46.000
 110041327.280 8  85746489.79747  20940165.129    20940164.455
  20940165.456          49.750          46.2504
 108527772.488 8  84567096.11247  20652146.546    20652145.872
  20652147.250          50.750          45.2504
 109644640.971 8  85437385.796 8  20864680.304    20864680.430    20864680.914
  20864680.890          52.500          51.500
 119772342.408 7  93329103.29145  22791917.472    22791916.962
  22791918.407          45.250          32.2504
 20  1  5  0 24 30.0000000  0  8G16G29G10G27G21G20G15G13
 128396690.534 6 100049361.61143  24433077.276    24433077.389
  24433078.708          39.250          22.0004
 120306556.826 7  93745366.394 7  22893573.600    22893573.367    22893575.320
  22893575.076          47.000          45.000
 119565793.998 7  93168154.660 8  22752613.561    22752613.534    22752616.696
  22752617.207          46.250          48.250
 124065735.369 7  96674602.231 7  23608924.886    23608924.364    23608928.074
  23608927.841          43.500          45.750
 110024085.956 8  85733055.00847  20936884.176    20936883.567
  20936884.429          49.500          46.5004
 108485787.015 8  84534380.16547  20644157.105    20644156.261
  20644157.576          50.250          45.2504
 109675701.247 8  85461588.609 8  20870590.707    20870590.872    20870591.924
  20870591.589          52.250          51.500
 119841544.527 7  93383027.00745  22805086.707    22805085.884
  22805087.586          45.000          32.0004
 20  1  5  0 25  0.0000000  0  8G16G29G10G27G21G20G15G13
 128450705.561 6 100091451.30143  24443356.340    24443354.773
  24443357.148          40.250          22.5004
 120414250.673 7  93829283.687 7  22914067.416    22914067.552    22914068.677
  22914068.218          47.750          44.000
 119490766.751 7  93109691.861 8  22738336.499    22738336.397    22738339.616
  22738339.818          47.000          48.250
 123981876.118 7  96609257.366 7  23592966.500    23592966.551    23592970.241
  23592970.127          43.750          46.000
 110007110.645 8  85719827.49747  20933653.931    20933653.192
  20933654.077          49.500          46.0004
 108444110.401 8  84501904.88847  20636226.247    20636225.456
  20636226.846          50.500          45.5004
 109707370.687 8  85486266.098 8  20876617.117    20876617.406    20876618.033
  20876618.098          52.750          51.500
 119911221.963 7  93437321.10145  22818345.637    22818345.416
  22818346.159          45.000          32.5004
 20  1  5  0 25 30.0000000  0  8G16G29G10G27G21G20G15G13
 128505122.292 6 100133853.90243  24453710.485    24453710.713
  24453711.835          38.250          21.5004
 120522171.937 7  93913378.179 7  22934604.206    22934604.065    22934604.833
  22934605.581          47.750          44.250
 119415950.117 7  93051393.199 8  22724099.341    22724099.466    22724102.892
  22724103.204          47.000          48.750
 123898388.846 7  96544202.356 7  23577079.927    23577079.257    23577082.778
  23577083.133          44.000          45.750
 109990401.793 8  85706807.60847  20930474.361    20930473.747
  20930474.623          49.500          46.2504
 108402743.153 8  84469670.68547  20628354.164    20628353.675
  20628354.887          50.250          45.2504
 109739648.027 8  85511417.279 8  20882759.353    20882759.503    20882760.416
  20882760.259          53.000          51.500
 119981372.375 7  93491983.77845  22831694.840    22831695.296
  22831695.614          45.750          32.5004
 20  1  5  0 26  0.0000000  0  8G16G29G10G27G21G20G15G13
 128559936.868 6 100176566.56243  24464141.771    24464141.812
  24464143.890          38.750          21.5004
 120630316.915 7  93997647.005 7  22955183.198    22955183.119    22955184.622
  22955184.603          47.250          44.750
 119341343.800 7  92993258.426 8  22709902.298    22709902.368    22709905.822
  22709905.978          47.250          48.500
 123815275.465 7  96479438.670 7  23561263.638    23561263.587    23561266.887
  23561266.720          43.750          45.750
 109973960.309 8  85693996.05347  20927345.608    20927345.024
  20927345.909          49.750          46.2504
 108361684.343 8  84437676.81547  20620540.913    20620540.145
  20620541.678          50.000          45.5004
 109772531.029 8  85537040.404 8  20889016.870    20889016.811    20889017.754
  20889017.672          53.000          51.500
 120051992.844 7  93547012.70445  22845133.617    22845133.636
  22845134.675          45.250          32.2504
 20  1  5  0 26 30.0000000  0  9G16G29G10G27G26G21G20G15G13
 128615148.988 6 100219588.96243  24474648.650    24474649.311
  24474649.569          38.750          23.5004
 120738684.775 7  94082089.467 7  22975804.891    22975804.601    22975806.911
  22975806.571          46.750          45.500
 119266949.827 7  92935289.112 8  22695745.372    22695745.281    22695748.660
  22695749.118          46.500          48.250
 123732540.192 7  96414969.620 7  23545519.827    23545519.622    23545523.253
  23545522.830          43.500          45.750
 132464243.807 6                  25207106.925
                        36.500
 109957788.617 8  85681394.72647  20924268.282    20924267.562
  20924268.617          49.500          46.2504
 108320935.573 8  84405924.53747  20612786.826    20612786.235
  20612787.400          50.250          45.5004
 109806019.857 8  85563135.594 8  20895389.525    20895389.524    20895390.713
  20895390.460          53.000          51.250
 120123082.447 7  93602407.20945  22858661.120    22858660.945
  22858661.626          44.250          32.2504
 20  1  5  0 27  0.0000000  0  9G16G29G10G27G26G21G20G15G13
 128670754.275 6 100262917.73943  24485230.180    24485229.019
  24485231.071          37.750          21.5004
 120847271.498 7  94166702.483 7  22996468.162    22996468.249    22996469.885
  22996469.591          46.500          44.000
 119192767.222 7  92877484.497 8  22681628.562    22681628.822    22681632.735
  22681632.712          47.000          49.000
 123650184.227 7  96350796.152 7  23529847.839    23529847.680    23529851.141
  23529851.438          44.000          46.000
 132538283.733 6 103276580.920 6  25221197.200    25221196.329    25221200.897
  25221200.401          37.250          38.250
 109941886.235 8  85669003.25347  20921242.303    20921241.616
  20921242.443          49.750          46.5004
 108280495.895 8  84374413.10847  20605091.480    20605090.647
  20605091.981          50.500          45.2504
 109840111.314 8  85589700.367 8  20901877.090    20901876.954    20901877.727
  20901877.735          53.000          51.500
 120194636.999 7  93658163.99945  22872277.208    22872277.669
  22872278.890          44.500          32.0004
 20  1  5  0 27 30.0000000  0  8G16G29G10G27G21G20G15G13
 128726750.762 6 100306551.34043  24495886.777    24495885.053
  24495887.287          38.750          23.2504
 120956075.208 7  94251484.612 7  23017172.948    23017172.810    23017173.884
  23017174.212          46.250          43.750
 119118797.052 7  92819845.414 8  22667552.993    22667553.226    22667556.156
  22667556.513          47.250          48.500
 123568210.885 7  96286920.825 7  23514248.907    23514248.895    23514251.812
  23514251.874          43.250          46.000
 109926255.314 8  85656823.32447  20918268.059    20918267.242
  20918267.889          49.750          46.2504
 108240366.301 8  84343143.30947  20597455.057    20597454.215
  20597455.465          50.000          45.2504
 109874804.710 8  85616734.195 8  20908478.848    20908478.864    20908479.927
  20908479.788          53.000          51.500
 120266655.193 7  93714282.07245  22885982.257    22885982.212
  22885983.277          44.500          31.7504
 20  1  5  0 28  0.0000000  0  8G16G29G10G27G21G20G15G13
 128783135.700 6 100350487.62343  24506616.045    24506615.227
  24506615.782          38.250          20.7504
 121065093.185 7  94336433.677 7  23037918.148    23037917.869    23037919.635
  23037919.326          46.250          44.500
 119045039.532 7  92762372.040 8  22653517.254    22653517.393    22653520.731
  22653521.145          47.250          48.750
 123486622.511 7  96223345.476 7  23498723.097    23498723.100    23498726.254
  23498726.470          43.750          45.500
 109910896.731 8  85644855.60647  20915345.259    20915344.540
  20915345.383          49.500          46.5004
 108200546.617 8  84312114.98647  20589877.500    20589876.806
  20589878.167          50.750          45.5004
 109910098.426 8  85644235.793 8  20915195.086    20915195.086    20915195.990
  20915195.927          53.500          51.250
 120339134.253 7  93770759.26245  22899774.448    22899774.907
  22899775.805          45.000          31.5004
 20  1  5  0 28 30.0000000  0  8G16G29G10G27G21G20G15G13
 128839905.901 6 100394724.15543  24517418.827    24517417.992
  24517419.407          38.500          21.7504
 121174322.393 7  94421547.316 7  23058703.686    23058703.653    23058705.366
  23058705.224          46.000          44.250
 118971494.996 7  92705064.625 8  22639521.991    22639522.196    22639525.401
  22639525.827          47.000          48.500
 123405421.659 7  96160072.088 7  23483271.638    23483271.267    23483274.026
  23483274.392          43.750          45.750
 109895811.424 8  85633100.81947  20912474.762    20912473.792
  20912474.681          49.250          46.5004
 108161036.880 8  84281328.18947  20582359.139    20582358.538
  20582359.593          50.500          45.5004
 109945990.582 8  85672203.710 8  20922025.000    20922025.080    20922026.153
  20922025.998          53.250          51.250
 120412071.559 7  93827593.53445  22913653.963    22913654.157
  22913654.650          44.750          31.5004
 20  1  5  0 29  0.0000000  0  8G16G29G10G27G21G20G15G13
 128897059.386 6 100439259.29843  24528294.580    24528293.089
  24528296.099          38.250          22.2504
 121283759.816 7  94506823.235 7  23079529.125    23079529.113    23079530.493
  23079530.707          47.000          44.000
 118898163.624 7  92647923.297 8  22625567.433    22625567.757    22625570.926
  22625571.205          47.000          48.750
 123324610.700 7  96097102.509 7  23467893.211    23467893.328    23467896.220
  23467896.808          43.250          46.000
 109881000.215 8  85621559.60547  20909656.268    20909655.381
  20909656.154          49.500          46.2504
 108121836.923 8  84250782.77047  20574899.588    20574898.876
  20574900.099          50.500          45.7504
 109982479.426 8  85700636.582 8  20928968.628    20928968.786    20928969.596
  20928969.421          53.750          51.500
 120485464.316 7  93884782.69645  22927620.325    22927619.745
  22927620.887          44.500          31.0004
 20  1  5  0 29 30.0000000  0  8G16G29G10G27G21G20G15G13
 128954593.387 6 100484091.01143  24539242.487    24539241.321
  24539242.814          37.750          21.0004
 121393403.442 7  94592259.816 7  23100393.618    23100394.188    23100395.159
  23100395.206          46.250          43.750
 118825046.461 7  92590948.914 8  22611653.824    22611653.817    22611657.424
  22611657.787          47.250          49.250
 123244192.855 7  96034439.261 7  23452590.126    23452590.257    23452593.705
  23452593.748          42.750          46.000
 109866464.739 8  85610233.25247  20906889.864    20906889.382
  20906890.119          49.250          46.2504
 108082947.538 8  84220479.36247  20567499.203    20567498.519
  20567499.783          50.500          45.5004
 110019563.912 8  85729533.591 8  20936025.395    20936025.714    20936026.392
  20936026.388          53.000          51.250
 120559310.723 7  93942325.36045  22941672.379    22941673.168
  22941673.786          44.750          31.7504
 20  1  5  0 30  0.0000000  0  8G16G29G10G27G21G20G15G13
 129012504.666 6 100529216.65543  24550262.626    24550262.758
  24550263.459          38.750          22.7504
 121503250.031 7  94677854.564 7  23121297.000    23121297.013    23121297.705
  23121297.838          46.750          43.000
 118752143.056 7  92534141.082 8  22597780.709    22597781.270    22597784.107
  22597784.644          47.750          48.500
 123164169.879 7  95972083.697 7  23437362.519    23437361.974    23437365.469
  23437365.151          43.000          45.750
 109852205.268 8  85599121.98847  20904176.625    20904175.895
  20904176.630          49.500          46.2504
 108044367.993 8  84190417.38147  20560157.635    20560156.930
  20560158.382          50.250          45.5004
 110057241.771 8  85758892.962 8  20943195.406    20943195.531    20943196.579
  20943196.295          53.750          51.500
 120633607.612 7  94000219.04445  22955811.513    22955811.361
  22955811.601          44.500          31.5004
 20  1  5  0 30 30.0000000  0  8G16G29G10G27G21G20G15G13
 129070791.507 6 100574634.97043  24561354.579    24561354.654
  24561355.849          37.750          22.5004
 121613297.729 7  94763606.025 7  23142238.500    23142238.203    23142238.847
  23142239.463          46.500          42.500
 118679454.727 7  92477500.832 8  22583948.459    22583948.652    22583952.093
  22583952.300          46.750          49.000
 123084545.259 7  95910038.553 7  23422210.191    23422210.453    23422213.377
  23422213.459          42.750          46.000
 109838223.820 8  85588227.34647  20901515.892    20901515.330
  20901516.057          49.250          46.2504
 108006099.460 8  84160597.74747  20552875.687    20552874.824
  20552876.003          50.750          45.7504
 110095512.225 8  85788714.100 8  20950478.129    20950478.157    20950478.910
  20950478.855          53.750          51.500
 120708353.311 7  94058462.45045  22970035.086    22970034.634
  22970035.468          44.750          32.0004
 20  1  5  0 31  0.0000000  0  8G16G29G10G27G21G20G15G13
 129129450.037 6 100620342.87943  24572516.659    24572516.775
  24572518.158          38.500          22.2504
 121723543.380 7  94849511.728 7  23163217.494    23163217.707    23163218.778
  23163218.654          46.500          43.000
 118606981.465 7  92421028.177 8  22570157.005    22570157.262    22570160.681
  22570160.972          46.750          48.500
 123005321.137 7  95848305.474 7  23407134.498    23407134.303    23407138.088
  23407138.263          43.000          46.250
 109824521.272 8  85577550.03547  20898908.525    20898907.810
  20898908.506          49.250          46.2504
 107968141.755 8  84131020.31847  20545652.393    20545651.638
  20545652.889          50.500          45.7504
 110134372.996 8  85818995.224 8  20957873.018    20957873.146    20957874.100
  20957873.805          53.500          51.250
 120783544.795 7  94117053.19945  22984342.892    22984343.174
  22984344.124          43.500          31.7504
 20  1  5  0 31 30.0000000  0  8G16G29G10G27G21G20G15G13
 129188478.087 6 100666338.76543  24583748.904    24583748.993
  24583751.655          37.500          20.2504
 121833984.354 7  94935569.622 7  23184233.328    23184233.722    23184234.806
  23184234.667          46.000          43.250
 118534723.442 7  92364723.225 8  22556407.308    22556407.403    22556410.641
  22556410.880          47.250          48.750
 122926499.926 7  95786886.350 7  23392135.129    23392135.352    23392138.519
  23392138.586          43.000          46.000
 109811098.457 8  85567090.69147  20896354.096    20896353.490
  20896354.395          49.000          46.0004
 107930494.680 8  84101684.94147  20538488.508    20538487.587
  20538488.910          50.500          45.7504
 110173822.139 8  85849734.817 8  20965379.742    20965380.042    20965380.824
  20965380.837          53.750          51.000
 120859179.470 7  94175989.33745  22998735.715    22998735.897
  22998736.433          44.000          31.2504
 20  1  5  0 32  0.0000000  0  8G16G29G10G27G21G20G15G13
 129247872.131 6 100712619.83343  24595052.158    24595051.217
  24595052.984          38.000          20.7504
 121944617.411 7  95021777.179 7  23205285.916    23205285.885    23205287.273
  23205287.383          45.500          43.000
 118462680.678 7  92308586.007 8  22542697.937    22542697.828    22542701.007
  22542701.770          47.250          48.750
 122848083.768 7  95725782.856 7  23377213.661    23377213.756    23377216.560
  23377215.983          43.500          46.000
 109797955.940 8  85556849.77947  20893853.071    20893852.508
  20893853.445          49.500          46.2504
 107893157.821 8  84072591.29447  20531383.560    20531382.774
  20531383.908          51.000          45.7504
 110213857.728 9  85880931.386 8  20972998.418    20972998.612    20972999.474
  20972999.300          54.000          51.250
 120935254.518 7  94235268.58045  23013212.457    23013212.251
  23013213.240          43.750          31.2504
 20  1  5  0 32 30.0000000  0  8G16G29G10G27G21G20G15G13
 129307629.853 6 100759184.30543  24606423.864    24606422.889
  24606424.188          37.500          21.5004
 122055440.068 7  95108132.457 7  23226375.370    23226375.055    23226376.935
  23226377.121          45.750          43.750
 118390853.665 8  92252616.919 8  22529029.838    22529029.595    22529032.828
  22529033.071          48.000          48.750
 122770075.300 7  95664997.036 7  23362368.743    23362368.412    23362371.977
  23362372.301          43.000          46.250
 109785095.085 8  85546828.33547  20891405.783    20891405.122
  20891405.927          49.250          46.2504
 107856131.282 8  84043739.44947  20524337.423    20524336.774
  20524337.929          50.500          45.7504
 110254478.269 8  85912583.751 8  20980728.342    20980728.380    20980729.401
  20980729.309          53.000          51.250
 121011767.103 7  94294888.78745  23027772.272    23027771.937
  23027773.070          43.500          31.0004
 20  1  5  0 33  0.0000000  0  8G16G29G10G27G21G20G15G13
 129367749.458 6 100806030.72243  24617864.222    24617863.681
  24617865.185          38.000          21.5004
 122166451.020 7  95194634.502 7  23247500.084    23247500.016    23247502.041
  23247501.576          46.250          43.750
 118319244.016 7  92196817.210 8  22515402.803    22515402.861    22515406.101
  22515406.492          47.750          49.000
 122692478.341 7  95604531.872 7  23347602.531    23347602.475    23347606.004
  23347605.977          43.500          46.250
 109772517.874 8  85537027.91047  20889012.518    20889011.890
  20889012.565          49.000          46.2504
 107819416.939 8  84015130.87347  20517351.099    20517350.265
  20517351.432          51.000          45.7504
 110295683.052 9  85944691.380 8  20988569.338    20988569.653    20988570.286
  20988570.174          54.000          51.250
 121088716.369 7  94354849.25545  23042415.648    23042414.812
  23042415.842          43.250          30.7504
 20  1  5  0 33 30.0000000  0  8G16G29G10G27G21G20G15G13
 129428226.385 6 100853155.56843  24629372.115    24629371.731
  24629372.152          37.500          21.0004
 122277645.639 7  95281279.659 7  23268659.701    23268659.724    23268661.042
  23268661.110          46.000          43.500
 118247850.261 8  92141185.719 8  22501817.081    22501817.192    22501820.722
  22501820.818          48.000          49.500
 122615293.552 7  95544387.874 7  23332915.033    23332914.800    23332917.703
  23332917.827          42.500          45.750
 109760223.835 8  85527448.13647  20886672.723    20886672.291
  20886673.234          49.250          46.2504
 107783012.835 8  83986764.04447  20510423.674    20510422.816
  20510424.028          50.750          45.7504
 110337468.560 8  85977251.519 8  20996520.857    20996520.977    20996521.691
  20996521.694          53.750          51.250
 121166097.682 7  94415146.37945  23057140.624    23057140.867
  23057141.374          43.500          31.0004
 20  1  5  0 34  0.0000000  0  8G16G29G10G27G21G20G15G13
 129489059.329 6 100900557.85143  24640948.287    24640947.732
  24640950.268          36.500          21.0004
 122389022.528 7  95368066.837 7  23289853.818    23289853.454    23289855.301
  23289855.335          45.000          43.500
 118176674.130 7  92085723.825 8  22488272.254    22488272.612    22488276.165
  22488276.535          47.500          49.750
 122538524.853 7  95484568.117 7  23318306.036    23318305.844    23318309.429
  23318309.566          42.500          46.250
 109748215.501 8  85518090.99347  20884387.971    20884387.248
  20884387.944          49.250          46.0004
 107746920.607 8  83958640.23947  20503555.400    20503554.621
  20503555.712          50.750          45.7504
 110379834.287 9  86010263.772 8  21004582.616    21004582.944    21004583.956
  21004583.623          54.000          51.000
 121243910.072 7  94475779.41445  23071947.510    23071947.660
  23071948.568          43.000          31.0004
 20  1  5  0 34 30.0000000  0  7G29G10G27G21G20G15G13
 122500579.497 7  95454994.323 7  23311082.428    23311082.287    23311083.237
  23311084.124          45.750          43.750
 118105716.726 8  92030432.355 8  22474770.209    22474770.223    22474773.476
  22474773.910          48.250          49.500
 122462175.435 7  95425075.061 7  23303776.830    23303776.697    23303780.672
  23303780.325          42.500          46.000
 109736494.184 8  85508957.49247  20882157.452    20882156.814
  20882157.578          49.000          46.2504
 107711140.710 8  83930759.79647  20496746.718    20496746.086
  20496747.142          50.750          45.7504
 110422779.050 8  86043727.223 8  21012754.770    21012754.968    21012755.903
  21012755.704          53.750          51.250
 121322151.660 7  94536746.87845  23086836.575    23086836.334
  23086836.897          43.250          31.0004
 20  1  5  0 35  0.0000000  0  9G16G24G29G10G27G21G20G15G13
 129611778.627 6 100996192.54543  24664300.602    24664301.359
  24664301.755          36.500          21.2504
 128764031.104 6 100335605.270 6  24502980.112    24502979.015    24502982.831
  24502979.189          37.500          37.750
 122612311.893 7  95542058.523 7  23332344.131    23332344.809    23332345.730
  23332345.937          45.250          43.250
 118034976.089 7  91975309.798 8  22461308.344    22461308.582    22461311.430
  22461312.039          47.750          49.250
 122386245.548 7  95365908.911 7  23289328.069    23289328.186    23289331.173
  23289331.361          42.000          45.750
 109725059.215 8  85500047.13147  20879981.323    20879980.700
  20879981.594          49.250          46.2504
 107675671.073 8  83903121.12847  20489996.984    20489996.367
  20489997.387          50.750          45.7504
 110466298.806 8  86077638.722 8  21021036.350    21021036.478    21021037.465
  21021037.065          53.750          51.000
 121400817.353 7  94598044.78945  23101806.099    23101806.425
  23101806.613          42.750          30.5004
 20  1  5  0 35 30.0000000  0  9G16G24G29G10G27G21G20G15G13
 129673660.772 6 101044412.42043  24676077.374    24676077.103
  24676079.249          38.500          21.7504
 128674677.580 6 100265979.145 7  24485977.296    24485976.771    24485981.140
  24485980.532          39.250          43.250
 122724217.622 7  95629257.770 7  23353639.119    23353638.953    23353640.757
  23353640.453          44.500          43.250
 117964453.350 7  91920357.039 8  22447888.230    22447888.484    22447891.879
  22447892.395          47.500          49.750
 122310738.473 7  95307072.235 7  23274959.589    23274959.678    23274963.064
  23274962.730          42.500          45.750
 109713912.579 8  85491361.44247  20877860.425    20877859.777
  20877860.398          49.250          46.2504
 107640512.688 8  83875724.97847  20483306.547    20483305.889
  20483307.068          50.500          45.7504
 110510392.622 8  86111997.541 8  21029427.066    21029427.269    21029428.341
  21029428.059          53.500          50.750
 121479905.365 7  94659671.84745  23116856.653    23116855.950
  23116856.625          43.500          30.2504
 20  1  5  0 36  0.0000000  0  9G16G24G29G10G27G21G20G15G13
 129735888.085 6 101092901.21743  24687918.940    24687919.732
  24687920.476          38.750          22.2504
 128585406.954 6 100196417.644 6  24468988.765    24468988.853    24468992.449
  24468993.455          37.500          40.500
 122836295.593 7  95716591.245 7  23374967.240    23374967.091    23374968.469
  23374968.310          45.500          42.250
 117894150.146 7  91865575.337 8  22434509.744    22434510.037    22434513.305
  22434514.037          47.250          49.750
 122235657.879 7  95248567.884 7  23260672.105    23260672.399    23260675.602
  23260675.421          43.000          46.000
 109703056.174 8  85482901.90347  20875794.430    20875793.844
  20875794.495          49.000          46.2504
 107605667.162 8  83848572.63047  20476675.869    20476675.191
  20476676.113          51.000          46.0004
 110555059.548 8  86146802.935 8  21037926.723    21037927.004    21037928.028
  21037927.820          53.500          51.000
 121559414.258 7  94721626.82945  23131985.730    23131986.248
  23131987.041          42.250          30.2504
 20  1  5  0 36 30.0000000  0  9G16G24G29G10G27G21G20G15G13
 129798455.422 6 101141654.97643  24699824.708    24699824.814
  24699825.596          39.000          21.7504
 128496220.080 6 100126921.338 6  24452016.696    24452017.079    24452020.937
  24452021.670          38.000          39.000
 122948540.530 7  95804054.838 7  23396326.826    23396326.678    23396327.569
  23396327.762          45.250          42.250
 117824064.434 7  91810963.121 8  22421173.227    22421173.170    22421176.446
  22421176.853          47.750          49.250
 122161003.988 7  95190396.018 7  23246466.323    23246465.846    23246469.851
  23246470.006          43.500          46.250
 109692488.622 8  85474667.44247  20873783.457    20873782.833
  20873783.597          48.750          46.2504
 107571131.805 8  83821661.97147  20470103.957    20470103.210
  20470104.240          50.250          45.7504
 110600295.532 8  86182051.758 8  21046534.827    21046535.153    21046536.159
  21046535.986          53.250          50.750
 121639339.315 7  94783906.08044  23147194.926    23147195.204
  23147196.043          42.250          29.5004
 20  1  5  0 37  0.0000000  0  9G16G24G29G10G27G21G20G15G13
 129861361.192 6 101190672.44843  24711795.608    24711794.712
  24711796.594          37.750          21.7504
 128407121.298 6 100057493.753 6  24435061.766    24435062.508    24435066.194
  24435066.188          37.000          39.750
 123060951.385 7  95891647.715 6  23417717.517    23417717.425    23417718.516
  23417718.088          44.750          41.750
 117754198.365 7  91756522.054 8  22407878.046    22407878.299    22407881.507
  22407881.733          47.250          50.000
 122086780.967 7  95132559.913 7  23232342.147    23232341.950    23232345.438
  23232345.425          43.500          46.000
 109682212.967 8  85466660.44047  20871828.038    20871827.365
  20871828.119          48.500          46.2504
 107536908.552 8  83794994.50247  20463591.677    20463590.782
  20463591.737          51.000          46.0004
 110646100.331 8  86217743.810 8  21055251.194    21055251.508    21055252.711
  21055252.462          53.000          51.000
 121719679.449 7  94846508.80444  23162483.672    23162482.829
  23162483.820          42.500          29.5004
 20  1  5  0 37 30.0000000  0  9G16G24G29G10G27G21G20G15G13
 129924602.675 6 101239951.50644  24723831.009    24723829.607
  24723831.185          39.500          24.0004
 128318113.794 6  99988137.172 6  24418125.701    24418125.495    24418128.666
  24418127.346          37.750          38.750
 123173525.186 7  95979367.547 7  23439139.412    23439139.335    23439141.125
  23439140.535          44.500          42.250
 117684551.588 7  91702251.857 8  22394624.666    22394624.908    22394628.027
  22394628.204          47.750          49.750
 122012990.631 7  95075060.948 7  23218300.434    23218300.529    23218303.111
  23218303.390          43.000          46.000
 109672229.422 8  85458881.05547  20869928.210    20869927.656
  20869928.453          48.250          46.2504
 107502996.765 8  83768569.73647  20457138.344    20457137.466
  20457138.680          50.500          46.0004
 110692471.473 8  86253877.173 8  21064075.627    21064075.738    21064076.733
  21064076.440          52.750          51.000
 121800431.691 7  94909432.61744  23177849.826    23177849.941
  23177851.184          42.250          29.2504
 20  1  5  0 38  0.0000000  0  9G16G24G29G10G27G21G20G15G13
 129988177.263 6 101289490.12343  24735927.752    24735927.259
  24735929.173          39.000          22.7504
 128229200.791 6  99918854.356 6  24401205.304    24401205.250    24401208.468
  24401208.691          38.250          37.500
 123286259.269 7  96067212.285 7  23460591.860    23460591.971    23460593.557
  23460593.119          43.750          42.250
 117615124.875 7  91648153.115 8  22381413.160    22381413.471    22381416.555
  22381417.033          47.500          49.500
 121939635.878 7  95017901.403 7  23204341.395    23204341.132    23204344.925
  23204344.419          42.750          46.250
 109662539.884 8  85451330.75347  20868084.456    20868083.764
  20868084.533          48.250          46.5004
 107469397.049 8  83742388.14547  20450744.250    20450743.564
  20450744.796          50.750          46.0004
 110739407.272 8  86290450.530 8  21073007.216    21073007.365    21073008.534
  21073008.178          52.500          51.000
 121881593.513 7  94972675.58845  23193294.665    23193294.268
  23193295.812          42.000          30.0004
 20  1  5  0 38 30.0000000  0  9G16G24G29G10G27G21G20G15G13
 130052083.418 6 101339287.13544  24748089.020    24748089.365
  24748089.467          39.750          24.0004
 128140386.847 6  99849648.630 6  24384303.896    24384304.554    24384307.386
  24384308.301          36.250          37.750
 123399152.582 7  96155181.091 7  23482075.179    23482075.248    23482076.460
  23482076.347          44.500          42.250
 117545919.962 7  91594227.231 8  22368243.895    22368243.798    22368247.305
  22368247.451          46.750          49.250
 121866720.576 7  94961084.284 7  23190465.813    23190465.719    23190469.505
  23190469.150          43.250          46.250
 109653146.620 8  85444011.31847  20866296.990    20866296.179
  20866297.067          48.250          46.2504
 107436111.147 8  83716451.07847  20444410.646    20444409.558
  20444410.636          50.750          46.0004
 110786907.312 8  86327463.548 8  21082046.036    21082046.197    21082047.293
  21082047.155          52.500          50.750
 121963163.697 6  95036236.77645  23208816.700    23208816.689
  23208817.621          41.750          30.2504
 20  1  5  0 39  0.0000000  0  8G16G29G10G27G21G20G15G13
 130116314.402 6 101389337.20843  24760312.213    24760311.051
  24760312.793          40.250          23.2504
 123512198.813 7  96243269.051 7  23503587.012    23503587.165    23503588.773
  23503588.772          44.500          43.250
 117476933.580 7  91540471.624 8  22355116.290    22355116.787    22355119.958
  22355120.057          47.500          50.000
 121794243.440 7  94904608.608 7  23176674.240    23176673.761    23176677.297
  23176677.489          43.750          46.250
 109644047.108 7  85436920.79147  20864565.488    20864564.628
  20864565.540          47.500          46.5004
 107403135.388 8  83690755.68447  20438135.207    20438134.362
  20438135.675          50.250          45.7504
 110834965.862 8  86364911.778 8  21091191.236    21091191.332    21091192.454
  21091192.354          52.000          50.750
 122045136.102 7  95100111.37544  23224415.933    23224416.108
  23224416.785          42.250          29.5004
 20  1  5  0 39 30.0000000  0  8G16G29G10G27G21G20G15G13
 130180870.427 6 101439640.62943  24772596.135    24772596.255
  24772596.831          39.500          22.2504
 123625398.092 7  96331476.262 7  23525128.103    23525127.442    23525129.683
  23525130.305          43.750          43.250
 117408169.087 7  91486888.911 8  22342030.684    22342030.884    22342034.228
  22342034.733          47.250          50.000
 121722210.038 7  94848478.680 7  23162966.997    23162966.492    23162969.684
  23162969.749          43.500          46.500
 109635245.388 7  85430062.30247  20862890.597    20862889.856
  20862890.545          47.750          46.5004
 107370472.697 8  83665304.23447  20431919.739    20431919.018
  20431920.155          50.250          45.7504
 110883583.944 8  86402795.994 8  21100442.947    21100443.137    21100444.175
  21100443.840          52.000          50.750
 122127511.317 7  95164299.85244  23240091.212    23240090.840
  23240092.174          42.250          29.5004
 20  1  5  0 40  0.0000000  0  8G16G29G10G27G21G20G15G13
 130245746.334 6 101490193.23643  24784942.524    24784941.787
  24784942.969          39.750          21.7504
 123738745.567 7  96419798.955 7  23546697.297    23546697.633    23546699.617
  23546698.922          43.500          43.250
 117339624.228 8  91433477.348 8  22328987.359    22328987.436    22328990.575
  22328990.845          48.000          49.750
 121650620.129 7  94792694.331 7  23149343.466    23149343.333    23149346.580
  23149346.893          43.500          46.250
 109626739.958 7  85423434.69847  20861271.689    20861271.294
  20861272.082          47.500          46.5004
 107338120.864 8  83640095.01347  20425763.457    20425762.687
  20425763.803          50.250          46.2504
 110932757.106 8  86441112.748 8  21109800.253    21109800.419    21109801.581
  21109801.301          51.250          50.750
 122210283.768 6  95228797.87444  23255842.445    23255842.595
  23255842.918          41.250          29.2504
 20  1  5  0 40 30.0000000  0  8G16G29G10G27G21G20G15G13
 130310942.054 6 101540995.08943  24797347.497    24797348.406
  24797349.482          38.750          22.7504
 123852241.422 7  96508237.291 7  23568295.034    23568295.305    23568296.864
  23568296.963          43.250          43.750
 117271302.535 7  91380239.676 8  22315986.080    22315986.304    22315989.117
  22315989.455          47.500          49.500
 121579479.385 7  94737259.988 7  23135805.757    23135805.768    23135808.949
  23135808.474          43.750          45.750
 109618535.149 7  85417041.34747  20859710.536    20859709.871
  20859710.859          47.500          46.2504
 107306082.823 8  83615130.30847  20419666.653    20419666.044
  20419667.135          50.250          46.2504
 110982486.360 8  86479862.824 8  21119263.583    21119263.602    21119264.823
  21119264.438          51.500          50.750
 122293453.957 6  95293605.81744  23271669.069    23271669.265
  23271669.740          41.250          29.0004
 20  1  5  0 41  0.0000000  0  8G16G29G10G27G21G20G15G13
 130376452.441 6 101592042.11343  24809815.115    24809814.628
  24809815.029          39.000          20.5004
 123965880.718 7  96596787.363 7  23589919.604    23589919.992    23589921.552
  23589921.922          43.250          43.250
 117203202.047 7  91327174.382 8  22303026.808    22303026.860    22303030.154
  22303030.784          46.250          50.250
 121508787.853 7  94682175.680 7  23122353.686    23122353.610    23122356.696
  23122356.603          42.750          46.250
 109610629.442 7  85410881.05647  20858206.011    20858205.554
  20858206.463          47.000          46.2504
 107274356.523 8  83590408.51847  20413629.396    20413628.691
  20413629.974          50.000          46.2504
 111032767.624 8  86519043.032 8  21128831.954    21128831.946    21128832.999
  21128832.778          51.500          50.500
 122377017.175 7  95358720.00244  23287570.771    23287570.973
  23287572.170          42.000          28.7504
 20  1  5  0 41 30.0000000  0  8G16G29G10G27G21G20G15G13
 130442274.723 6 101643332.20843  24822339.902    24822339.579
  24822341.549          39.500          21.5004
 124079660.932 7  96685447.250 7  23611571.232    23611571.210    23611573.520
  23611573.467          42.250          42.750
 117135323.131 7  91274281.720 8  22290109.857    22290110.008    22290113.193
  22290113.607          47.000          50.000
 121438547.986 7  94627443.311 7  23108987.448    23108986.919    23108990.187
  23108990.224          43.500          46.250
 109603024.303 7  85404954.97347  20856758.852    20856758.177
  20856759.138          47.000          46.2504
 107242942.005 8  83565929.67847  20407651.387    20407650.889
  20407651.909          50.000          46.2504
 111083598.640 8  86558651.611 8  21138504.549    21138504.593    21138505.613
  21138505.528          51.000          50.500
 122460970.719 6  95424138.33444  23303546.748    23303546.136
  23303547.128          41.750          29.5004
 20  1  5  0 42  0.0000000  0  8G16G29G10G27G21G20G15G13
 130508406.987 6 101694863.83543  24834923.889    24834924.007
  24834925.462          38.750          19.5004
 124193579.930 7  96774215.290 7  23633249.796    23633249.091    23633250.791
  23633251.211          42.500          42.500
 117067666.658 7  91221562.407 8  22277235.454    22277235.412    22277238.742
  22277238.884          46.750          50.000
 121368762.647 7  94573065.129 7  23095707.608    23095707.639    23095710.694
  23095710.999          43.000          46.500
 109595721.085 7  85399264.15047  20855369.255    20855368.596
  20855369.468          47.500          46.5004
 107211840.138 8  83541694.45747  20401732.815    20401732.263
  20401733.361          49.750          46.0004
 111134977.640 8  86598687.197 8  21148281.572    21148281.848    21148282.630
  21148282.682          51.750          50.500
 122545312.573 6  95489859.27644  23319596.687    23319596.592
  23319597.157          41.750          29.2504
 20  1  5  0 42 30.0000000  0  8G16G29G10G27G21G20G15G13
 130574845.059 6 101746633.74643  24847567.228    24847567.249
  24847567.281          39.250          21.5004
 124307634.480 6  96863088.948 7  23654952.979    23654953.032    23654955.479
  23654955.810          41.500          43.000
 117000232.578 7  91169016.375 8  22264402.770    22264403.114    22264406.388
  22264406.945          47.000          50.250
 121299433.957 7  94519042.776 7  23082515.234    23082514.777    23082518.307
  23082518.352          44.000          46.250
 109588720.710 7  85393809.31947  20854036.883    20854036.447
  20854037.332          47.000          46.2504
 107181050.629 8  83517702.63947  20395873.983    20395873.238
  20395874.196          49.500          46.2504
 111186902.558 8  86639148.175 8  21158162.662    21158162.907    21158163.768
  21158163.494          51.500          50.500
 122630039.565 7  95555880.30145  23335719.619    23335719.190
  23335721.183          42.000          30.0004
 20  1  5  0 43  0.0000000  0  8G16G29G10G27G21G20G15G13
 130641587.226 6 101798640.60343  24860268.195    24860268.164
  24860268.883          39.000          19.7504
 124421822.436 7  96952066.582 7  23676682.657    23676683.030    23676684.387
  23676684.222          42.750          42.500
 116933021.644 7  91116644.230 8  22251613.235    22251613.248    22251616.431
  22251616.852          47.500          50.250
 121230564.719 7  94465378.441 7  23069410.113    23069409.414    23069413.005
  23069412.479          43.750          46.250
 109582024.585 7  85388591.56247  20852762.849    20852762.216
  20852763.049          46.250          46.2504
 107150574.136 8  83493954.72947  20390074.495    20390073.736
  20390074.965          49.750          46.2504
 111239371.887 8  86680033.366 8  21168147.178    21168147.380    21168148.185
  21168148.172          50.750          50.250
 122715149.550 7  95622199.75945  23351916.052    23351915.268
  23351916.327          42.250          30.2504
 20  1  5  0 43 30.0000000  0  9G24G16G29G10G27G21G20G15G13
 127258299.270 6  99162311.877 6  24216449.561    24216449.255    24216452.950
  24216454.040          37.250          38.750
 130708629.278 6 101850881.17843  24873025.190    24873024.035
  24873025.825          37.500          18.7504
 124536140.528 6  97041145.622 6  23698436.490    23698436.677    23698437.841
  23698437.394          41.250          41.250
 116866033.335 7  91064445.552 8  22238865.653    22238865.789    22238869.239
  22238869.739          45.750          50.750
 121162156.333 7  94412073.210 7  23056391.426    23056391.435    23056394.991
  23056394.825          42.000          46.250
 109575632.867 7  85383611.00147  20851546.624    20851546.012
  20851546.783          46.500          46.0004
 107120409.505 8  83470449.82947  20384334.232    20384333.634
  20384334.665          50.000          45.7504
 111292382.216 8  86721340.121 8  21178234.672    21178234.997    21178235.577
  21178235.702          50.500          50.250
 122800638.535 7  95688814.55644  23368184.001    23368183.701
  23368184.460          42.500          29.0004
 20  1  5  0 44  0.0000000  0  9G24G16G29G10G27G21G20G15G13
 127170765.959 6                  24199793.122
                        38.250
 130775969.501 6 101903354.06543  24885839.924    24885839.008
  24885841.479          38.000          18.5004
 124650587.035 7  97130324.716 6  23720215.757    23720215.433    23720216.318
  23720216.818          42.250          41.500
 116799269.099 7  91012421.492 8  22226161.245    22226161.442    22226164.377
  22226164.743          47.250          50.500
 121094212.342 7  94359129.840 7  23043462.377    23043462.242    23043465.857
  23043465.541          43.500          46.250
 109569547.673 7  85378869.30047  20850388.624    20850387.860
  20850388.772          47.000          46.2504
 107090558.079 8  83447188.97047  20378653.744    20378652.943
  20378654.131          49.500          46.2504
 111345932.717 8  86763067.786 8  21188425.011    21188425.042    21188426.114
  21188426.071          50.750          50.250
 122886505.655 6  95755724.00044  23384523.250    23384524.490
  23384524.301          40.750          28.7504
 20  1  5  0 44 30.0000000  0  9G24G16G29G10G27G21G20G15G13
 127083371.794 6  99026009.379 7  24183162.399    24183161.240    24183166.608
  24183167.237          37.000          44.500
 130843605.162 6 101956057.17143  24898711.842    24898710.280
  24898710.794          38.750          19.7504
 124765159.138 7  97219601.679 7  23742017.732    23742017.317    23742019.109
  23742019.399          42.250          42.000
 116732729.251 7  90960572.272 8  22213498.910    22213499.084    22213502.245
  22213502.318          47.750          50.250
 121026735.048 7  94306550.122 7  23030621.732    23030621.786    23030624.668
  23030625.248          43.250          46.250
 109563769.896 7  85374367.13147  20849289.139    20849288.586
  20849289.329          47.250          46.2504
 107061019.888 8  83424172.20647  20373032.725    20373032.015
  20373033.180          49.250          46.0004
 111400021.203 8  86805214.664 8  21198717.619    21198718.033    21198718.964
  21198718.606          50.750          50.000
 122972747.772 6  95822925.64144  23400933.725    23400934.168
  23400935.847          40.250          28.2504
 20  1  5  0 45  0.0000000  0  9G24G16G29G10G27G21G20G15G13
 126996116.850 6  98958018.500 6  24166557.790    24166557.773    24166561.345
  24166561.246          37.500          41.250
 130911532.693 6 102008987.69342  24911635.200    24911634.647
  24911637.011          37.250          16.0004
 124879853.644 7  97308973.996 7  23763843.478    23763844.148    23763844.437
  23763844.718          42.750          42.000
 116666413.454 7  90908897.637 8  22200879.351    22200879.627    22200882.798
  22200882.883          47.750          50.250
 120959726.129 7  94254335.376 7  23017870.743    23017870.462    23017873.691
  23017873.519          44.000          46.250
 109558300.232 7  85370105.05047  20848248.226    20848247.621
  20848248.524          47.500          46.2504
 107031794.507 8  83401399.18947  20367471.260    20367470.502
  20367471.845          49.500          46.0004
 111454644.928 8  86847778.604 8  21209112.317    21209112.426    21209113.715
  21209113.225          50.500          50.500
 123059361.721 6  95890417.03044  23417416.261    23417416.194
  23417417.557          39.500          27.7504
 20  1  5  0 45 30.0000000  0  9G24G16G29G10G27G21G20G15G13
 126909004.330 6  98890138.655 7  24149981.142    24149981.620    24149985.475
  24149986.572          37.500          43.250
 130979748.840 6 102062143.14942  24924618.705    24924618.031
  24924619.282          38.000          16.0004
 124994667.995 6  97398439.739 7  23785691.818    23785692.170    23785693.456
  23785692.944          41.750          42.250
 116600322.013 8  90857397.815 8  22188302.768    22188302.937    22188305.776
  22188306.272          48.000          50.500
 120893187.886 7  94202487.391 7  23005208.634    23005208.419    23005212.213
  23005212.093          43.500          46.500
 109553139.604 7  85366083.77547  20847266.241    20847265.532
  20847266.387          46.500          46.2504
 107002881.727 8  83378869.75047  20361969.432    20361968.627
  20361969.916          49.500          46.2504
 111509801.657 8  86890757.879 8  21219608.370    21219608.331    21219609.317
  21219609.102          50.250          50.000
 123146344.894 6  95958196.13644  23433968.695    23433968.753
  23433969.462          40.000          27.7504
 20  1  5  0 46  0.0000000  0  8G16G29G10G27G21G20G15G13
 131048250.390 6 102115520.96842  24937653.490    24937653.247
  24937654.504          37.750          15.7504
 125109599.194 6  97487996.500 7  23807561.968    23807561.859    23807564.265
  23807563.946          41.500          42.750
 116534455.088 7  90806072.944 8  22175768.166    22175768.235    22175771.814
  22175772.040          47.500          50.250
 120827122.442 7  94151007.838 7  22992636.648    22992636.485    22992639.951
  22992640.150          44.000          46.750
 109548288.930 7  85362304.02447  20846342.996    20846342.484
  20846343.328          46.750          46.2504
 106974281.276 8  83356583.67847  20356526.950    20356526.190
  20356527.327          49.250          46.2504
 111565488.895 8  86934150.530 8  21230205.138    21230205.318    21230206.190
  21230206.109          50.500          50.250
 123233694.259 6  96026260.55744  23450590.839    23450591.047
  23450591.547          40.250          27.5004
 20  1  5  0 46 30.0000000  0  8G29G10G27G24G21G20G15G13
 125224644.356 6  97577642.079 7  23829454.693    23829454.877    23829456.557
  23829455.913          41.500          42.500
 116468812.728 8  90754923.057 8  22163277.268    22163277.406    22163280.571
  22163280.918          48.000          50.500
 120761531.873 7  94099898.311 7  22980155.278    22980155.208    22980158.801
  22980158.820          44.250          46.750
 126735220.045 6  98754721.561 6  24116911.738    24116911.936    24116915.296
  24116914.822          37.500          39.000
 109543748.853 7  85358766.30347  20845479.229    20845478.531
  20845479.331          47.250          46.2504
 106945993.818 8  83334541.51347  20351144.151    20351143.292
  20351144.481          49.500          46.0004
 111621704.303 8  86977954.744 8  21240902.461    21240902.845    21240903.747
  21240903.560          50.250          50.250
 123321406.749 6  96094607.95744  23467281.944    23467282.019
  23467283.017          40.750          28.7504
 20  1  5  0 47  0.0000000  0  8G24G29G10G27G21G20G15G13
 126648559.150 6                  24100419.196
                        37.500
 125339802.296 6  97667375.527 7  23851368.396    23851368.923    23851370.654
  23851370.107          41.250          43.000
 116403396.752 7  90703949.582 8  22150828.836    22150829.005    22150832.499
  22150832.913          47.750          51.000
 120696419.915 7  94049161.720 7  22967765.297    22967764.828    22967768.638
  22967768.339          44.250          47.000
 109539522.205 7  85355472.81447  20844675.017    20844674.285
  20844675.158          47.500          46.2504
 106918020.262 8  83312743.92847  20345820.871    20345820.050
  20345821.212          49.500          46.2504
 111678447.299 8  87022170.063 8  21251700.565    21251700.850    21251701.372
  21251701.586          50.250          50.250
 123409481.347 6  96163237.52844  23484041.879    23484042.075
  23484043.311          40.750          28.5004
 20  1  5  0 47 30.0000000  0  7G29G10G27G21G20G15G13
 125455069.238 6  97757193.881 7  23873302.893    23873303.512    23873305.016
  23873304.638          41.000          43.000
 116338206.227 7  90653151.778 8  22138423.463    22138423.551    22138426.730
  22138426.886          47.500          50.250
 120631787.618 7  93998798.891 7  22955466.512    22955466.060    22955468.940
  22955469.419          44.500          46.750
 109535608.645 7  85352423.29447  20843930.214    20843929.545
  20843930.282          47.250          46.5004
 106890359.696 8  83291190.24447  20340557.141    20340556.450
  20340557.729          49.750          46.0004
 111735713.950 8  87066793.431 8  21262597.985    21262598.227    21262598.972
  21262598.720          50.500          50.000
 123497914.069 6  96232146.12444  23500870.288    23500870.055
  23500871.061          39.500          27.7504
 20  1  5  0 48  0.0000000  0  8G24G29G10G27G21G20G15G13
 126475693.155 6  98552487.613 6  24067524.493    24067524.671    24067528.219
  24067528.737          36.500          41.250
 125570441.659 6  97847094.444 7  23895258.089    23895257.786    23895259.480
  23895259.365          41.250          42.000
 116273240.710 8  90602529.301 8  22126061.257    22126061.207    22126064.339
  22126064.707          48.500          50.750
 120567636.478 7  93948810.985 7  22943258.449    22943258.641    22943261.098
  22943261.572          44.000          47.000
 109532008.592 7  85349618.06247  20843244.977    20843244.416
  20843245.155          46.500          46.2504
 106863011.390 8  83269879.88447  20335352.727    20335352.168
  20335353.430          49.500          46.0004
 111793501.911 8  87111823.022 8  21273594.496    21273594.630    21273595.835
  21273595.514          49.750          49.750
 123586701.373 6  96301331.05844  23517766.036    23517765.147
  23517766.559          39.750          28.0004
 20  1  5  0 48 30.0000000  0  8G24G29G10G27G21G20G15G13
 126389507.127 6                  24051124.229
                        38.750
 125685918.259 6  97937076.211 6  23917232.788    23917232.651    23917234.485
  23917233.552          41.750          41.250
 116208501.725 8  90552083.350 8  22113741.525    22113741.879    22113744.779
  22113745.203          48.250          50.750
 120503969.953 7  93899200.710 7  22931143.248    22931143.135    22931145.999
  22931145.912          44.500          46.250
 109528724.192 7  85347058.78347  20842620.157    20842619.445
  20842620.372          47.750          46.5004
 106835976.616 8  83248813.84347  20330208.279    20330207.664
  20330208.837          49.750          46.2504
 111851809.817 8  87157257.746 8  21284690.352    21284690.264    21284691.060
  21284691.255          50.250          49.750
 123675842.066 6  96370791.33144  23534727.842    23534728.888
  23534729.594          39.500          27.5004
 20  1  5  0 49  0.0000000  0  8G24G29G10G27G21G20G15G13
 126303476.317 6                  24034752.465
                        36.000
 125801495.670 7  98027136.518 6  23939226.413    23939226.141    23939228.155
  23939227.777          42.750          41.750
 116143988.971 7  90501813.677 8  22101465.264    22101465.587    22101468.457
  22101468.612          47.500          50.750
 120440789.662 7  93849969.323 7  22919120.558    22919119.983    22919123.233
  22919123.304          42.250          46.500
 109525755.809 7  85344745.75647  20842055.313    20842054.601
  20842055.314          46.500          46.2504
 106809254.754 8  83227991.62247  20325123.300    20325122.721
  20325123.847          49.750          46.2504
 111910634.996 8  87203095.549 8  21295884.197    21295884.471    21295885.690
  21295885.262          50.000          50.000
 123765332.692 6  96440524.26844  23551758.519    23551758.202
  23551758.986          38.750          27.2504
 20  1  5  0 49 30.0000000  0  7G29G10G27G21G20G15G13
 125917171.745 7  98117273.717 6  23961238.881    23961239.294    23961239.917
  23961239.970          42.250          40.750
 116079703.264 8  90451720.924 8  22089231.890    22089232.052    22089235.263
  22089235.818          48.500          50.750
 120378098.357 7  93801118.960 7  22907190.709    22907189.947    22907193.455
  22907193.683          43.750          46.500
 109523104.796 7  85342680.01647  20841550.689    20841550.116
  20841550.894          47.250          46.2504
 106782846.579 8  83207413.82147  20320098.078    20320097.343
  20320098.489          49.750          46.0004
 111969975.594 8  87249334.980 8  21307176.462    21307176.609    21307177.225
  21307177.319          50.000          49.500
 123855170.840 6  96510528.01744  23568853.931    23568854.739
  23568854.429          40.000          27.0004
 20  1  5  0 50  0.0000000  0  7G29G10G27G21G20G15G13
 126032941.757 7  98207484.112 6  23983269.103    23983269.023    23983270.559
  23983269.926          42.250          40.000
 116015642.637 8  90401803.565 8  22077041.671    22077041.708    22077044.953
  22077045.225          48.500          50.750
 120315895.938 7  93752649.549 7  22895353.877    22895353.760    22895357.111
  22895356.622          44.000          46.750
 109520770.140 7  85340860.79747  20841106.309    20841105.812
  20841106.658          46.750          46.2504
 106756749.931 8  83187078.76247  20315132.173    20315131.332
  20315132.573          49.750          46.2504
 112029826.946 8  87295972.397 8  21318565.809    21318565.868    21318566.839
  21318566.575          50.000          49.750
 123945351.697 6  96580798.81444  23586015.069    23586015.067
  23586015.319          40.000          27.2504
 20  1  5  0 50 30.0000000  0  7G29G10G27G21G20G15G13
 126148804.950 7  98297767.128 6  24005317.344    24005317.032    24005317.931
  24005318.023          43.000          40.000
 115951809.313 8  90352063.316 8  22064894.681    22064895.021    22064897.728
  22064898.192          48.250          50.750
 120254186.568 7  93704564.328 7  22883611.013    22883610.963    22883614.261
  22883613.721          43.250          47.500
 109518754.907 7  85339290.48047  20840722.913    20840722.342
  20840723.262          46.750          46.2504
 106730966.527 8  83166987.80647  20310225.522    20310224.930
  20310226.118          49.750          46.2504
 112090188.642 8  87343007.480 8  21330052.105    21330052.494    21330053.274
  21330053.184          50.250          49.750
 124035874.514 6  96651336.10544  23603241.004    23603240.669
  23603241.149          39.500          27.0004
 20  1  5  0 51  0.0000000  0  7G29G10G27G21G20G15G13
 126264758.938 7  98388120.875 6  24027382.287    24027381.902    24027382.998
  24027383.112          42.000          39.750
 115888203.921 8  90302500.684 8  22052790.788    22052790.953    22052794.602
  22052794.712          48.750          51.250
 120192972.713 7  93656865.216 7  22871962.542    22871962.426    22871965.805
  22871965.799          44.500          47.500
 109517060.318 7  85337970.01847  20840400.696    20840399.866
  20840400.736          46.000          46.2504
 106705496.928 8  83147141.36447  20305378.730    20305378.282
  20305379.430          50.000          46.0004
 112151058.808 8  87390438.782 8  21341635.294    21341635.555    21341636.912
  21341636.439          50.000          49.750
 124126736.853 6  96722137.92244  23620530.719    23620530.770
  23620531.704          39.000          26.7504
 20  1  5  0 51 30.0000000  0  7G29G10G27G21G20G15G13
 126380800.295 7  98478542.689 6  24049464.813    24049464.417    24049465.029
  24049465.905          42.750          40.000
 115824826.228 8  90253115.490 8  22040730.574    22040730.761    22040734.106
  22040734.519          48.500          51.250
 120132256.055 7  93609553.527 7  22860408.482    22860408.039    22860411.707
  22860411.289          44.000          47.500
 109515686.820 7  85336899.76447  20840138.929    20840138.480
  20840139.449          45.750          46.2504
 106680340.826 8  83127539.21647  20300591.922    20300591.158
  20300592.374          49.750          46.0004
 112212434.556 8  87438264.037 8  21353314.614    21353315.042    21353315.774
  21353315.613          49.750          49.500
 124217935.421 6  96793201.74544  23637885.501    23637886.534
  23637886.678          39.000          27.0004
 20  1  5  0 52  0.0000000  0  8G29G10G27G24G21G20G15G13
 126496926.754 7  98569030.842 6  24071562.161    24071562.133    24071564.125
  24071564.206          42.750          41.250
 115761676.653 8  90203908.029 8  22028713.455    22028713.527    22028716.681
  22028717.194          48.250          51.000
 120072038.808 7  93562631.004 7  22848949.386    22848949.193    22848952.053
  22848952.709          44.500          47.250
 125790986.605 6  98018953.527 6  23937229.025    23937228.508    23937232.720
  23937233.062          38.000          37.500
 109514635.430 7  85336080.50447  20839938.793    20839938.420
  20839939.248          46.500          46.0004
 106655498.153 8  83108181.27947  20295864.506    20295863.639
  20295864.953          50.000          46.0004
 112274313.741 8  87486481.589 8  21365090.079    21365090.125    21365091.262
  21365091.005          50.250          50.000
 124309467.706 6  96864525.57944  23655303.340    23655303.803
  23655304.565          39.000          26.0004
 20  1  5  0 52 30.0000000  0  8G29G10G27G24G21G20G15G13
 126613135.392 7  98659583.012 6  24093676.064    24093676.439    24093678.292
  24093677.996          42.250          41.750
 115698755.061 8  90154878.218 8  22016739.863    22016740.212    22016743.186
  22016743.664          49.000          51.500
 120012322.723 7  93516098.989 7  22837585.565    22837585.701    22837588.743
  22837589.279          44.500          47.250
 125706210.184 6  97952894.003 7  23921096.740    23921097.268    23921100.401
  23921100.979          38.750          42.250
 109513907.021 7  85335512.91847  20839800.490    20839799.729
  20839800.659          47.250          46.2504
 106630968.633 8  83089067.36547  20291196.848    20291196.056
  20291197.264          49.750          46.2504
 112336693.342 8  87535089.079 8  21376960.763    21376960.751    21376961.559
  21376961.367          50.500          49.500
 124401330.456 6  96936106.95444  23672784.791    23672784.995
  23672785.556          39.250          26.7504
 20  1  5  0 53  0.0000000  0  9G32G29G10G27G24G21G20G15G13
 130492569.817 6 101682563.946 6  24831921.480    24831921.074    24831925.330
  24831925.655          36.000          38.000
 126729423.878 7  98750197.391 6  24115805.045    24115804.320    24115806.748
  24115806.084          42.500          41.000
 115636061.993 8  90106026.490 8  22004810.062    22004809.919    22004813.353
  22004813.705          48.750          51.500
 119953110.154 7  93469959.321 7  22826318.096    22826317.801    22826321.430
  22826321.302          43.750          47.500
 125621624.903 6  97886983.401 6  23905000.409    23905001.183    23905004.573
  23905004.494          39.000          41.250
 109513502.799 7  85335197.93447  20839723.279    20839722.933
  20839723.892          47.250          46.0004
 106606752.445 8  83070197.62047  20286588.508    20286587.732
  20286588.977          49.500          46.2504
 112399571.405 8  87584084.968 8  21388925.758    21388925.821    21388926.671
  21388926.803          50.250          49.250
 124493521.246 6  97007943.91544  23690327.842    23690329.078
  23690329.126          39.500          27.0004
 20  1  5  0 53 30.0000000  0  8G29G10G27G24G21G20G15G13
 126845788.348 7  98840870.961 6  24137948.761    24137948.892    24137950.392
  24137950.411          43.250          41.000
 115573596.738 8  90057352.276 8  21992923.091    21992923.416    21992926.510
  21992926.747          49.000          51.250
 119894402.191 7  93424212.857 7  22815146.315    22815145.696    22815149.628
  22815149.655          44.250          47.250
 125537233.274 6  97821223.722 6  23888941.215    23888941.838    23888945.625
  23888945.012          38.000          41.750
 109513422.790 7  85335135.58547  20839708.326    20839707.783
  20839708.559          47.500          46.2504
 106582848.802 8  83051571.40647  20282039.856    20282039.103
  20282040.304          49.500          46.5004
 112462944.530 8  87633466.619 8  21400985.295    21400985.424    21400986.086
  21400986.212          50.250          49.500
 124586036.447 6  97080033.69444  23707933.352    23707933.035
  23707934.090          39.750          26.5004
 20  1  5  0 54  0.0000000  0  8G29G10G27G24G21G20G15G13
 126962227.211 7  98931602.553 6  24160106.709    24160106.132    24160107.565
  24160107.442          43.750          40.500
 115511360.464 8  90008856.496 8  21981079.747    21981080.097    21981083.403
  21981083.721          49.000          51.500
 119836201.847 7  93378861.947 7  22804071.062    22804070.906    22804074.113
  22804073.917          45.000          47.000
 125453039.836 6  97755618.430 7  23872919.414    23872919.291    23872925.193
  23872924.185          37.250          42.500
 109513668.705 8  85335327.20547  20839754.856    20839754.504
  20839755.464          48.000          46.2504
 106559258.641 8  83033189.47647  20277550.957    20277549.995
  20277551.242          49.500          46.0004
 112526811.272 8  87683232.909 8  21413138.630    21413138.711    21413139.638
  21413139.746          50.500          49.250
 124678873.955 6  97152374.60744  23725599.680    23725599.142
  23725599.725          39.000          25.7504
 20  1  5  0 54 30.0000000  0  8G29G10G27G24G21G20G15G13
 127078737.838 7  99022390.022 6  24182276.980    24182277.725    24182278.304
  24182278.752          42.500          39.750
 115449353.505 8  89960539.395 8  21969280.618    21969280.691    21969283.424
  21969283.986          49.250          51.250
 119778511.233 7  93333908.210 7  22793093.069    22793092.735    22793095.929
  22793095.927          45.000          47.500
 125369047.497 6  97690169.834 6  23856936.327    23856935.719    23856939.950
  23856940.685          36.000          41.500
 109514241.461 8  85335773.50247  20839864.090    20839863.450
  20839864.401          48.000          46.2504
 106535981.881 8  83015051.74247  20273121.254    20273120.613
  20273121.745          49.500          46.5004
 112591169.403 8  87733382.106 8  21425385.781    21425385.837    21425386.832
  21425386.654          50.500          49.500
 124772031.366 6  97224964.77444  23743327.136    23743327.199
  23743326.751          39.500          26.2504
 20  1  5  0 55  0.0000000  0  9G32G29G10G27G24G21G20G15G13
 130043409.946 6 101332530.731 5  24746438.662    24746439.073    24746441.256
  24746442.630          38.500          35.750
 127195317.442 7  99113231.253 6  24204461.604    24204461.550    24204463.374
  24204462.807          42.750          40.750
 115387576.042 8  89912401.121 8  21957524.314    21957524.446    21957527.978
  21957528.201          49.000          51.500
 119721332.288 7  93289353.185 7  22782212.090    22782211.657    22782215.508
  22782215.321          45.000          47.500
 125285259.408 6  97624880.421 7  23840991.694    23840991.182    23840996.433
  23840995.827          36.750          42.250
 109515142.107 7  85336475.30147  20840035.499    20840034.798
  20840035.716          47.750          46.2504
 106513018.834 8  82997158.44647  20268751.824    20268750.989
  20268752.097          49.500          46.5004
 112656016.419 8  87783912.251 8  21437725.741    21437725.923    21437726.513
  21437726.390          50.500          49.000
 124865505.634 6  97297801.87644  23761114.479    23761115.348
  23761115.143          40.500          25.5004
 20  1  5  0 55 30.0000000  0  9G32G29G10G27G24G21G20G15G13
 129931231.304 6 101245118.754 6  24725091.893    24725092.790    24725094.916
  24725094.694          38.250          38.500
 127311962.683 7  99204123.637 6  24226658.715    24226658.835    24226659.707
  24226659.632          43.000          40.000
 115326027.669 8  89864441.368 8  21945812.193    21945812.390    21945815.586
  21945815.806          49.000          51.500
 119664666.424 7  93245197.970 7  22771428.572    22771428.857    22771432.068
  22771431.986          45.000          47.500
 125201679.002 6  97559752.821 7  23825086.124    23825087.526    23825092.625
  23825092.250          36.250          43.750
 109516370.854 7  85337432.76247  20840269.358    20840268.789
  20840269.684          46.750          46.2504
 106490368.522 8  82979508.85747  20264441.416    20264440.703
  20264441.782          49.500          46.5004
 112721349.129 8  87834820.863 8  21450158.070    21450158.201    21450158.973
  21450159.182          50.500          49.250
 124959293.518 6  97370883.35144  23778961.893    23778961.999
  23778961.833          39.750          25.5004
 20  1  5  0 56  0.0000000  0  9G32G29G10G27G24G21G20G15G13
 129819106.796 6 101157748.960 6  24703754.952    24703756.520    24703759.341
  24703759.391          38.750          39.750
 127428671.479 7  99295065.559 6  24248867.779    24248867.607    24248869.134
  24248868.941          42.750          39.750
 115264709.171 8  89816660.718 8  21934143.516    21934143.728    21934146.966
  21934147.367          49.250          51.250
 119608516.123 7  93201444.481 7  22760743.585    22760743.438    22760747.026
  22760747.250          45.000          47.500
 125118309.354 6  97494789.437 7  23809222.473    23809221.927    23809228.081
  23809227.189          36.500          44.250
 109517929.309 8  85338647.14247  20840565.770    20840565.362
  20840566.095          48.250          46.2504
 106468031.835 8  82962103.63947  20260190.723    20260190.093
  20260191.308          49.000          46.5004
 112787165.601 8  87886106.430 8  21462682.668    21462682.769    21462683.785
  21462683.392          50.500          49.250
 125053392.851 6  97444207.50744  23796868.383    23796867.569
  23796868.105          40.000          25.5004
 20  1  5  0 56 30.0000000  0  9G32G29G10G27G24G21G20G15G13
 129707037.865 6 101070422.528 6  24682430.473    24682429.401    24682434.313
  24682432.498          38.500          39.500
 127545440.730 7  99386054.550 6  24271087.972    24271088.389    24271089.193
  24271088.692          42.500          40.750
 115203620.130 8  89769058.884 8  21922518.797    21922518.946    21922522.163
  21922522.668          49.250          51.750
 119552882.729 7  93158093.786 7  22750157.405    22750157.198    22750160.490
  22750160.331          45.250          47.500
 125035152.886 6  97429992.208 7  23793398.802    23793398.566    23793402.613
  23793403.473          36.250          43.000
 109519817.797 8  85340118.68647  20840925.374    20840924.742
  20840925.563          48.500          46.5004
 106446008.199 8  82944942.37047  20256000.016    20255999.216
  20256000.339          49.000          46.5004
 112853462.788 8  87937766.578 8  21475298.646    21475298.712    21475299.393
  21475299.417          50.750          49.250
 125147800.053 6  97517771.54044  23814833.427    23814833.438
  23814833.130          39.750          25.5004
 20  1  5  0 57  0.0000000  0  9G24G32G29G10G27G21G20G15G13
 124952207.851 6  97365358.411 6  23777616.139    23777614.972    23777619.113
  23777620.355          36.250          41.250
 129595027.466 6 100983141.694 6  24661115.449    24661115.526    24661118.046
  24661118.549          37.750          38.750
 127662268.241 6  99477088.954 6  24293319.393    24293319.321    24293320.379
  24293320.359          41.750          39.750
 115142761.533 8  89721636.610 8  21910937.616    21910937.970    21910941.094
  21910941.462          49.000          51.500
 119497768.956 7  93115147.986 8  22739669.518    22739669.066    22739672.503
  22739672.704          44.750          48.000
 109522037.656 8  85341848.44147  20841347.774    20841347.155
  20841348.013          48.750          46.5004
 106424298.068 8  82928025.38347  20251868.662    20251867.792
  20251869.047          49.250          46.5004
 112920238.630 8  87989799.703 8  21488005.591    21488005.636    21488006.511
  21488006.466          50.750          49.000
 125242513.138 6  97591573.94044  23832857.302    23832855.539
  23832856.784          40.000          25.0004
 20  1  5  0 57 30.0000000  0  9G32G24G29G10G27G21G20G15G13
 129483077.365 6 100895907.848 6  24639812.486    24639811.774    24639814.623
  24639815.077          37.250          39.250
                  97300906.619 6                                  23761879.730
                                        40.000
 127779151.079 6  99568166.467 6  24315561.948    24315561.848    24315562.161
  24315562.702          41.750          38.500
 115082133.270 8  89674393.831 8  21899400.453    21899400.649    21899403.787
  21899404.208          49.000          51.250
 119443176.374 7  93072608.308 8  22729281.053    22729280.973    22729284.008
  22729284.119          45.500          48.000
 109524589.952 8  85343837.25047  20841833.575    20841832.722
  20841833.580          48.250          46.2504
 106402901.191 8  82911352.49647  20247796.900    20247796.158
  20247797.436          49.250          46.5004
 112987490.570 8  88042203.805 8  21500803.129    21500803.175    21500803.935
  21500804.141          50.500          48.750
 125337528.865 6  97665612.18544  23850937.635    23850937.351
  23850937.635          39.500          24.5004
 20  1  5  0 58  0.0000000  0  8G32G29G10G27G21G20G15G13
 129371189.642 6 100808722.630 6  24618519.651    24618520.157    24618523.425
  24618523.601          37.000          39.750
 127896086.723 6  99659285.134 6  24337813.821    24337814.827    24337814.548
  24337814.494          40.000          37.750
 115021735.361 8  89627330.511 8  21887907.523    21887907.480    21887910.707
  21887910.845          49.500          51.500
 119389106.733 7  93030476.122 8  22718992.015    22718991.686    22718994.797
  22718994.712          45.750          48.000
 109527475.261 8  85346085.53747  20842382.613    20842381.937
  20842382.721          49.000          46.5004
 106381817.332 8  82894923.51847  20243784.851    20243784.025
  20243785.255          49.000          46.2504
 113055215.967 8  88094976.840 8  21513690.678    21513690.863    21513691.960
  21513691.773          50.250          49.250
 125432844.310 6  97739883.94144  23869075.527    23869075.964
  23869075.921          39.750          24.5004
 20  1  5  0 58 30.0000000  0  8G32G29G10G27G21G20G15G13
 129259367.291 6 100721588.339 6  24597240.091    24597241.752    24597244.093
  24597244.017          37.000          40.500
 128013073.376 6  99750443.526 6  24360075.424    24360074.502    24360075.603
  24360076.780          41.000          36.500
 114961569.109 8  89580447.725 8  21876457.810    21876458.212    21876461.489
  21876461.657          49.500          51.750
 119335563.059 7  92988753.786 8  22708802.649    22708802.400    22708805.657
  22708805.899          45.000          48.250
 109530695.389 8  85348594.72747  20842995.506    20842994.596
  20842995.562          49.000          46.5004
 106361047.296 8  82878739.07547  20239832.325    20239831.715
  20239832.909          49.000          46.2504
 113123413.289 8  88148117.605 8  21526668.522    21526668.386    21526669.615
  21526669.394          50.250          49.000
 125528457.975 6  97814388.09844  23887270.351    23887269.463
  23887270.135          39.750          24.0004
 20  1  5  0 59  0.0000000  0  8G32G29G10G27G21G20G15G13
 129147611.116 6 100634505.610 6  24575973.681    24575974.592    24575978.485
  24575977.607          37.250          41.250
 128130106.953 7  99841638.532 6  24382346.153    24382346.767    24382346.688
  24382346.406          42.250          37.000
 114901633.377 8  89533744.559 8  21865052.885    21865052.935    21865055.986
  21865056.381          49.750          52.000
 119282545.750 7  92947441.595 8  22698713.370    22698713.537    22698716.993
  22698717.032          44.750          48.000
 109534249.803 8  85351364.39847  20843671.760    20843671.035
  20843671.698          49.500          46.5004
 106340590.115 8  82862798.41147  20235939.425    20235938.810
  20235939.998          49.000          46.2504
 113192078.665 8  88201623.089 8  21539734.806    21539735.213    21539735.680
  21539735.797          50.500          48.750
 125624365.588 6  97889121.30744  23905520.642    23905521.080
  23905521.525          39.500          24.2504
 20  1  5  0 59 30.0000000  0  8G32G29G10G27G21G20G15G13
 129035924.598 6 100547477.175 6  24554719.987    24554721.388    24554724.628
  24554724.138          37.750          41.000
 128247186.219 7  99932869.127 6  24404626.155    24404625.346    24404626.977
  24404626.588          42.750          38.250
 114841929.653 8  89487222.198 8  21853691.504    21853691.313    21853694.585
  21853694.950          49.250          51.500
 119230058.011 7  92906542.065 7  22688725.636    22688725.769    22688728.509
  22688728.656          45.250          47.750
 109538140.675 8  85354396.23947  20844412.288    20844411.525
  20844412.185          49.500          46.5004
 106320447.160 8  82847102.60147  20232106.560    20232105.869
  20232106.886          49.000          46.2504
 113261210.877 8  88255492.340 8  21552890.495    21552890.474    21552891.408
  21552891.413          50.000          49.250
 125720565.713 6  97964082.44744  23923827.340    23923826.984
  23923827.212          39.250          24.7504
 20  1  5  1  0  0.0000000  0  9G24G32G29G10G27G21G20G15G13
 124459323.512 6  96981288.932 5  23683822.096    23683822.142    23683825.365
  23683822.745          37.750          34.500
 128924307.950 6 100460503.180 6  24533480.853    24533480.739    24533485.670
  24533485.225          37.500          41.500
 128364306.449 7 100024131.627 6  24426912.818    24426913.005    24426914.057
  24426913.492          43.250          38.250
 114782456.284 8  89440879.308 8  21842374.225    21842374.404    21842377.312
  21842377.669          50.000          52.000
 119178099.825 7  92866055.171 8  22678838.269    22678838.007    22678841.769
  22678841.728          44.750          48.250
 109542366.706 8  85357689.25047  20845216.460    20845215.724
  20845216.343          49.750          46.5004
 106300616.494 8  82831650.13447  20228332.863    20228332.246
  20228333.223          49.000          46.2504
 113330805.324 8  88309721.787 8  21566133.632    21566133.988    21566134.814
  21566134.711          50.250          49.000
 125817053.497 6  98039267.71644  23942187.612    23942187.826
  23942188.679          39.000          24.7504
 20  1  5  1  0 30.0000000  0  9G24G32G29G10G27G21G20G15G13
 124377996.449 6  96917917.186 7  23668346.886    23668347.129    23668350.067
  23668349.826          39.500          42.250
 128812765.234 6 100373586.807 6  24512254.525    24512254.930    24512259.235
  24512259.676          36.750          41.250
 128481467.292 7 100115425.792 6  24449208.493    24449208.085    24449209.291
  24449209.356          43.750          38.000
 114723215.369 8  89394717.576 8  21831100.972    21831100.921    21831104.110
  21831104.518          50.000          52.000
 119126674.956 7  92825983.840 8  22669052.545    22669052.527    22669056.035
  22669055.870          45.750          48.500
 109546931.525 8  85361246.24947  20846085.002    20846084.436
  20846085.168          49.500          46.5004
 106281099.166 8  82816441.82947  20224618.723    20224618.057
  20224619.250          48.750          46.2504
 113400861.399 8  88364310.933 8  21579465.011    21579465.163    21579465.929
  21579465.972          50.000          48.750
 125913828.248 6  98114676.62544  23960603.586    23960603.327
  23960604.702          39.250          24.5004
 20  1  5  1  1  0.0000000  0  9G24G32G29G10G27G21G20G15G13
 124296912.734 6  96854735.058 7  23652917.372    23652916.817    23652920.885
  23652920.424          39.750          42.000
 128701297.786 6 100286729.076 6  24491043.024    24491044.297    24491047.871
  24491047.048          38.250          41.750
 128598665.161 7 100206748.809 6  24471510.391    24471510.860    24471511.374
  24471511.100          42.250          37.250
 114664206.373 8  89348736.535 8  21819872.118    21819872.157    21819874.925
  21819875.494          50.250          51.750
 119075784.380 7  92786328.842 8  22659368.584    22659367.917    22659371.434
  22659371.618          45.250          48.250
 109551834.864 8  85365067.02947  20847018.084    20847017.185
  20847018.080          49.250          46.2504
 106261895.842 8  82801478.20947  20220964.397    20220963.739
  20220964.916          48.500          46.2504
 113471375.789 8  88419257.217 8  21592883.665    21592883.711    21592884.461
  21592884.289          50.500          48.500
 126010886.309 6  98190306.25444  23979072.811    23979073.144
  23979074.010          38.750          24.2504
 20  1  5  1  1 30.0000000  0  9G24G32G29G10G27G21G20G15G13
 124216075.975 6  96791745.370 7  23637533.741    23637533.962    23637537.984
  23637538.526          39.250          43.000
 128589908.295 6 100199932.080 6  24469847.119    24469847.429    24469850.086
  24469850.452          39.500          40.250
 128715897.781 6 100298098.896 6  24493818.394    24493818.656    24493818.524
  24493819.256          39.750          38.500
 114605430.024 8  89302936.808 8  21808686.592    21808686.993    21808690.255
  21808690.623          49.750          51.750
 119025430.440 7  92747092.007 8  22649786.295    22649786.344    22649789.631
  22649789.366          45.250          48.500
 109557077.977 8  85369152.57447  20848015.873    20848014.969
  20848015.765          49.750          46.5004
 106243006.497 8  82786759.23847  20217369.920    20217369.329
  20217370.384          49.000          46.5004
 113542346.537 8  88474559.098 8  21606388.592    21606389.028    21606389.729
  21606389.675          50.000          48.250
 126108225.613 6  98266155.07443  23997595.492    23997595.692
  23997596.760          38.000          23.7504
 20  1  5  1  2  0.0000000  0  9G24G32G29G10G27G21G20G15G13
 124135487.410 6  96728949.083 7  23622197.246    23622197.652    23622202.664
  23622203.034          37.750          43.500
 128478597.239 6 100113196.175 6  24448665.306    24448665.670    24448667.631
  24448667.929          39.500          39.000
 128833161.048 6 100389472.865 6  24516133.039    24516133.032    24516134.712
  24516133.773          40.250          38.500
 114546884.933 8  89257317.264 8  21797546.460    21797546.665    21797549.420
  21797549.866          50.750          51.750
 118975613.336 7  92708273.483 8  22640306.789    22640306.526    22640309.581
  22640309.720          45.000          48.250
 109562660.211 8  85373502.36447  20849077.785    20849077.201
  20849078.146          49.000          46.5004
 106224429.116 8  82772283.36347  20213834.915    20213834.103
  20213835.256          48.500          46.2504
 113613769.455 8  88530213.327 8  21619980.147    21619980.332    21619981.108
  21619980.759          50.000          48.250
 126205841.567 6  98342219.43543  24016171.499    24016171.507
  24016172.789          39.000          22.7504
 20  1  5  1  2 30.0000000  0  9G24G32G29G10G27G21G20G15G13
 124055152.313 6  96666350.335 7  23606910.471    23606911.173    23606916.000
  23606915.863          37.750          44.500
 128367367.835 6 100026523.889 6  24427498.840    24427499.469    24427501.842
  24427502.054          39.750          40.000
 128950453.437 6 100480869.439 6  24538452.715    24538453.239    24538453.284
  24538454.770          41.250          38.250
 114488572.349 8  89211878.887 8  21786449.418    21786449.587    21786452.991
  21786453.407          50.250          52.250
 118926335.902 7  92669875.485 8  22630929.231    22630929.366    22630932.143
  22630932.392          46.000          48.000
 109568583.601 8  85378117.98447  20850205.231    20850204.572
  20850205.432          49.500          46.5004
 106206165.119 8  82758051.67647  20210359.144    20210358.533
  20210359.853          48.750          46.2504
 113685643.125 8  88586218.783 8  21633657.232    21633657.186    21633657.839
  21633658.078          50.250          48.250
 126303732.687 6  98418498.24243  24034800.054    24034799.441
  24034799.541          39.250          22.2504
 20  1  5  1  3  0.0000000  0  9G24G32G29G10G27G21G20G15G13
 123975073.406 6  96603951.202 7  23591672.386    23591672.449    23591676.739
  23591677.389          37.750          44.500
 128256222.382 6  99939917.037 6  24406347.263    24406348.084    24406352.359
  24406352.799          39.000          41.250
 129067772.452 6 100572286.891 6  24560777.729    24560777.733    24560777.860
  24560779.414          40.000          36.750
 114430492.681 8  89166622.016 8  21775397.721    21775397.934    21775400.919
  21775401.253          50.750          52.250
 118877599.978 7  92631899.443 8  22621655.207    22621655.238    22621658.375
  22621658.602          46.000          48.500
 109574848.961 8  85383000.07547  20851397.414    20851396.783
  20851397.629          49.500          46.2504
 106188214.547 8  82744064.21647  20206943.260    20206942.646
  20206943.732          48.500          46.2504
 113757965.041 8  88642573.523 8  21647419.768    21647419.707    21647420.575
  21647420.359          50.000          48.000
 126401896.064 6  98494989.19643  24053480.220    24053479.259
  24053479.985          39.250          23.2504
 20  1  5  1  3 30.0000000  0  9G32G24G29G10G27G21G20G15G13
 128145161.383 6  99853376.050 6  24385214.696    24385214.402    24385218.296
  24385218.299          39.500          41.750
 123895256.627 6                  23576483.347
                        37.500
 129185114.122 6 100663721.910 6  24583108.140    24583108.467    24583108.778
  24583108.479          41.000          38.000
 114372644.499 8  89121545.513 8  21764388.999    21764389.161    21764392.408
  21764392.943          50.250          51.750
 118829405.776 7  92594345.531 8  22612483.901    22612483.776    22612487.380
  22612487.081          45.250          48.250
 109581455.252 8  85388147.82047  20852654.358    20852653.946
  20852654.758          49.750          46.2504
 106170575.657 8  82730319.62747  20203586.981    20203586.150
  20203587.310          48.500          46.2504
 113830730.869 8  88699274.174 8  21661266.592    21661266.672    21661267.224
  21661267.374          50.250          48.500
 126500327.685 6  98571689.16743  24072210.461    24072210.451
  24072211.213          39.000          23.0004
 20  1  5  1  4  0.0000000  0  9G32G24G29G10G27G21G20G15G13
 128034189.652 6  99766904.576 6  24364096.971    24364096.727    24364100.515
  24364100.641          39.250          41.750
 123815699.514 6  96479763.676 7  23561344.023    23561344.366    23561348.177
  23561347.724          38.750          45.500
 129302478.148 7 100755174.374 6  24605441.732    24605441.052    24605442.528
  24605441.424          43.250          37.750
 114315030.633 8  89076651.589 8  21753426.208    21753426.320    21753429.117
  21753429.549          51.000          52.250
 118781757.551 7  92557217.044 8  22603416.721    22603416.802    22603420.235
  22603420.190          45.500          48.250
 109588406.469 8  85393564.33847  20853977.215    20853976.695
  20853977.483          49.500          46.0004
 106153251.134 8  82716820.00147  20200289.989    20200289.338
  20200290.597          48.750          46.2504
 113903940.744 8  88756320.828 8  21675197.840    21675197.910    21675198.662
  21675198.781          50.250          48.500
 126599027.084 6  98648597.78543  24090992.605    24090992.131
  24090992.805          38.750          23.5004
 20  1  5  1  4 30.0000000  0  9G32G24G29G10G27G21G20G15G13
 127923307.736 6  99680503.098 6  24342997.413    24342996.851    24343000.730
  24343001.275          40.000          41.250
 123736408.539 6  96417978.519 7  23546254.099    23546255.099    23546259.056
  23546259.473          38.250          44.500
 129419860.477 6 100846641.134 5  24627778.100    24627778.373    24627777.198
  24627778.061          41.750          35.250
 114257649.818 8  89031939.284 8  21742506.448    21742506.478    21742509.887
  21742510.191          50.500          52.250
 118734655.530 7  92520514.165 8  22594453.768    22594453.601    22594457.099
  22594457.230          46.250          48.500
 109595701.860 8  85399249.07547  20855365.583    20855364.910
  20855365.731          49.250          46.0004
 106136239.507 8  82703564.19547  20197052.953    20197052.226
  20197053.367          49.250          46.2504
 113977590.644 8  88813710.359 8  21689212.970    21689213.233    21689214.403
  21689213.873          50.500          48.250
 126697990.156 6  98725711.85544  24109823.856    24109824.072
  24109824.507          38.500          24.5004
 20  1  5  1  5  0.0000000  0  9G32G24G29G10G27G21G20G15G13
 127812518.279 6  99594173.637 6  24321914.580    24321914.123    24321918.421
  24321918.212          40.250          41.750
 123657386.566 6  96356402.988 7  23531217.375    23531217.349    23531222.066
  23531222.120          38.500          44.500
 129537258.889 6 100938120.395 5  24650118.902    24650118.867    24650119.553
  24650119.435          38.250          32.000
 114200502.692 8  88987409.057 8  21731632.335    21731632.416    21731634.879
  21731635.459          51.500          52.250
 118688101.840 7  92484238.567 8  22585595.088    22585594.661    22585597.704
  22585597.744          46.000          48.000
 109603342.747 8  85405203.00547  20856819.580    20856818.842
  20856819.777          49.750          46.2504
 106119541.588 8  82690552.82847  20193875.286    20193874.758
  20193875.840          49.000          46.5004
 114051678.339 8  88871441.031 8  21703311.387    21703311.542    21703312.608
  21703312.461          50.500          48.500
 126797214.625 6  98803029.62843  24128705.394    24128705.932
  24128706.935          39.250          23.7504
 20  1  5  1  5 30.0000000  0  8G32G24G10G27G21G20G15G13
 127701821.727 6  99507916.576 6  24300849.555    24300849.716    24300853.418
  24300853.305          39.750          41.500
 123578635.098 6  96295038.228 7  23516232.141    23516231.935    23516236.178
  23516235.401          39.250          44.750
 114143587.761 8  88943059.761 8  21720800.470    21720800.879    21720804.568
  21720805.186          50.000          52.250
 118642096.418 7  92448390.194 8  22576840.399    22576839.970    22576843.208
  22576843.666          46.500          48.250
 109611327.961 8  85411425.24647  20858338.808    20858338.484
  20858339.370          49.500          46.2504
 106103155.275 8  82677784.27847  20190756.983    20190756.371
  20190757.635          49.000          46.2504
 114126199.272 8  88929509.291 8  21717492.267    21717492.476    21717493.373
  21717493.209          50.500          48.250
 126896695.856 6  98880547.46444  24147637.072    24147637.027
  24147638.735          39.750          24.5004
 20  1  5  1  6  0.0000000  0  8G32G24G10G27G21G20G15G13
 127591222.360 6  99421735.264 7  24279802.606    24279803.416    24279806.742
  24279806.852          39.000          42.000
 123500159.937 6  96233888.768 7  23501297.941    23501298.974    23501302.548
  23501302.714          39.500          44.250
 114086907.477 8  88898893.322 8  21710015.674    21710015.882    21710018.656
  21710019.078          51.750          52.250
 118596643.164 7  92412972.079 8  22568190.765    22568190.666    22568193.995
  22568193.951          45.500          48.250
 109619660.790 8  85417918.36547  20859924.736    20859924.249
  20859925.057          49.500          46.2504
 106087082.806 8  82665260.27647  20187698.399    20187697.920
  20187699.104          49.000          46.2504
 114201153.314 8  88987915.045 8  21731755.664    21731755.779    21731756.611
  21731756.201          50.000          48.000
 126996433.377 6  98958265.00844  24166616.968    24166616.748
  24166616.885          40.250          24.0004
 20  1  5  1  6 30.0000000  0  9G08G32G24G10G27G21G20G15G13
 131294277.080 6 102307229.966 5  24984470.544    24984470.135    24984474.033
  24984470.978          37.250          33.750
 127480721.919 6  99335631.038 7  24258774.966    24258775.585    24258780.688
  24258780.613          39.500          43.250
 123421963.918 6  96172956.837 7  23486416.809    23486417.866    23486422.408
  23486422.197          38.250          43.750
 114030461.552 8  88854909.492 8  21699273.633    21699273.775    21699277.151
  21699277.640          50.750          52.250
 118551743.149 7  92377985.049 8  22559646.769    22559646.585    22559649.972
  22559649.997          46.250          48.750
 109628341.279 8  85424682.37747  20861576.659    20861576.066
  20861576.933          49.750          46.2504
 106071323.841 8  82652980.55447  20184699.685    20184699.083
  20184700.345          48.750          46.2504
 114276537.281 8  89046655.802 7  21746100.804    21746100.784    21746101.335
  21746101.337          50.500          47.750
 127096424.258 6  99036179.96443  24185644.508    24185644.379
  24185644.248          40.500          23.2504
 20  1  5  1  7  0.0000000  0  9G08G32G24G10G27G21G20G15G13
 131206228.167 6 102238620.455 6  24967715.622    24967714.290    24967717.784
  24967717.758          36.250          38.750
 127370322.255 6  99249605.335 7  24237766.855    24237767.838    24237771.079
  24237771.550          40.000          42.000
 123344049.814 6  96112244.548 7  23471591.888    23471592.582    23471595.827
  23471596.259          40.750          43.500
 113974249.994 8  88811108.292 8  21688577.671    21688577.764    21688580.660
  21688580.970          52.000          52.500
 118507397.846 7  92343430.265 8  22551208.066    22551207.884    22551211.072
  22551211.396          46.250          48.500
 109637370.357 8  85431718.01547  20863294.877    20863294.228
  20863295.151          50.000          46.5004
 106055877.982 8  82640944.81147  20181760.413    20181759.889
  20181761.169          48.500          46.2504
 114352348.491 8  89105729.476 7  21760527.179    21760527.427    21760528.159
  21760528.033          50.250          47.750
 127196665.277 6  99114289.85643  24204719.978    24204719.050
  24204720.178          40.000          23.5004
 20  1  5  1  7 30.0000000  0  8G32G24G10G27G21G20G15G13
 127260025.306 6  99163659.659 6  24216778.074    24216778.975    24216781.910
  24216782.268          40.500          41.000
 123266420.532 6  96051754.198 7  23456818.660    23456819.329    23456824.017
  23456823.359          40.000          43.750
 113918272.776 8  88767489.686 8  21677924.869    21677924.981    21677928.637
  21677928.785          51.000          52.500
 118463608.558 7  92309308.731 8  22542875.223    22542875.327    22542878.168
  22542878.154          46.500          48.500
 109646748.165 8  85439025.39047  20865079.278    20865078.876
  20865079.666          49.750          46.5004
 106040744.966 8  82629152.85547  20178880.775    20178880.089
  20178881.277          49.500          46.5004
 114428583.861 8  89165133.658 8  21775034.131    21775034.510    21775035.316
  21775034.932          50.250          48.250
 127297153.595 6  99192592.42543  24223842.597    24223842.281
  24223841.641          40.250          21.0004
 20  1  5  1  8  0.0000000  0  8G32G24G10G27G21G20G15G13
 127149833.375 6  99077795.791 6  24195809.295    24195809.099    24195812.329
  24195813.658          40.250          41.000
 123189080.042 6  95991488.898 7  23442101.456    23442101.342    23442105.464
  23442105.798          40.000          42.750
 113862530.195 8  88724053.909 8  21667318.137    21667318.325    21667320.763
  21667321.319          52.000          52.250
 118420376.998 7  92275621.811 8  22534648.569    22534648.432    22534651.711
  22534651.727          46.250          48.750
 109656476.028 8  85446605.53547  20866930.319    20866929.863
  20866930.896          49.750          46.5004
 106025925.072 8  82617604.89447  20176060.668    20176059.980
  20176061.088          49.250          46.2504
 114505241.069 8  89224866.552 7  21789621.572    21789621.784    21789622.265
  21789622.265          50.250          47.500
 127397886.357 6  99271085.53743  24243010.586    24243010.880
  24243011.364          39.000          21.0004
 20  1  5  1  8 30.0000000  0  9G32G24G08G10G27G21G20G15G13
 127039748.215 6  98992015.157 6  24174860.329    24174861.211    24174864.658
  24174864.794          40.000          41.500
 123112030.258 6  95931450.097 7  23427439.998    23427440.889    23427444.060
  23427443.888          40.000          43.250
 130943927.801 6 102034228.314 5  24917800.149    24917800.682    24917806.079
  24917805.315          37.250          35.000
 113807022.209 8  88680800.940 8  21656754.743    21656754.862    21656758.176
  21656758.635          51.250          52.750
 118377704.396 7  92242370.439 8  22526528.251    22526527.871    22526531.437
  22526531.007          46.750          48.250
 109666554.390 8  85454458.79847  20868848.219    20868847.818
  20868848.704          50.000          46.7504
 106011417.835 8  82606300.54847  20173300.281    20173299.385
  20173300.546          49.500          46.5004
 114582317.161 8  89284925.835 7  21804288.730    21804288.887    21804289.489
  21804289.297          50.500          47.750
 127498860.508 6  99349766.70843  24262224.818    24262225.141
  24262225.062          38.750          21.0004
 20  1  5  1  9  0.0000000  0  9G32G24G08G10G27G21G20G15G13
 126929773.384 6  98906320.489 7  24153934.034    24153934.101    24153937.218
  24153938.057          41.000          42.500
 123035276.957 6  95871642.319 7  23412833.660    23412833.944    23412837.182
  23412837.794          40.000          42.750
 130857120.018 6 101966585.918 6  24901282.178    24901281.695    24901285.488
  24901287.064          38.250          38.500
 113751750.422 8  88637732.020 8  21646237.468    21646237.418    21646240.112
  21646240.681          52.000          52.500
 118335593.676 7  92209556.884 8  22518514.738    22518514.397    22518517.755
  22518518.052          46.750          48.500
 109676985.567 8  85462586.99347  20870833.571    20870832.734
  20870833.565          50.250          46.5004
 105997225.000 8  82595241.20847  20170599.396    20170598.574
  20170599.724          49.250          46.5004
 114659810.696 8  89345310.414 8  21819035.327    21819035.259    21819036.106
  21819035.997          49.750          48.000
 127600075.040 6  99428635.16843  24281486.136    24281485.560
  24281486.032          38.750          18.5004
 20  1  5  1  9 30.0000000  0  9G32G24G08G10G27G21G20G15G13
 126819908.801 6  98820711.719 7  24133027.025    24133027.103    24133030.923
  24133031.266          41.250          43.250
 122958820.251 6  95812065.676 7  23398284.452    23398284.938    23398288.872
  23398289.535          40.500          43.000
 130770627.403 6 101899189.113 6  24884822.837    24884821.764    24884828.103
  24884826.236          36.500          38.250
 113696712.736 8  88594845.520 8  21635763.819    21635763.597    21635766.952
  21635767.539          51.500          52.750
 118294044.058 7  92177180.564 8  22510608.026    22510607.944    22510611.220
  22510611.200          46.250          48.250
 109687767.871 8  85470988.78747  20872885.274    20872884.617
  20872885.422          50.500          46.7504
 105983343.992 8  82584424.83747  20167957.761    20167957.120
  20167958.234          49.250          46.2504
 114737716.931 8  89406016.572 7  21833860.342    21833860.419    21833861.137
  21833860.976          50.250          47.750
 127701524.633 6  99507686.80343  24300791.120    24300790.301
  24300790.972          38.250          19.7504
 20  1  5  1 10  0.0000000  0  8G32G24G10G27G21G20G15G13
 126710157.766 6  98735191.454 7  24112142.485    24112142.382    24112146.290
  24112146.542          41.000          43.750
 122882665.003 6  95752723.921 7  23383792.627    23383793.353    23383796.573
  23383796.624          40.250          42.750
 113641910.615 8  88552142.575 8  21625335.547    21625335.669    21625338.105
  21625338.784          52.000          52.500
 118253058.333 7  92145243.640 8  22502808.892    22502808.514    22502812.085
  22502811.848          47.000          48.250
 109698903.287 8  85479665.72647  20875004.534    20875003.636
  20875004.421          50.500          46.7504
 105969776.057 8  82573852.43447  20165375.952    20165375.141
  20165376.241          49.250          46.2504
 114816034.419 8  89467043.182 7  21848763.739    21848763.801    21848764.455
  21848764.356          50.000          47.750
 127803207.984 6  99586920.56843  24320140.639    24320141.254
  24320141.801          38.500          20.7504
 20  1  5  1 10 30.0000000  0  8G32G24G10G27G21G20G15G13
 126600522.427 6  98649761.345 7  24091278.720    24091279.334    24091283.242
  24091284.325          39.250          43.750
 122806814.170 6  95693619.391 7  23369359.428    23369359.073    23369362.457
  23369362.593          40.250          42.500
 113587344.086 8  88509623.192 8  21614951.436    21614951.542    21614954.530
  21614955.090          51.750          52.500
 118212637.874 7  92113747.175 8  22495117.392    22495116.994    22495120.370
  22495120.466          47.000          48.250
 109710392.334 8  85488618.22947  20877190.531    20877189.995
  20877190.766          50.750          46.5004
 105956521.311 8  82563524.06147  20162853.496    20162852.879
  20162854.031          49.250          46.5004
 114894760.443 8  89528388.134 7  21863744.605    21863744.848    21863745.431
  21863745.427          49.750          47.750
 127905122.291 6  99666334.31443  24339534.568    24339534.177
  24339534.537          38.750          22.2504
 20  1  5  1 11  0.0000000  0  8G32G24G10G27G21G20G15G13
 126491004.158 6  98564422.467 7  24070437.803    24070438.202    24070442.662
  24070441.954          39.000          43.000
 122731270.236 6  95634753.967 7  23354983.159    23354983.574    23354987.132
  23354987.029          40.250          42.750
 113533012.944 8  88467287.265 8  21604613.072    21604613.098    21604615.941
  21604616.506          52.500          52.750
 118172783.447 7  92082691.776 8  22487533.209    22487532.933    22487535.882
  22487536.155          47.500          48.250
 109722235.267 8  85497846.49047  20879444.541    20879443.505
  20879444.481          50.750          46.5004
 105943578.952 8  82553439.09547  20160390.640    20160389.941
  20160391.200          49.750          46.2504
 114973891.649 8  89590048.812 7  21878802.459    21878802.759    21878803.282
  21878803.590          49.750          47.500
 128007264.316 6  99745925.49543  24358970.502    24358971.249
  24358972.499          38.750          23.7504
 20  1  5  1 11 30.0000000  0  9G32G24G08G10G27G21G20G15G13
 126381606.026 6  98479177.187 7  24049619.755    24049620.363    24049624.236
  24049624.791          39.250          42.250
 122656037.643 6  95576131.199 7  23340667.590    23340667.359    23340671.388
  23340671.036          41.000          43.500
 130427871.128 6 101632107.856 5  24819599.056                    24819603.490
                        37.500          34.500
 113478918.177 8  88425135.497 8  21594318.454    21594318.696    21594321.607
  21594322.199          51.750          52.250
 118133497.376 7  92052079.242 8  22480057.020    22480057.201    22480060.476
  22480060.414          47.000          49.000
 109734433.654 8  85507351.73347  20881765.471    20881764.862
  20881765.644          50.750          46.5004
 105930949.792 8  82543598.20647  20157987.438    20157986.700
  20157987.854          49.500          46.2504
 115053426.109 8  89652023.709 7  21893937.460    21893937.958    21893938.335
  21893938.590          50.000          47.000
 128109632.198 6  99825692.67544  24378451.045    24378451.685
  24378452.075          40.250          25.0004
 20  1  5  1 12  0.0000000  0  9G32G24G08G10G27G21G20G15G13
 126272329.297 6  98394026.496 7  24028825.870    24028826.573    24028829.631
  24028829.745          41.250          42.750
 122581118.253 6  95517752.476 7  23326410.241    23326409.906    23326414.340
  23326414.503          39.500          43.250
 130342998.655 6 101565973.442 6  24803447.833    24803447.983    24803451.884
  24803452.663          37.750          40.000
 113425059.058 8  88383167.361 8  21584070.021    21584070.238    21584073.007
  21584073.367          52.500          52.750
 118094780.178 7  92021909.999 8  22472689.779    22472689.512    22472692.431
  22472692.559          47.500          48.750
 109746987.589 8  85517134.02147  20884154.252    20884153.794
  20884154.559          50.500          46.5004
 105918633.207 8  82534000.85547  20155643.779    20155643.021
  20155644.181          49.750          46.2504
 115133360.269 8  89714310.066 7  21909148.657    21909148.735    21909149.497
  21909149.437          49.750          47.250
 128212222.181 6  99905632.90344  24397974.368    24397973.712
  24397974.692          40.250          25.0004
 20  1  5  1 12 30.0000000  0  9G32G24G08G10G27G21G20G15G13
 126163176.660 6  98308972.506 7  24008055.103    24008055.634    24008059.345
  24008059.259          41.250          43.250
 122506515.931 6  95459620.797 7  23312214.451    23312213.933    23312217.468
  23312217.437          41.000          42.750
 130258458.288 6 101500097.804 6  24787360.003    24787359.423    24787364.578
  24787365.281          37.500          39.000
 113371436.417 8  88341383.485 8  21573865.458    21573865.530    21573868.760
  21573869.285          52.000          52.750
 118056633.812 7  91992185.561 8  22465430.198    22465430.236    22465433.519
  22465433.521          47.000          48.750
 109759898.384 8  85527194.37947  20886611.168    20886610.609
  20886611.425          50.500          46.2504
 105906629.532 8  82524647.33847  20153359.305    20153358.718
  20153359.895          49.500          46.2504
 115213692.528 8  89776906.630 7  21924435.089    21924435.625    21924436.302
  21924436.127          49.250          47.000
 128315032.144 6  99985744.56044  24417537.591    24417538.336
  24417538.452          40.500          24.5004
 20  1  5  1 13  0.0000000  0  9G32G24G08G10G27G21G20G15G13
 126054150.231 7  98224016.852 7  23987308.762    23987307.821    23987312.120
  23987312.203          42.000          43.500
 122432233.637 6  95401738.505 7  23298077.591    23298078.259    23298082.282
  23298082.488          40.000          43.000
 130174252.273 6 101434482.707 6  24771336.147    24771335.774    24771341.966
  24771340.883          38.250          39.000
 113318050.395 8  88299784.003 8  21563706.899    21563707.127    21563709.595
  21563710.051          52.750          52.750
 118019059.637 7  91962906.982 8  22458280.282    22458280.229    22458283.385
  22458283.434          47.500          48.500
 109773166.804 8  85537533.40247  20889135.953    20889135.345
  20889136.147          50.000          46.5004
 105894938.573 8  82515537.50647  20151134.518    20151134.021
  20151135.171          50.000          46.0004
 115294419.851 8  89839811.042 7  21939797.577    21939797.607    21939798.404
  21939797.855          50.000          47.500
 128418059.502 6 100066025.62143  24437142.898    24437143.568
  24437143.208          40.250          23.7504
 20  1  5  1 13 30.0000000  0  9G32G24G08G10G27G21G20G15G13
 125945251.230 6  98139160.527 7  23966585.133    23966585.824    23966589.586
  23966589.499          41.750          43.250
 122358273.891 6  95344107.534 7  23284005.119    23284005.239    23284008.877
  23284008.810          41.750          44.750
 130090382.187 6 101369129.395 6  24755376.446    24755375.505    24755380.059
  24755379.512          39.000          38.250
 113264900.376 8  88258368.404 8  21553592.426    21553592.367    21553595.911
  21553596.497          51.750          53.250
 117982058.151 7  91934074.648 8  22451239.177    22451239.016    22451242.379
  22451242.184          47.750          48.250
 109786792.229 8  85548150.61647  20891728.693    20891728.241
  20891729.124          50.250          46.2504
 105883559.753 8  82506670.89647  20148969.437    20148968.774
  20148969.914          49.750          46.2504
 115375538.574 8  89903020.428 7  21955233.607    21955233.832    21955234.505
  21955234.654          49.750          47.250
 128521300.632 6 100146473.24943  24456789.644    24456788.649
  24456789.936          39.000          22.2504
 20  1  5  1 14  0.0000000  0  9G32G24G08G10G27G21G20G15G13
 125836482.980 7  98054406.053 7  23945887.713    23945887.382    23945890.842
  23945891.330          42.750          42.750
 122284641.126 6  95286731.368 7  23269993.741    23269993.385    23269996.697
  23269996.801          41.750          45.000
 130006852.075 6 101304041.013 6  24739481.495    24739481.764    24739485.455
  24739484.915          39.000          38.250
 113211987.745 8  88217137.789 8  21543524.024    21543524.112    21543526.707
  21543526.943          52.750          52.250
 117945631.857 7  91905690.529 8  22444307.425    22444307.192    22444310.576
  22444310.615          47.500          48.750
 109800777.024 8  85559047.85247  20894389.885    20894389.484
  20894390.398          50.250          46.2504
 105872494.401 8  82498048.54147  20146863.699    20146863.131
  20146864.217          49.750          46.2504
 115457047.413 8  89966533.807 7  21970744.211    21970744.543    21970745.638
  21970745.402          49.500          47.500
 128624754.058 6 100227086.32043  24476475.969    24476475.639
  24476476.656          39.000          20.7504
 20  1  5  1 14 30.0000000  0  9G32G24G08G10G27G21G20G15G13
 125727846.438 7  97969754.205 7  23925214.457    23925214.465    23925218.167
  23925218.534          42.000          42.750
 122211337.685 6  95229611.812 7  23256043.559    23256043.955    23256047.122
  23256047.390          41.750          44.750
 129923663.001 6 101239218.335 6  24723651.472    24723651.346    24723656.308
  24723654.492          38.750          39.000
 113159311.501 8  88176091.362 8  21533499.103    21533499.491    21533502.918
  21533503.324          51.500          53.000
 117909780.857 8  91877754.688 8  22437485.248    22437485.164    22437488.339
  22437488.329          48.000          48.500
 109815120.480 8  85570224.56447  20897119.780    20897118.961
  20897119.714          50.250          46.2504
 105861741.136 8  82489669.38347  20144817.460    20144816.879
  20144817.931          49.750          46.5004
 115538942.311 8  90030348.012 7  21986328.287    21986328.600    21986329.248
  21986329.227          50.000          47.500
 128728415.931 6 100307861.78943  24496202.524    24496202.193
  24496203.054          39.000          19.2504
 20  1  5  1 15  0.0000000  0  9G32G24G08G10G27G21G20G15G13
 125619344.118 6  97885206.956 7  23904566.729    23904567.058    23904570.776
  23904570.506          41.750          42.750
 122138366.560 7  95172751.192 7  23242158.515    23242158.368    23242161.460
  23242162.068          42.500          45.000
 129840818.086 6 101174663.842 6  24707886.096    24707886.024    24707890.729
  24707890.724          38.500          39.500
 113106872.277 8  88135229.642 8  21523520.876    21523521.135    21523523.798
  21523524.372          53.000          52.750
 117874506.816 7  91850268.416 8  22430772.717    22430772.521    22430776.295
  22430776.054          47.750          49.000
 109829823.916 8  85581681.77747  20899917.628    20899916.971
  20899917.812          50.500          46.2504
 105851300.440 8  82481533.76647  20142830.908    20142830.036
  20142831.122          50.000          46.2504
 115621221.338 8  90094461.540 7  22001985.499    22001985.805    22001986.674
  22001986.574          49.500          47.000
 128832283.943 6 100388797.87943  24515967.672    24515967.521
  24515968.731          39.500          18.7504
 20  1  5  1 15 30.0000000  0  9G32G24G08G10G27G21G20G15G13
 125510978.788 6  97800766.456 7  23883945.412    23883946.054    23883949.572
  23883949.693          41.500          43.500
 122065731.548 6  95116152.510 7  23228335.396    23228335.684    23228339.718
  23228340.296          41.000          45.500
 129758320.073 6 101110379.677 6  24692187.027    24692186.530    24692191.507
  24692192.133          38.500          39.250
 113054670.905 8  88094553.246 8  21513587.110    21513587.109    21513590.163
  21513590.594          52.000          53.000
 117839811.690 8  91823233.253 8  22424170.773    22424170.568    22424173.484
  22424173.589          48.250          48.500
 109844888.445 8  85593420.37947  20902784.147    20902783.559
  20902784.491          50.250          46.5004
 105841172.850 8  82473642.14447  20140903.576    20140902.810
  20140903.947          49.750          46.2504
 115703882.379 8  90158872.736 7  22017715.274    22017715.272    22017715.987
  22017716.176          49.500          47.000
 128936355.947 6 100469892.97043  24535771.890    24535771.964
  24535772.103          38.750          18.0004
 20  1  5  1 16  0.0000000  0  9G32G24G08G10G27G21G20G15G13
 125402751.842 6  97716433.814 7  23863351.014    23863350.880    23863354.494
  23863354.530          41.500          43.250
 121993435.226 6  95059817.749 7  23214578.592    23214578.309    23214582.210
  23214582.156          41.500          44.500
 129676171.266 6 101046367.624 6  24676554.319    24676554.589    24676558.346
  24676558.640          37.500          38.750
 113002706.911 8  88054061.829 8  21503698.955    21503699.071    21503701.784
  21503702.428          53.000          53.000
 117805695.969 8  91796649.579 8  22417678.499    22417678.629    22417681.897
  22417681.685          48.000          49.000
 109860314.022 8  85605440.30147  20905719.575    20905718.909
  20905719.864          50.750          46.2504
 105831357.623 8  82465993.92147  20139035.800    20139034.980
  20139036.149          50.000          46.2504
 115786921.760 8  90223578.745 7  22033517.332    22033517.317    22033517.947
  22033518.078          49.500          47.000
 129040628.584 6 100551144.36643  24555614.772    24555614.754
  24555614.193          39.250          19.0004
 20  1  5  1 16 30.0000000  0  9G32G24G08G10G27G21G20G15G13
 125294665.164 7  97632210.432 7  23842782.250    23842783.002    23842787.078
  23842786.177          42.250          44.000
 121921480.833 6  95003749.385 7  23200886.026    23200885.458    23200889.156
  23200888.468          41.500          43.250
 129594373.628 6 100982629.228 6  24660988.720    24660987.510    24660993.393
  24660992.850          36.750          39.250
 112950980.199 8  88013755.306 8  21493855.361    21493855.447    21493858.686
  21493859.003          52.500          52.750
 117772160.631 8  91770518.142 8  22411297.097    22411297.004    22411300.094
  22411300.172          48.000          49.000
 109876101.385 8  85617742.13047  20908723.766    20908723.313
  20908724.042          50.500          46.5004
 105821854.634 8  82458589.00647  20137227.616    20137226.718
  20137227.746          49.750          46.2504
 115870336.602 8  90288577.320 7  22049391.008    22049390.744    22049391.318
  22049391.405          50.000          46.750
 129145098.979 6 100632549.89043  24575494.435    24575494.693
  24575494.491          39.250          18.0004
 20  1  5  1 17  0.0000000  0  9G32G24G08G10G27G21G20G15G13
 125186722.256 7  97548099.095 7  23822242.398    23822242.006    23822245.382
  23822245.486          43.000          43.250
 121849872.457 6  94947950.631 7  23187259.336    23187259.060    23187262.845
  23187263.168          41.500          44.000
 129512933.705 6 100919167.022 6  24645490.879    24645490.818    24645496.195
  24645495.761          37.250          36.750
 112899492.404 8  87973634.942 8  21484057.671    21484057.969    21484060.969
  21484061.451          52.750          53.250
 117739208.251 8  91744840.957 8  22405026.609    22405026.526    22405029.449
  22405029.386          48.500          48.750
 109892252.137 8  85630327.12347  20911797.236    20911796.579
  20911797.573          50.500          46.2504
 105812665.112 8  82451428.33347  20135478.797    20135478.048
  20135479.041          49.750          46.2504
 115954125.741 8  90353867.554 7  22065334.868    22065335.204    22065335.877
  22065335.805          48.750          46.750
 129249766.029 6 100714108.61743  24595412.888    24595411.315
  24595412.438          40.250          20.5004
 20  1  5  1 17 30.0000000  0  9G32G24G08G10G27G21G20G15G13
 125078922.630 7  97464099.401 7  23801728.348    23801728.906    23801732.094
  23801732.113          43.500          43.250
 121778610.822 6  94892422.084 7  23173698.334    23173698.746    23173702.765
  23173702.976          41.500          44.250
 129431846.625 6 100855982.294 6  24630060.991    24630060.550    24630065.497
  24630064.916          38.000          41.250
 112848241.121 8  87933698.896 8  21474304.850    21474304.834    21474308.072
  21474308.612          52.250          53.000
 117706837.417 7  91719616.931 8  22398866.323    22398866.234    22398869.433
  22398869.336          47.750          48.500
 109908764.721 8  85643194.07147  20914939.561    20914938.977
  20914939.943          50.750          46.5004
 105803786.584 8  82444509.99047  20133789.280    20133788.411
  20133789.538          49.500          46.2504
 116038283.841 8  90419445.306 7  22081349.893    22081350.027    22081351.095
  22081350.508          49.250          46.750
 129354624.453 6 100795816.52143  24615365.721    24615365.181
  24615365.630          40.250          20.7504
 20  1  5  1 18  0.0000000  0  9G32G24G08G10G27G21G20G15G13
 124971269.960 7  97380214.208 7  23781242.876    23781242.828    23781246.786
  23781245.876          43.000          43.000
 121707700.905 6  94837167.590 7  23160204.892    23160205.275    23160208.917
  23160208.600          41.750          43.500
 129351118.772 6 100793077.431 6  24614698.554    24614698.153    24614703.876
  24614702.741          38.750          41.250
 112797228.132 8  87893948.508 8  21464597.674    21464597.779    21464600.682
  21464600.942          52.750          53.000
 117675050.819 7  91694848.154 8  22392817.943    22392817.627    22392820.657
  22392820.899          47.750          49.000
 109925640.992 8  85656344.40347  20918150.896    20918150.391
  20918151.157          50.500          46.7504
 105795220.622 8  82437835.22147  20132159.030    20132158.416
  20132159.390          49.750          46.2504
 116122809.701 8  90485309.616 7  22097434.789    22097434.811    22097435.934
  22097435.454          49.500          46.500
 129459672.870 6 100877672.40643  24635355.945    24635355.431
  24635356.640          40.750          22.0004
 20  1  5  1 18 30.0000000  0  9G32G24G08G10G27G21G20G15G13
 124863767.175 7  97296445.807 7  23760785.521    23760785.993    23760789.003
  23760789.498          43.000          43.250
 121637145.780 6  94782189.572 7  23146778.055    23146778.499    23146781.846
  23146783.118          40.750          44.000
 129270753.394 6 100730455.046 6  24599405.818    24599405.561    24599410.418
  24599410.584          40.000          41.250
 112746454.434 8  87854384.602 8  21454935.439    21454935.598    21454938.822
  21454939.241          52.500          53.500
 117643850.414 7  91670536.150 8  22386880.295    22386880.212    22386883.262
  22386883.361          47.750          48.500
 109942882.789 8  85669779.56547  20921431.923    20921431.457
  20921432.281          50.750          46.5004
 105786968.091 8  82431404.67947  20130588.674    20130588.014
  20130589.132          50.000          46.2504
 116207701.554 8  90551459.114 7  22113589.149    22113588.819    22113590.155
  22113589.691          49.250          46.000
 129564909.840 6 100959675.23543  24655382.878    24655382.270
  24655381.481          40.500          22.2504
 20  1  5  1 19  0.0000000  0  9G32G24G08G10G27G21G20G15G13
 124756413.939 7  97212793.921 7  23740357.050    23740356.674    23740360.774
  23740360.434          42.750          43.750
 121566946.833 6  94727489.093 7  23133419.756    23133420.297    23133424.928
  23133424.540          40.750          45.500
 129190750.828 6 100668115.397 6  24584181.746    24584181.926    24584186.133
  24584186.163          40.500          41.000
 112695917.842 8  87815005.436 8  21445318.661    21445318.934    21445321.786
  21445322.220          52.750          53.000
 117613234.872 7  91646679.886 8  22381054.490    22381053.947    22381057.612
  22381057.438          47.500          48.750
 109960488.298 8  85683498.13447  20924782.207    20924781.705
  20924782.483          50.750          46.7504
 105779026.462 8  82425216.39047  20129077.708    20129076.741
  20129077.849          49.500          46.2504
 116292954.389 8  90617889.889 7  22129811.894    22129812.189    22129812.930
  22129812.707          48.750          46.500
 129670330.172 6 101041820.94243  24675442.354    24675442.570
  24675441.266          40.500          23.0004
 20  1  5  1 19 30.0000000  0  9G32G24G08G10G27G21G20G15G13
 124649214.821 7  97129262.161 7  23719956.938    23719957.760    23719960.488
  23719960.681          42.750          43.500
 121497109.602 6  94673070.463 7  23120131.100    23120131.143    23120134.293
  23120134.889          41.250          45.000
 129111115.714 6 100606062.079 6  24569027.731    24569027.807    24569031.248
  24569031.556          39.250          40.750
 112645620.996 8  87775813.104 8  21435747.601    21435747.687    21435750.630
  21435751.151          52.500          53.500
 117583207.772 8  91623282.145 8  22375340.558    22375340.648    22375343.592
  22375343.415          48.250          48.750
 109978460.591 8  85697502.51447  20928202.304    20928201.618
  20928202.511          51.000          46.5004
 105771398.287 8  82419272.35147  20127625.906    20127625.133
  20127626.367          50.250          46.2504
 116378567.767 8  90684601.609 7  22146103.773    22146103.812    22146104.427
  22146104.542          48.500          46.500
 129775933.521 6 101124109.26743  24695538.024    24695538.383
  24695537.503          40.500          22.2504
 20  1  5  1 20  0.0000000  0  9G32G24G08G10G27G21G20G15G13
 124542170.139 7  97045850.742 7  23699587.357    23699587.022    23699592.044
  23699591.497          42.500          44.250
 121427635.408 6  94618934.754 7  23106910.080    23106910.104    23106914.777
  23106915.031          41.750          45.750
 129031848.986 6 100544295.806 6  24553943.461    24553943.463    24553947.378
  24553947.598          38.000          40.000
 112595562.316 8  87736806.338 8  21426221.852    21426221.944    21426224.720
  21426225.182          53.000          53.000
 117553768.359 8  91600342.346 8  22369738.473    22369738.025    22369741.547
  22369741.507          48.500          48.750
 109996798.232 8  85711791.57647  20931691.744    20931691.047
  20931691.975          51.000          46.5004
 105764081.776 8  82413571.17347  20126233.573    20126232.846
  20126234.022          49.500          46.2504
 116464537.365 8  90751590.897 7  22162463.025    22162463.322    22162464.144
  22162463.874          48.750          46.500
 129881715.606 6 101206536.85743  24715667.613    24715667.105
  24715668.310          40.000          23.0004
 20  1  5  1 20 30.0000000  0  9G32G24G08G10G27G21G20G15G13
 124435283.084 7  96962562.153 7  23679247.102    23679247.538    23679251.383
  23679251.359          43.500          44.250
 121358528.240 6  94565085.007 7  23093759.062    23093758.905    23093762.992
  23093763.457          41.000          44.500
 128952954.046 6 100482819.238 6  24538930.943    24538930.422    24538934.625
  24538933.792          38.250          39.500
 112545743.089 8  87697986.160 8  21416741.539    21416741.679    21416744.400
  21416744.835          53.000          53.000
 117524918.724 8  91577862.108 8  22364248.789    22364248.550    22364251.478
  22364251.705          48.500          48.750
 110015503.116 8  85726366.79747  20935251.286    20935250.713
  20935251.517          50.750          46.5004
 105757077.843 8  82408113.57547  20124900.669    20124899.979
  20124901.177          50.000          46.0004
 116550860.950 8  90818856.019 7  22178890.212    22178890.084    22178891.422
  22178890.991          48.750          46.250
 129987674.928 6 101289102.53943  24735831.121    24735829.857
  24735831.039          39.500          21.7504
 20  1  5  1 21  0.0000000  0  9G32G24G08G10G27G21G20G15G13
 124328555.015 7  96879397.441 7  23658937.003    23658938.032    23658941.663
  23658941.505          42.750          43.750
 121289790.221 6  94511522.917 7  23080678.359    23080678.961    23080683.679
  23080683.745          40.500          46.000
 128874432.384 6 100421633.521 6  24523988.264    24523987.184    24523992.461
  24523992.341          39.000          39.750
 112496162.807 8  87659352.174 8  21407306.702    21407306.902    21407309.901
  21407310.316          53.250          53.500
 117496659.150 8  91555841.662 8  22358870.968    22358870.821    22358873.883
  22358873.764          48.500          48.500
 110034574.959 8  85741227.96647  20938880.379    20938879.985
  20938880.761          51.000          46.7504
 105750385.692 8  82402898.90547  20123627.109    20123626.521
  20123627.762          49.000          46.2504
 116637536.052 8  90886395.051 7  22195383.547    22195383.761    22195384.777
  22195384.864          48.000          46.250
 130093807.916 6 101371803.58143  24756027.433    24756027.628
  24756027.847          39.250          21.5004
 20  1  5  1 21 30.0000000  0  9G32G24G08G10G27G21G20G15G13
 124221987.467 7  96796357.812 7  23638658.597    23638659.156    23638662.532
  23638662.757          43.250          44.750
 121221423.875 6  94458250.454 7  23067669.124    23067669.947    23067673.549
  23067673.584          41.500          44.750
 128796286.518 6 100360740.644 6  24509117.166    24509117.759    24509122.211
  24509122.170          39.250          40.750
 112446821.071 8  87620904.076 8  21397917.409    21397917.410    21397920.252
  21397920.770          53.000          53.250
 117468990.101 8  91534281.368 8  22353605.745    22353605.422    22353608.870
  22353608.836          48.500          48.750
 110054014.006 8  85756375.27147  20942579.811    20942579.029
  20942579.927          51.000          46.5004
 105744004.936 8  82397926.88447  20122413.071    20122412.410
  20122413.478          49.500          46.2504
 116724559.056 8  90954205.176 7  22211943.556    22211943.789    22211944.275
  22211944.118          48.500          45.750
 130200111.558 6 101454637.58243  24776256.706    24776257.324
  24776256.518          38.000          18.5004
 20  1  5  1 22  0.0000000  0  9G32G24G08G10G27G21G20G15G13
 124115584.006 7  96713446.046 7  23618411.140    23618411.649    23618414.886
  23618414.739          43.250          44.500
 121153433.914 6  94405271.240 7  23054730.768    23054731.095    23054735.290
  23054735.494          41.250          44.750
 128718519.589 6 100300143.028 6  24494320.006    24494319.243    24494323.574
  24494323.664          41.250          41.000
 112397719.592 8  87582643.180 8  21388573.370    21388573.527    21388576.525
  21388577.068          53.000          53.250
 117441914.004 8  91513183.107 8  22348453.084    22348453.148    22348456.194
  22348456.513          48.750          48.750
 110073822.030 8  85771810.10447  20946348.859    20946348.348
  20946349.231          51.000          46.5004
 105737936.957 8  82393198.58447  20121258.311    20121257.658
  20121258.870          49.750          46.2504
 116811928.822 8  91022285.510 7  22228569.882    22228569.727    22228570.232
  22228570.170          49.250          46.000
 130306584.940 6 101537603.84443  24796518.082    24796517.913
  24796518.726          38.000          19.2504
 20  1  5  1 22 30.0000000  0  9G32G24G08G10G27G21G20G15G13
 124009345.201 7  96630662.558 7  23598194.123    23598194.162    23598197.595
  23598197.189          43.250          43.250
 121085822.133 6  94352586.749 7  23041865.047    23041865.685    23041868.879
  23041868.786          41.500          45.000
 128641132.853 6 100239841.671 6  24479593.187    24479593.145    24479597.173
  24479597.276          40.000          41.500
 112348857.098 8  87544568.522 8  21379275.385    21379275.532    21379278.183
  21379278.624          53.250          53.000
 117415430.283 8  91492546.435 8  22343413.436    22343413.541    22343416.789
  22343416.758          48.750          49.000
 110093998.109 8  85787531.72847  20950188.349    20950187.697
  20950188.531          50.750          46.5004
 105732180.476 8  82388713.01047  20120163.074    20120162.373
  20120163.281          49.750          46.2504
 116899641.018 8  91090632.661 7  22245260.479    22245261.088    22245261.773
  22245261.325          48.750          46.250
 130413223.892 6 101620699.10542  24816810.123    24816809.495
  24816810.386          38.000          17.7504
 20  1  5  1 23  0.0000000  0  9G32G24G08G10G27G21G20G15G13
 123903273.347 7  96548009.176 7  23578009.001    23578009.593    23578013.135
  23578013.517          43.000          43.750
 121018591.647 7  94300199.344 7  23029072.119    23029072.088    23029075.254
  23029075.553          42.000          44.750
 128564129.093 6 100179838.758 6  24464938.944    24464939.340    24464944.373
  24464944.500          39.500          41.250
 112300233.971 8  87506680.379 8  21370022.473    21370022.644    21370025.955
  21370026.147          53.250          53.500
 117389540.070 8  91472372.246 8  22338486.756    22338486.778    22338489.787
  22338489.838          49.250          48.750
 110114543.341 8  85803540.99447  20954097.702    20954097.257
  20954098.288          50.500          46.2504
 105726735.555 8  82384470.21447  20119126.775    20119126.168
  20119127.167          49.000          46.5004
 116987693.070 8  91159244.651 7  22262016.674    22262016.598    22262017.370
  22262017.042          49.000          46.000
 130520025.831 6 101703921.39343  24837133.973    24837134.558
  24837134.513          38.750          18.5004
 20  1  5  1 23 30.0000000  0  9G32G24G08G10G27G21G20G15G13
 123797371.562 7  96465488.318 7  23557856.978    23557857.228    23557860.219
  23557860.300          43.000          43.250
 120951745.956 7  94248111.804 7  23016351.441    23016352.176    23016356.095
  23016355.945          42.250          45.750
 128487511.876 6 100120137.024 6  24450359.647    24450359.542    24450364.488
  24450364.353          40.000          41.750
 112251851.415 8  87468979.695 8  21360815.691    21360815.869    21360818.820
  21360819.155          53.250          53.250
 117364245.294 8  91452662.025 8  22333673.580    22333673.446    22333676.600
  22333676.505          49.500          49.000
 110135459.111 8  85819838.99347  20958078.317    20958077.372
  20958078.395          50.250          46.2504
 105721602.990 8  82380470.82547  20118150.288    20118149.386
  20118150.449          48.250          46.2504
 117076083.396 8  91228120.240 7  22278836.450    22278836.740    22278837.481
  22278837.429          48.000          45.750
 130626989.202 6 101787269.46942  24857489.095    24857489.406
  24857488.935          39.250          17.7504
 20  1  5  1 24  0.0000000  0  9G32G24G08G10G27G21G20G15G13
 123691640.938 7  96383100.811 7  23537737.049    23537737.363    23537740.512
  23537740.635          43.000          43.750
 120885287.626 7  94196326.085 7  23003704.815    23003705.115    23003708.545
  23003709.257          42.000          45.500
 128411282.085 6 100060737.214 6  24435854.480    24435854.121    24435857.987
  24435858.173          40.750          41.250
 112203708.660 8  87431465.854 8  21351654.335    21351654.487    21351657.580
  21351658.011          53.000          53.500
 117339545.812 8  91433415.671 8  22328973.463    22328973.089    22328976.172
  22328975.997          49.500          49.000
 110156744.946 8  85836425.35147  20962128.689    20962127.983
  20962129.043          50.250          46.5004
 105716781.889 8  82376714.12647  20117232.805    20117232.019
  20117233.079          48.000          46.2504
 117164808.236 8  91297256.481 7  22295720.259    22295720.322    22295721.304
  22295721.145          48.000          46.000
 130734110.532 6 101870740.64543  24877872.867    24877872.373
  24877873.167          39.500          18.0004
 20  1  5  1 24 30.0000000  0  9G32G24G08G10G27G21G20G15G13
 123586084.285 7  96300848.897 7  23517650.221    23517650.657    23517654.008
  23517654.503          42.750          44.250
 120819220.371 6  94144845.134 7  22991132.848    22991133.130    22991137.442
  22991137.114          41.750          46.500
 128335443.631 6 100001642.326 6  24421422.433    24421421.933    24421427.116
  24421426.807          40.000          41.500
 112155806.724 8  87394139.682 8  21342539.040    21342539.227    21342542.145
  21342542.608          53.000          53.500
 117315443.277 8  91414634.469 8  22324386.750    22324386.477    22324389.265
  22324389.535          49.750          48.750
 110178402.277 8  85853301.19047  20966249.777    20966249.302
  20966250.164          50.500          46.2504
 105712273.166 8  82373200.83847  20116374.712    20116373.961
  20116375.032          48.000          46.0004
 117253865.896 8  91366652.060 7  22312668.124    22312668.126    22312668.873
  22312668.143          49.000          45.750
 130841387.809 6 101954333.33542  24898286.890    24898287.421
  24898287.072          39.250          16.7504
 20  1  5  1 25  0.0000000  0  9G32G24G08G10G27G21G20G15G13
 123480702.074 7  96218732.896 7  23497596.494    23497596.271    23497600.745
  23497600.570          43.000          44.500
 120753545.835 6  94093670.168 7  22978635.128    22978635.265    22978639.739
  22978639.733          41.250          47.000
 128259996.684 6  99942852.502 6  24407065.049    24407064.754    24407069.437
  24407069.676          40.750          41.750
 112108144.118 8  87356999.989 8  21333468.966    21333469.232    21333471.953
  21333472.507          53.000          53.250
 117291936.819 8  91396317.742 8  22319913.575    22319913.429    22319916.264
  22319916.559          49.750          49.000
 110200429.659 8  85870465.38047  20970441.877    20970440.980
  20970441.851          50.000          46.2504
 105708075.393 7  82369929.84447  20115575.965    20115575.156
  20115576.260          47.750          46.0004
 117343251.979 8  91436303.553 7  22329677.099    22329677.351    22329678.325
  22329677.668          48.250          46.000
 130948817.043 6 102038044.45942  24918730.112    24918730.414
  24918730.393          39.250          15.7504
 20  1  5  1 25 30.0000000  0  9G32G24G08G10G27G21G20G15G13
 123375498.883 7  96136756.416 7  23477577.100    23477576.784    23477580.938
  23477581.498          42.500          44.500
 120688268.716 6  94042804.899 7  22966212.721    22966213.830    22966217.492
  22966218.137          41.750          45.750
 128184946.267 6  99884371.647 7  24392783.643    24392783.103    24392788.937
  24392787.847          41.000          42.500
 112060723.601 8  87320048.940 8  21324445.215    21324445.537    21324448.567
  21324448.939          53.500          53.750
 117269029.819 8  91378468.135 8  22315554.366    22315554.274    22315557.512
  22315557.565          49.500          49.500
 110222830.537 8  85887920.60547  20974704.119    20974703.688
  20974704.670          50.250          46.2504
 105704190.986 8  82366903.03247  20114836.657    20114836.016
  20114837.098          48.000          46.0004
 117432966.122 7  91506210.677 7  22346748.772    22346749.229    22346750.135
  22346750.539          47.750          45.750
 131056398.254 6 102121873.99942  24939201.894    24939202.028
  24939203.146          38.500          17.2504
 20  1  5  1 26  0.0000000  0  9G32G24G08G10G27G21G20G15G13
 123270473.906 7  96054918.780 7  23457591.370    23457591.510    23457595.643
  23457595.695          42.250          44.750
 120623390.055 7  93992250.079 7  22953867.688    22953867.515    22953871.036
  22953870.927          42.250          45.000
 128110292.223 6  99826199.650 7  24378577.463    24378577.225    24378581.888
  24378581.389          41.500          42.000
 112013542.497 8  87283284.451 8  21315467.226    21315467.091    21315470.182
  21315470.433          53.000          53.500
 117246720.133 8  91361083.968 8  22311309.198    22311308.778    22311312.214
  22311312.244          49.500          49.250
 110245602.240 8  85905664.79047  20979037.649    20979037.014
  20979037.986          50.500          46.2504
 105700616.846 8  82364117.98847  20114156.595    20114155.898
  20114156.998          49.250          46.2504
 117523002.891 7  91576369.186 7  22363882.216    22363882.643    22363883.927
  22363883.450          47.750          46.000
 131164125.999 6 102205817.69142  24959702.325    24959703.118
  24959703.152          38.000          17.7504
 20  1  5  1 26 30.0000000  0  9G32G24G08G10G27G21G20G15G13
 123165631.482 7  95973223.405 7  23437640.415    23437640.607    23437644.587
  23437644.827          42.750          44.750
 120558914.497 7  93942009.375 7  22941597.830    22941598.200    22941601.582
  22941602.146          42.000          44.750
 128036038.597 6  99768339.687 7  24364447.903    24364447.397    24364451.906
  24364451.423          41.500          42.000
 111966603.295 8  87246708.441 8  21306534.942    21306535.062    21306537.883
  21306538.307          53.500          53.500
 117225010.797 8  91344167.593 8  22307178.201    22307177.580    22307181.274
  22307180.912          49.250          49.000
 110268747.954 8  85923700.40747  20983442.192    20983441.517
  20983442.278          50.250          46.2504
 105697355.141 8  82361576.40047  20113536.000    20113535.232
  20113536.355          49.250          46.2504
 117613362.019 8  91646778.886 7  22381077.518    22381077.628    22381078.316
  22381078.203          48.500          45.000
 131271999.854 6 102289875.25142  24980229.197    24980229.652
  24980230.589          38.500          17.5004
 20  1  5  1 27  0.0000000  0  9G32G24G08G10G27G21G20G15G13
 123060972.492 7  95891670.946 7  23417724.866    23417725.327    23417728.454
  23417728.336          43.500          44.750
 120494843.531 6  93892083.942 7  22929406.217    22929406.412    22929409.307
  22929409.954          41.750          45.250
 127962187.200 7  99710793.153 7  24350394.238    24350393.769    24350398.951
  24350398.123          42.000          42.000
 111919905.050 8  87210320.213 8  21297648.363    21297648.652    21297651.310
  21297651.946          53.250          53.500
 117203901.389 8  91327718.710 8  22303161.030    22303160.640    22303164.140
  22303163.956          49.750          49.250
 110292266.837 8  85942026.80947  20987917.768    20987917.050
  20987917.893          50.250          46.0004
 105694404.992 8  82359277.57847  20112974.679    20112973.765
  20112974.927          48.250          46.0004
 117704039.393 7  91717436.570 7  22398332.406    22398333.120    22398333.281
  22398333.046          47.750          45.250
 131380016.126 6 102374043.74543  25000784.700    25000784.556
  25000785.307          38.250          20.0004
 20  1  5  1 27 30.0000000  0  9G32G24G08G10G27G21G20G15G13
 122956498.641 7  95810262.753 7  23397844.079    23397844.569    23397848.181
  23397847.891          43.750          44.500
 120431180.372 6  93842476.289 7  22917290.995    22917291.061    22917294.152
  22917294.210          41.750          44.500
 127888739.883 6  99653561.478 6  24336417.265    24336417.202    24336421.652
  24336420.892          41.250          41.500
 111873447.572 8  87174119.575 8  21288807.780    21288807.893    21288810.902
  21288811.346          53.000          53.500
 117183392.191 8  91311737.505 8  22299257.948    22299257.992    22299261.184
  22299261.360          49.250          49.500
 110316158.943 8  85960644.03047  20992464.121    20992463.455
  20992464.454          50.500          46.2504
 105691765.897 8  82357221.14747  20112472.304    20112471.766
  20112472.811          49.000          46.2504
 117795032.160 8  91788340.027 7  22415648.249    22415648.385    22415649.057
  22415648.590          48.250          44.750
 131488172.043 6 102458321.05743  25021366.957    25021365.407
  25021367.156          37.250          18.2504
 20  1  5  1 28  0.0000000  0  9G32G24G08G10G27G21G20G15G13
 122852211.944 7  95729000.399 7  23377999.172    23377999.732    23378003.147
  23378003.268          44.000          44.750
 120367928.031 6  93793188.734 7  22905254.348    22905254.782    22905258.686
  22905258.651          41.500          46.250
 127815699.058 6  99596646.554 6  24322518.439    24322518.155    24322522.143
  24322521.615          41.000          41.250
 111827231.075 8  87138106.726 8  21280013.047    21280013.274    21280016.145
  21280016.745          53.000          53.500
 117163483.900 8  91296224.551 8  22295469.939    22295469.583    22295472.856
  22295472.897          49.750          49.500
 110340424.641 8  85979552.35547  20997081.722    20997081.034
  20997082.027          50.250          46.2504
 105689437.900 8  82355407.11747  20112029.559    20112028.597
  20112029.747          49.500          46.0004
 117886337.623 7  91859487.148 7  22433022.859    22433023.093    22433023.580
  22433023.377          47.750          45.000
 131596464.969 6 102542705.11242  25041974.448    25041973.505
  25041973.718          36.500          17.2504
 20  1  5  1 28 30.0000000  0  8G32G24G08G10G27G21G20G15
 122748115.484 7  95647886.282 7  23358190.401    23358190.648    23358193.750
  23358193.460          43.750          44.500
 120305090.464 6  93744224.443 7  22893297.193    22893297.339    22893300.903
  22893301.513          41.750          46.000
 127743067.749 6  99540050.724 6  24308696.886    24308697.451    24308700.969
  24308700.471          41.250          41.250
 111781256.783 8  87102282.601 8  21271264.218    21271264.537    21271267.680
  21271268.151          52.750          53.500
 117144178.200 8  91281181.149 8  22291796.203    22291796.058    22291799.129
  22291799.243          49.250          49.750
 110365065.408 8  85998752.94347  21001770.761    21001770.160
  21001770.968          50.500          46.5004
 105687421.933 8  82353836.22847  20111645.595    20111645.048
  20111646.107          48.250          46.0004
 117977954.052 7  91930876.565 7  22450456.898    22450457.068    22450457.424
  22450458.129          47.750          45.250
 20  1  5  1 29  0.0000000  0  8G32G24G08G10G27G21G20G15
 122644210.560 7  95566921.421 7  23338417.691    23338417.888    23338421.395
  23338421.002          43.500          44.750
 120242669.261 6  93695584.534 7  22881418.392    22881418.388    22881422.529
  22881421.977          40.250          45.250
 127670847.589 6  99483775.265 7  24294953.862    24294953.467    24294957.518
  24294958.264          41.500          42.000
 111735524.166 8  87066646.813 9  21262561.959    21262562.181    21262565.148
  21262565.418          53.250          54.000
 117125474.958 8  91266607.192 8  22288236.987    22288236.717    22288240.299
  22288240.102          48.750          49.750
 110390080.995 8  86018245.59447  21006531.034    21006530.406
  21006531.379          50.000          46.0004
 105685717.185 8  82352507.85047  20111321.052    20111320.425
  20111321.729          48.750          46.0004
 118069877.833 8  92002505.489 7  22467949.628    22467949.634    22467950.139
  22467950.334          48.250          45.500
 20  1  5  1 29 30.0000000  0  8G32G24G08G10G27G21G20G15
 122540499.341 7  95486107.502 7  23318681.924    23318682.534    23318685.452
  23318685.488          43.500          44.500
 120180667.961 6  93647271.825 7  22869620.522    22869620.244    22869624.287
  22869624.434          41.250          46.250
 127599041.173 7  99427822.229 7  24281289.507    24281289.216    24281293.959
  24281293.850          42.000          42.500
 111690033.527 8  87031199.553 8  21253905.190    21253905.427    21253908.438
  21253908.899          53.000          53.750
 117107374.882 8  91252503.231 8  22284792.513    22284792.474    22284795.850
  22284795.741          48.750          49.750
 110415471.900 8  86038030.70447  21011362.883    21011362.197
  21011363.147          50.250          46.2504
 105684323.775 7  82351422.08047  20111056.131    20111055.367
  20111056.488          47.750          46.0004
 118162106.785 8  92074372.196 7  22485499.939    22485500.223    22485501.075
  22485501.214          48.000          45.750
 20  1  5  1 30  0.0000000  0  8G32G24G08G10G27G21G20G15
 122436982.786 7  95405445.251 7  23298983.384    23298983.726    23298986.835
  23298987.658          43.000          44.750
 120119088.086 6  93599287.525 7  22857901.219    22857902.168    22857905.593
  22857906.454          41.000          46.000
 127527649.662 7  99372192.462 7  24267704.745    24267704.635    24267707.899
  24267708.105          42.500          42.750
 111644784.065 8  86995940.236 9  21245294.637    21245294.748    21245297.863
  21245298.276          53.000          54.000
 117089877.502 8  91238868.920 8  22281462.605    22281462.759    22281465.853
  22281465.958          48.500          49.250
 110441237.673 8  86058107.93447  21016265.879    21016265.264
  21016266.214          50.250          46.2504
 105683240.737 7  82350578.15847  20110849.786    20110849.195
  20110850.451          46.750          46.0004
 118254636.977 8  92146473.631 7  22503107.972    22503107.995    22503108.755
  22503109.205          48.000          45.750
 20  1  5  1 30 30.0000000  0  9G32G24G08G10G27G13G21G20G15
 122333664.282 7  95324937.350 7  23279322.720    23279322.388    23279326.274
  23279326.604          43.750          44.750
 120057934.195 6  93551635.172 7  22846264.322    22846264.590    22846268.858
  22846268.922          40.750          46.000
 127456676.885 7  99316888.993 7  24254199.144    24254198.161    24254203.705
  24254202.505          43.000          42.500
 111599777.284 8  86960870.028 8  21236730.175    21236730.194    21236733.084
  21236733.640          53.000          53.500
 117072984.690 8  91225705.682 8  22278248.238    22278248.090    22278251.513
  22278251.589          49.000          49.500
 132139897.851 6 102966158.69542  25145386.773    25145386.925
  25145386.666          37.000          16.2504
 110467379.985 8  86078478.56547  21021240.572    21021239.915
  21021240.862          50.000          46.2504
 105682469.585 7  82349977.26747  20110703.060    20110702.499
  20110703.568          47.750          46.0004
 118347467.255 7  92218808.893 7  22520772.168    22520773.080    22520773.752
  22520773.725          47.000          45.250
 20  1  5  1 31  0.0000000  0  9G32G24G08G10G27G13G21G20G15
 122230545.493 7  95244585.040 7  23259700.017    23259700.132    23259703.274
  23259703.493          44.000          45.000
 119997208.368 6  93504316.292 7  22834709.338    22834708.816    22834712.085
  22834712.622          41.750          44.500
 127386124.247 7  99261912.925 7  24240772.673    24240773.169    24240777.436
  24240776.799          43.250          42.500
 111555013.022 8  86925988.784 8  21228211.745    21228211.895    21228214.825
  21228215.163          52.750          53.500
 117056696.608 8  91213013.681 8  22275148.804    22275148.499    22275151.791
  22275151.931          48.500          49.750
 132248962.458 6 103051144.11842  25166140.510    25166140.987
  25166141.617          38.250          16.0004
 110493898.875 8  86099142.63147  21026286.967    21026286.235
  21026287.313          49.500          46.2504
 105682009.703 8  82349618.91147  20110615.751    20110614.913
  20110616.203          48.000          46.0004
 118440594.119 7  92291375.287 7  22538494.131    22538494.311    22538495.587
  22538495.168          47.750          45.000
 20  1  5  1 31 30.0000000  0  9G32G24G08G10G27G13G21G20G15
 122127626.808 7  95164388.674 7  23240115.347    23240115.876    23240118.881
  23240118.961          44.500          45.250
 119936912.160 6  93457332.267 7  22823234.441    22823235.738    22823239.582
  22823238.532          41.500          46.500
 127315993.321 7  99207265.473 7  24227427.920    24227426.722    24227432.742
  24227432.012          43.000          43.250
 111510489.927 8  86891295.470 9  21219739.183    21219739.402    21219742.454
  21219742.902          53.000          54.000
 117041012.169 8  91200792.031 8  22272164.048    22272163.767    22272167.077
  22272167.195          48.250          49.750
 132358145.248 6 103136221.63143  25186918.729    25186917.068
  25186917.871          39.500          18.2504
 110520793.028 8  86120099.10647  21031404.846    21031404.009
  21031405.086          49.750          46.0004
 105681859.315 8  82349501.72047  20110587.070    20110586.388
  20110587.565          48.750          46.0004
 118534013.687 7  92364169.750 7  22556271.552    22556271.714    22556272.338
  22556272.566          47.500          44.500
 20  1  5  1 32  0.0000000  0  9G32G24G08G10G27G13G21G20G15
 122024912.734 7  95084351.736 7  23220569.184    23220570.058    23220573.153
  23220572.705          43.750          45.500
 119877050.382 7  93410686.747 7  22811843.144    22811843.753    22811846.422
  22811847.290          42.000          44.750
 127246288.066 6  99152949.686 7  24214162.173    24214162.492    24214167.800
  24214166.804          41.750          43.250
 111466210.569 8  86856792.080 8  21211313.155    21211313.247    21211316.129
  21211316.647          52.500          53.750
 117025934.222 8  91189042.975 8  22269295.039    22269294.409    22269298.356
  22269298.217          48.250          49.500
 132467446.393 6 103221391.35642  25207718.060    25207717.113
  25207717.734          38.500          14.2504
 110548065.387 8  86141350.28647  21036594.333    21036593.892
  21036594.923          50.000          46.0004
 105682021.281 8  82349627.94047  20110618.192    20110617.356
  20110618.474          48.250          46.0004
 118627725.461 8  92437191.918 7  22574104.281    22574104.813    22574105.258
  22574104.815          48.000          44.750
 20  1  5  1 32 30.0000000  0  9G32G24G08G10G27G13G21G20G15
 121922404.340 7  95004475.076 7  23201062.557    23201062.695    23201066.194
  23201066.344          43.500          45.500
 119817625.356 7  93364381.525 7  22800535.335    22800534.855    22800539.411
  22800539.619          42.000          46.000
 127177010.038 7  99098966.791 7  24200979.243    24200979.215    24200983.862
  24200983.736          42.500          43.000
 111422174.378 8  86822478.166 8  21202933.282    21202933.416    21202936.460
  21202936.791          52.250          53.750
 117011462.462 7  91177766.276 8  22266540.889    22266540.690    22266544.212
  22266544.131          47.750          49.250
 132576862.608 6 103306650.74942  25228539.057    25228538.599
  25228539.055          38.500          14.0004
 110575715.458 8  86162895.79147  21041856.287    21041855.366
  21041856.418          50.000          46.0004
 105682494.582 7  82349996.74647  20110707.940    20110707.209
  20110708.511          47.500          46.0004
 118721726.379 7  92510439.381 7  22591992.102    22591992.342    22591993.342
  22591993.140          47.500          44.750
 20  1  5  1 33  0.0000000  0  9G32G24G08G10G27G13G21G20G15
 121820102.930 7  94924759.712 7  23181594.896    23181595.106    23181599.209
  23181599.282          43.500          45.750
 119758639.165 6  93318418.284 7  22789310.562    22789311.319    22789314.697
  22789314.973          41.750          46.500
 127108160.606 7  99045317.876 7  24187878.365    24187877.937    24187882.740
  24187882.837          42.750          43.250
 111378380.790 8  86788353.292 8  21194599.585    21194599.873    21194602.639
  21194603.131          52.750          53.750
 116997596.462 8  91166961.603 8  22263902.648    22263902.206    22263905.810
  22263905.881          48.250          49.750
 132686390.566 6 103391997.20542  25249381.544    25249380.199
  25249379.539          38.500          14.5004
 110603742.856 8  86184735.30547  21047189.594    21047188.843
  21047189.908          50.000          46.2504
 105683278.435 7  82350607.54247  20110857.017    20110856.468
  20110857.636          47.000          46.0004
 118816012.868 8  92583909.353 7  22609934.226    22609934.173    22609934.828
  22609934.948          48.000          44.750
 20  1  5  1 33 30.0000000  0  9G32G24G08G10G27G13G21G20G15
 121718010.900 7  94845207.489 7  23162167.272    23162167.651    23162171.427
  23162171.278          43.000          45.750
 119700095.280 7  93272799.660 7  22778170.098    22778170.243    22778174.184
  22778174.595          42.000          46.250
 127039742.751 7  98992005.248 7  24174858.017    24174858.143    24174862.841
  24174862.374          42.000          43.250
 111334830.445 8  86754417.961 9  21186312.381    21186312.467    21186315.483
  21186315.828          53.000          54.000
 116984337.098 8  91156629.624 8  22261379.255    22261379.341    22261382.622
  22261382.393          48.500          49.750
 132796028.177 6 103477429.09342  25270245.634    25270243.984
  25270244.745          37.500          15.7504
 110632148.411 8  86206869.49347  21052594.784    21052594.301
  21052595.334          49.750          46.0004
 105684373.195 7  82351460.59847  20111065.413    20111064.715
  20111065.967          47.250          46.0004
 118910582.305 7  92657599.809 7  22627930.161    22627930.281    22627931.500
  22627931.284          47.250          45.000
 20  1  5  1 34  0.0000000  0  9G32G24G08G10G27G13G21G20G15
 121616130.036 7  94765819.823 7  23142780.156    23142780.429    23142784.103
  23142783.757          43.500          45.500
 119641995.792 6  93227527.376 7  22767113.301    22767114.352    22767118.087
  22767118.342          40.000          46.000
 126971758.301 7  98939030.336 7  24161921.477    24161921.174    24161926.084
  24161925.072          43.000          43.000
 111291523.236 8  86720672.089 9  21178071.423    21178071.499    21178074.225
  21178074.797          53.000          54.000
 116971684.416 8  91146770.391 8  22258971.617    22258971.477    22258974.753
  22258974.673          48.250          49.250
 132905772.771 6 103562944.36742  25291128.013    25291128.082
  25291128.623          36.000          12.7504
 110660931.917 8  86229298.19347  21058072.266    21058071.633
  21058072.644          49.750          46.2504
 105685778.567 8  82352555.68647  20111332.717    20111332.246
  20111333.382          48.750          46.0004
 119005432.152 8  92731508.780 7  22645979.365    22645979.769    22645980.488
  22645980.011          48.000          44.500
 20  1  5  1 34 30.0000000  0  8G32G24G08G10G27G21G20G15
 121514462.768 7  94686598.587 7  23123433.759    23123434.207    23123437.291
  23123437.978          43.750          45.000
 119584344.278 6  93182604.117 7  22756143.490    22756143.718    22756148.113
  22756147.894          41.500          47.250
 126904209.908 7  98886395.232 7  24149067.348    24149067.081    24149072.022
  24149071.791          43.500          43.000
 111248459.886 8  86687116.233 8  21169876.466    21169876.705    21169879.610
  21169879.971          52.500          53.750
 116959639.261 8  91137384.550 8  22256679.480    22256679.415    22256682.493
  22256682.614          48.000          49.500
 110690094.282 8  86252022.11547  21063621.539    21063621.097
  21063622.024          49.250          46.0004
 105687495.197 7  82353893.31547  20111659.667    20111658.972
  20111660.033          47.500          45.7504
 119100560.160 7  92805634.498 7  22664081.759    22664082.131    22664082.551
  22664082.427          47.750          44.250
 20  1  5  1 35  0.0000000  0  8G32G24G08G10G27G21G20G15
 121413010.516 7  94607544.882 7  23104128.249    23104128.789    23104131.502
  23104131.957          44.250          45.000
 119527142.221 7  93138031.105 7  22745258.411    22745258.492    22745261.878
  22745261.892          42.250          45.000
 126837099.359 7  98834101.311 7  24136297.155    24136296.934    24136301.187
  24136301.207          43.250          42.750
 111205640.048 8  86653750.122 9  21161728.210    21161728.400    21161731.194
  21161731.744          52.750          54.250
 116948201.385 8  91128471.926 8  22254502.819    22254502.599    22254506.136
  22254506.022          48.000          49.750
 110719635.403 8  86275041.17747  21069242.937    21069242.608
  21069243.625          50.000          46.2504
 105689522.298 8  82355472.88147  20112045.147    20112044.473
  20112045.725          49.000          46.0004
 119195962.999 7  92879974.363 7  22682236.453    22682236.545    22682237.450
  22682237.307          47.750          44.250
 20  1  5  1 35 30.0000000  0  8G32G24G08G10G27G21G20G15
 121311775.144 7  94528660.182 7  23084863.824    23084864.423    23084867.286
  23084867.084          44.250          44.750
 119470392.952 6  93093810.926 7  22734458.585    22734459.182    22734463.617
  22734463.281          41.250          46.250
 126770428.375 7  98782149.897 7  24123609.427    24123609.582    24123614.355
  24123613.338          42.750          43.000
 111163063.776 8  86620573.814 8  21153626.265    21153626.382    21153629.166
  21153629.752          53.000          53.750
 116937370.943 8  91120032.603 8  22252442.014    22252441.884    22252445.146
  22252445.183          48.250          49.750
 110749555.561 8  86298355.59147  21074936.932    21074936.174
  21074937.190          50.250          46.2504
 105691859.597 8  82357294.15347  20112490.125    20112489.405
  20112490.547          48.500          46.0004
 119291637.864 7  92954526.212 7  22700442.340    22700442.733    22700443.811
  22700443.694          47.250          44.500
 20  1  5  1 36  0.0000000  0  8G32G24G08G10G27G21G20G15
 121210758.689 7  94449946.057 7  23065641.307    23065640.973    23065643.792
  23065643.948          44.250          45.000
 119414098.606 7  93049945.156 7  22723746.928    22723746.907    22723750.257
  22723750.821          43.000          45.750
 126704199.475 7  98730542.974 7  24111006.740    24111006.401    24111010.857
  24111010.925          42.750          43.250
 111120731.359 8  86587587.520 9  21145570.732    21145570.747    21145573.815
  21145574.175          52.750          54.250
 116927148.265 7  91112066.877 8  22250496.562    22250496.293    22250499.851
  22250499.556          47.750          49.500
 110779854.611 8  86321965.23247  21080702.674    21080701.928
  21080702.875          49.500          46.0004
 105694507.208 8  82359357.23647  20112993.845    20112993.196
  20112994.474          48.000          45.7504
 119387582.390 7  93029288.187 7  22718699.912    22718700.489    22718702.141
  22718701.242          47.250          44.750
 20  1  5  1 36 30.0000000  0  8G32G24G08G10G27G21G20G15
 121109963.249 7  94371404.176 7  23046459.783    23046460.096    23046463.783
  23046463.637          43.750          45.750
 119358262.991 6  93006436.922 7  22713120.214    22713121.833    22713125.154
  22713125.725          40.750          45.500
 126638414.480 7  98679281.936 7  24098488.370    24098487.903    24098493.201
  24098492.790          42.500          43.750
 111078643.139 8  86554791.508 9  21137561.477    21137561.625    21137564.536
  21137565.038          53.000          54.000
 116917533.704 8  91104575.004 8  22248666.995    22248666.772    22248670.127
  22248670.056          48.500          49.500
 110810533.522 8  86345870.86547  21086540.559    21086540.040
  21086541.056          49.500          46.2504
 105697465.811 8  82361662.64347  20113556.777    20113556.088
  20113557.446          48.000          45.7504
 119483794.117 7  93104258.347 7  22737008.955    22737008.980    22737009.620
  22737009.831          47.750          44.500
 20  1  5  1 37  0.0000000  0  8G32G24G08G10G27G21G20G15
 121009391.196 7  94293036.349 7  23027321.594    23027322.260    23027325.108
  23027325.425          44.250          45.750
 119302888.301 6  92963287.804 7  22702583.258    22702584.387    22702588.641
  22702588.442          41.750          46.500
 126573076.155 7  98628368.949 7  24086054.902    24086054.784    24086058.989
  24086059.170          42.750          43.500
 111036799.714 8  86522186.246 9  21129598.891    21129598.983    21129602.168
  21129602.479          53.000          54.250
 116908527.882 8  91097557.482 8  22246953.183    22246953.029    22246956.281
  22246956.460          48.500          49.500
 110841592.796 8  86370072.89247  21092450.967    21092450.361
  21092451.282          50.000          46.2504
 105700735.540 8  82364210.47947  20114179.124    20114178.413
  20114179.575          49.250          45.7504
 119580270.785 7  93179434.947 7  22755367.470    22755367.569    22755368.484
  22755368.608          46.750          44.250
 20  1  5  1 37 30.0000000  0  8G32G24G08G10G27G21G20G15
 120909044.000 7  94214843.762 7  23008226.417    23008226.228    23008230.249
  23008230.015          44.000          46.500
 119247977.225 7  92920499.950 7  22692134.899    22692134.900    22692138.294
  22692138.932          42.000          46.000
 126508186.423 7  98577805.513 7  24073706.913    24073706.665    24073710.558
  24073711.229          43.250          43.250
 110995200.819 8  86489771.517 9  21121682.923    21121683.060    21121685.847
  21121686.461          53.250          54.000
 116900130.518 8  91091014.063 8  22245354.951    22245354.638    22245358.469
  22245358.385          48.250          49.250
 110873032.576 8  86394571.42447  21098433.790    21098433.301
  21098434.072          50.250          46.0004
 105704315.466 8  82367000.01647  20114860.330    20114859.677
  20114860.737          48.500          45.7504
 119677008.984 7  93254815.349 7  22773776.057    22773776.331    22773777.357
  22773777.292          47.000          44.000
 20  1  5  1 38  0.0000000  0  8G32G24G08G10G27G21G20G15
 120808923.625 7  94136827.898 7  22989173.995    22989174.695    22989177.713
  22989177.365          44.250          45.750
 119193531.779 7  92878074.950 7  22681774.100    22681774.102    22681777.710
  22681778.391          42.750          45.750
 126443747.478 7  98527593.362 7  24061444.807    24061444.076    24061448.653
  24061447.894          43.250          43.500
 110953846.737 8  86457547.562 9  21113813.429    21113813.527    21113816.659
  21113817.035          53.250          54.000
 116892341.792 8  91084944.934 8  22243873.340    22243873.185    22243875.986
  22243875.955          49.250          49.250
 110904852.629 8  86419366.26847  21104489.016    21104488.402
  21104489.272          50.000          46.0004
 105708205.955 8  82370031.56647  20115600.788    20115600.013
  20115601.217          49.000          45.7504
 119774006.265 7  93330397.644 7  22792234.558    22792234.903    22792235.701
  22792235.047          47.250          43.750
 20  1  5  1 38 30.0000000  0  8G32G24G08G10G27G21G20G15
 120709031.732 7  94058990.058 7  22970165.092    22970165.499    22970168.115
  22970168.711          44.250          45.250
 119139554.957 7  92836015.071 7  22671503.004    22671503.064    22671507.059
  22671507.077          42.750          47.250
 126379760.446 7  98477733.347 7  24049267.896    24049267.882    24049272.452
  24049271.875          43.000          43.000
 110912737.314 8  86425514.251 9  21105990.711    21105990.850    21105993.776
  21105994.227          53.500          54.250
 116885161.500 8  91079349.905 8  22242506.698    22242506.935    22242509.811
  22242510.095          49.250          49.500
 110937052.924 8  86444457.39047  21110616.364    21110615.816
  21110617.004          50.250          46.0004
 105712406.601 8  82373304.80447  20116399.879    20116399.432
  20116400.451          48.500          45.7504
 119871259.823 7  93406179.625 7  22810741.097    22810741.269    22810742.366
  22810741.705          47.250          43.500
 20  1  5  1 39  0.0000000  0  8G32G24G08G10G27G21G20G15
 120609370.048 7  93981331.593 7  22951200.394    22951200.698    22951203.867
  22951203.242          44.250          45.250
 119086049.268 7  92794322.339 7  22661321.706    22661320.990    22661325.345
  22661325.007          43.500          47.250
 126316227.941 7  98428227.495 7  24037178.759    24037178.124    24037182.217
  24037182.548          43.250          43.250
 110871872.568 8  86393671.599 9  21098214.358    21098214.485    21098217.326
  21098217.878          53.250          54.250
 116878589.535 8  91074228.885 8  22241256.058    22241255.862    22241259.612
  22241259.416          49.000          50.000
 110969633.568 8  86469844.89147  21116816.281    21116815.653
  21116816.587          49.750          46.0004
 105716917.191 7  82376819.55247  20117258.416    20117257.738
  20117258.791          47.500          45.7504
 119968766.726 7  93482159.041 7  22829296.211    22829296.091    22829297.351
  22829296.688          47.500          43.750
 20  1  5  1 39 30.0000000  0  8G32G24G08G10G27G21G20G15
 120509940.689 7  93903854.177 7  22932279.242    22932279.917    22932283.225
  22932283.372          43.750          45.750
 119033017.322 7  92752998.743 7  22651228.481    22651229.163    22651233.790
  22651233.185          42.000          46.750
 126253151.877 7  98379077.300 7  24025175.402    24025175.098    24025179.737
  24025179.481          43.250          43.250
 110831252.915 8  86362019.933 9  21090484.627    21090484.747    21090487.808
  21090488.211          53.250          54.250
 116872626.193 8  91069582.117 8  22240121.432    22240121.173    22240124.429
  22240124.681          49.500          49.750
 111002594.968 8  86495529.10047  21123088.682    21123088.099
  21123088.976          50.750          46.0004
 105721738.015 8  82380576.03347  20118175.816    20118175.001
  20118176.182          48.750          46.0004
 120066524.646 7  93558334.036 7  22847898.798    22847898.524    22847899.524
  22847899.651          47.250          44.000
 20  1  5  1 40  0.0000000  0  8G32G24G08G10G27G21G20G15
 120410745.999 7  93826559.613 7  22913403.217    22913403.707    22913406.991
  22913406.754          44.750          46.250
 118980461.984 7  92712046.521 7  22641228.371    22641228.408    22641233.108
  22641232.617          43.750          47.250
 126190535.062 7  98330284.962 7  24013259.621    24013259.694    24013263.736
  24013264.189          43.000          43.250
 110790878.940 8  86330559.686 9  21082801.659    21082801.891    21082804.799
  21082805.393          53.250          54.250
 116867271.918 8  91065409.965 8  22239102.255    22239102.154    22239105.611
  22239105.716          49.000          49.250
 111035937.486 8  86521510.27547  21129433.497    21129432.952
  21129433.979          49.750          45.7504
 105726869.173 7  82384574.34047  20119152.013    20119151.393
  20119152.801          47.750          46.0004
 120164531.099 7  93634702.681 7  22866548.805    22866549.002    22866549.349
  22866549.624          46.750          43.750
 20  1  5  1 40 30.0000000  0  8G32G24G08G10G27G21G20G15
 120311788.033 7  93749449.504 7  22894571.682    22894572.208    22894575.862
  22894575.851          44.250          46.500
 118928386.186 7  92671467.980 7  22631317.722    22631318.745    22631323.793
  22631322.570          42.750          47.500
 126128379.050 7  98281851.706 7  24001431.861    24001432.220    24001435.784
  24001435.671          43.000          42.750
 110750750.967 8  86299291.136 9  21075165.599    21075165.726    21075168.635
  21075169.192          53.250          54.250
 116862526.815 8  91061712.477 8  22238199.409    22238199.464    22238202.894
  22238202.853          48.750          50.000
 111069662.024 8  86547789.13047  21135851.194    21135850.580
  21135851.470          50.000          45.5004
 105732311.043 8  82388814.75947  20120187.948    20120187.156
  20120188.255          48.750          45.7504
 120262783.644 7  93711263.092 7  22885245.523    22885245.308    22885247.047
  22885246.231          46.750          43.750
 20  1  5  1 41  0.0000000  0  8G32G24G08G10G27G21G20G15
 120213067.857 7  93672524.716 7  22875786.319    22875786.346    22875790.552
  22875790.257          44.250          46.750
 118876791.171 7  92631264.084 7  22621499.750    22621500.563    22621504.557
  22621504.520          42.500          47.250
 126066685.652 7  98233778.948 7  23989691.961    23989692.342    23989696.218
  23989695.849          42.500          43.500
 110710868.436 8  86268213.850 9  21067575.919    21067576.459    21067579.393
  21067579.768          53.000          54.250
 116858390.112 8  91058489.066 8  22237412.661    22237412.085    22237415.404
  22237415.493          49.750          49.750
 111103767.638 8  86574364.92747  21142341.395    21142340.572
  21142341.620          50.500          45.7504
 105738062.634 8  82393296.51547  20121282.200    20121281.620
  20121282.761          48.750          45.7504
 120361279.281 7  93788012.938 7  22903988.657    22903988.727    22903989.342
  22903989.784          47.000          43.750
 20  1  5  1 41 30.0000000  0  8G32G24G08G10G27G21G20G15
 120114587.337 7  93595786.672 7  22857045.973    22857046.537    22857050.185
  22857050.395          45.000          47.000
 118825679.767 7  92591437.026 7  22611774.038    22611774.866    22611778.415
  22611778.581          43.500          46.500
 126005456.647 7  98186068.027 7  23978040.293    23978039.940    23978044.810
  23978043.962          42.000          43.500
 110671231.465 8  86237327.890 9  21060033.522    21060033.791    21060036.727
  21060037.145          53.250          54.250
 116854861.688 8  91055739.646 8  22236740.998    22236740.931    22236744.101
  22236743.917          49.500          49.500
 111138254.249 8  86601237.60847  21148903.841    21148903.158
  21148904.215          51.000          45.7504
 105744123.927 8  82398019.59647  20122435.909    20122434.908
  20122436.169          49.000          46.0004
 120460015.212 7  93864950.028 7  22922777.475    22922777.887    22922778.343
  22922778.457          47.000          43.000
 20  1  5  1 42  0.0000000  0  8G32G24G08G10G27G21G20G15
 120016348.376 7  93519236.845 7  22838351.802    22838352.255    22838356.074
  22838355.908          44.750          46.750
 118775054.680 7  92551988.902 7  22602140.576    22602141.316    22602144.841
  22602144.681          43.750          47.000
 125944693.998 7  98138720.502 7  23966477.381    23966477.352    23966482.069
  23966482.332          42.000          43.750
 110631840.279 8  86206633.466 9  21052537.517    21052537.849    21052540.651
  21052541.226          53.000          54.000
 116851941.492 8  91053464.156 8  22236185.175    22236185.105    22236188.900
  22236188.572          49.250          49.750
 111173121.972 8  86628407.26247  21155538.946    21155538.230
  21155539.206          50.500          45.5004
 105750494.908 8  82402983.99247  20123647.964    20123647.309
  20123648.538          49.000          46.0004
 120558988.568 7  93942072.094 7  22941611.580    22941611.873    22941612.378
  22941612.326          46.750          43.750
 20  1  5  1 42 30.0000000  0  8G32G24G08G10G27G21G20G15
 119918353.642 7  93442877.316 7  22819704.233    22819704.352    22819708.191
  22819707.884          45.500          46.500
 118724919.190 7  92512922.322 7  22592600.622    22592600.519    22592604.532
  22592604.217          44.250          46.750
 125884400.050 7  98091738.229 7  23955004.399    23955003.936    23955008.286
  23955008.702          42.250          43.750
 110592695.856 8  86176131.320 9  21045088.726    21045088.882    21045091.862
  21045092.297          53.250          54.000
 116849630.160 8  91051663.123 8  22235745.443    22235745.096    22235748.534
  22235748.581          49.000          49.500
 111208371.651 8  86655874.54347  21162246.651    21162246.117
  21162247.135          50.750          45.5004
 105757176.382 8  82408190.33447  20124919.688    20124918.763
  20124919.875          49.500          46.0004
 120658197.674 7  94019377.899 7  22960490.111    22960490.246    22960491.744
  22960491.191          46.000          43.500
 20  1  5  1 43  0.0000000  0  8G32G24G08G10G27G21G20G15
 119820604.175 7  93366708.896 7  22801102.633    22801102.856    22801106.887
  22801106.621          44.000          46.500
 118675274.579 7  92474238.182 7  22583153.543    22583153.410    22583156.635
  22583156.972          44.750          45.750
 125824576.425 7  98045122.414 7  23943619.944    23943619.385    23943624.612
  23943624.672          42.500          44.250
 110553797.610 8  86145821.012 9  21037686.839    21037686.774    21037689.782
  21037690.154          53.250          54.250
 116847926.834 8  91050335.839 8  22235421.201    22235421.247    22235424.518
  22235424.561          49.000          49.750
 111244002.933 8  86683639.17347  21169027.147    21169026.424
  21169027.530          50.500          45.5004
 105764167.386 8  82413637.86747  20126249.630    20126249.175
  20126250.333          48.750          45.5004
 120757639.141 7  94096864.735 7  22979413.598    22979413.717    22979414.316
  22979414.870          46.000          43.250
 20  1  5  1 43 30.0000000  0  8G32G24G08G10G27G21G20G15
 119723101.247 7  93290732.597 7  22782548.380    22782549.017    22782552.468
  22782552.531          45.500          46.750
 118626122.830 7  92435938.096 7  22573799.184    22573799.613    22573802.813
  22573804.247          44.000          45.500
 125765224.294 7  97998874.009 7  23932326.181    23932325.429    23932330.117
  23932329.929          42.500          44.250
 110515145.085 8  86115702.161 9  21030331.366    21030331.498    21030334.354
  21030334.881          53.250          54.250
 116846830.715 8  91049481.719 8  22235213.000    22235212.583    22235215.924
  22235215.754          49.500          49.500
 111280015.115 8  86711700.60647  21175879.990    21175879.299
  21175880.392          50.000          45.7504
 105771467.244 8  82419326.06847  20127638.975    20127638.202
  20127639.396          48.250          45.7504
 120857309.497 7  94174529.931 7  22998380.513    22998380.201    22998381.702
  22998380.910          46.500          44.000
 20  1  5  1 44  0.0000000  0  8G32G24G08G10G27G21G20G15
 119625848.257 7  93214951.061 7  22764042.129    22764042.402    22764045.773
  22764045.895          45.750          47.000
 118577468.209 7  92398025.456 7  22564539.880    22564541.655    22564544.418
  22564545.232          42.000          45.500
 125706347.063 7  97952995.649 7  23921122.042    23921121.065    23921126.021
  23921126.022          42.250          44.000
 110476739.848 8  86085776.003 9  21023023.025    21023023.165    21023026.115
  21023026.521          53.250          54.250
 116846343.173 8  91049101.809 8  22235120.005    22235119.896    22235123.378
  22235123.433          49.750          50.000
 111316409.882 8  86740060.15347  21182805.601    21182805.076
  21182806.022          50.000          45.5004
 105779077.563 8  82425256.19447  20129087.208    20129086.593
  20129087.583          48.250          45.7504
 120957207.934 7  94252372.864 7  23017390.723    23017390.418    23017391.601
  23017391.341          46.750          43.500
 20  1  5  1 44 30.0000000  0  8G32G24G08G10G27G21G20G15
 119528847.135 7  93139365.779 7  22745583.146    22745583.427    22745586.809
  22745587.012          45.250          46.500
 118529312.753 7  92360501.726 7  22555377.603    22555377.583    22555381.469
  22555381.509          44.250          47.000
 125647946.771 7  97907488.929 7  23910008.378    23910008.229    23910012.963
  23910013.041          42.250          44.000
 110438582.503 8  86056043.002 9  21015761.914    21015762.018    21015765.063
  21015765.449          53.000          54.250
 116846464.004 8  91049195.951 8  22235143.154    22235143.043    22235146.150
  22235146.186          49.500          49.750
 111353187.534 8  86768718.05547  21189804.233    21189803.586
  21189804.633          50.250          45.7504
 105786998.219 8  82431428.13147  20130594.561    20130593.777
  20130594.771          48.250          45.7504
 121057331.895 7  94330391.522 7  23036443.107    23036443.612    23036443.951
  23036444.556          46.000          43.500
 20  1  5  1 45  0.0000000  0  8G32G24G08G10G27G21G20G15
 119432098.349 7  93063977.134 7  22727172.482    22727172.674    22727176.779
  22727176.739          44.750          47.000
 118481657.996 7  92323368.139 8  22546309.506    22546309.274    22546314.322
  22546313.116          45.250          48.250
 125590024.003 7  97862354.298 7  23898986.383    23898986.582    23898991.143
  23898990.643          43.000          44.000
 110400671.745 8  86026502.153 9  21008547.818    21008547.809    21008550.750
  21008551.288          53.000          54.250
 116847191.657 8  91049762.949 8  22235281.643    22235281.683    22235284.420
  22235284.568          50.000          49.500
 111390346.530 8  86797673.10547  21196875.158    21196874.672
  21196875.782          51.000          45.5004
 105795227.851 8  82437840.83447  20132160.517    20132159.679
  20132160.956          49.250          45.5004
 121157677.592 7  94408582.965 7  23055538.734    23055538.569    23055539.539
  23055539.697          46.500          42.750
 20  1  5  1 45 30.0000000  0  8G32G24G08G10G27G21G20G15
 119335603.900 7  92988786.667 7  22708810.354    22708810.506    22708813.717
  22708814.166          44.750          47.000
 118434505.853 7  92286626.210 8  22537335.570    22537336.495    22537341.077
  22537340.747          43.500          48.500
 125532580.724 7  97817593.302 7  23888055.317    23888054.575    23888059.579
  23888059.660          42.250          44.000
 110363007.906 8  85997153.709 9  21001380.403    21001380.544    21001383.603
  21001384.113          52.750          54.250
 116848526.008 8  91050802.711 8  22235535.342    22235535.381    22235538.753
  22235538.570          49.250          50.000
 111427886.996 8  86826925.40647  21204019.097    21204018.493
  21204019.658          50.500          45.2504
 105803766.619 8  82444494.42047  20133785.290    20133784.662
  20133785.805          48.250          45.7504
 121258242.473 7  94486945.197 7  23074675.432    23074675.084    23074676.319
  23074675.954          45.500          43.250
 20  1  5  1 46  0.0000000  0  8G32G24G08G10G27G21G20G15
 119239366.907 7  92913796.816 7  22690496.791    22690497.282    22690500.786
  22690501.422          45.250          47.500
 118387860.323 7  92250279.070 7  22528459.424    22528460.140    22528464.063
  22528463.811          43.750          47.500
 125475620.229 7  97773208.500 7  23877215.662    23877215.050    23877220.518
  23877220.491          42.750          44.000
 110325592.520 8  85967998.855 9  20994260.364    20994260.609    20994263.882
  20994264.146          53.000          54.500
 116850468.124 8  91052316.031 8  22235904.583    22235904.556    22235908.129
  22235907.893          48.000          49.750
 111465810.622 8  86856476.27247  21211235.691    21211234.923
  21211236.167          50.500          45.5004
 105812615.960 8  82451390.00047  20135469.331    20135468.713
  20135469.847          48.500          46.0004
 121359025.206 7  94565477.195 7  23093853.491    23093853.500    23093854.484
  23093854.875          45.250          42.750
 20  1  5  1 46 30.0000000  0  8G32G24G08G10G27G21G20G15
 119143387.489 7  92839007.683 7  22672232.688    22672233.138    22672237.096
  22672237.107          45.500          47.750
 118341721.587 7  92214326.818 7  22519679.844    22519680.214    22519683.686
  22519684.237          44.500          46.750
 125419142.645 7  97729199.998 7  23866468.655    23866468.242    23866472.743
  23866472.862          43.000          43.500
 110288424.033 8  85939036.394 9  20987187.671    20987187.830    20987190.653
  20987191.262          53.250          54.500
 116853015.885 8  91054301.304 8  22236389.814    22236389.649    22236392.883
  22236392.896          49.250          49.500
 111504115.343 8  86886324.10047  21218525.150    21218524.297
  21218525.299          50.500          45.5004
 105821773.583 8  82458525.81147  20137212.001    20137211.284
  20137212.353          49.000          45.7504
 121460021.433 7  94644175.518 7  23113072.191    23113072.628    23113073.063
  23113073.206          44.500          42.750
 20  1  5  1 47  0.0000000  0  8G32G24G08G10G27G21G20G15
 119047669.005 7  92764421.856 7  22654018.092    22654018.502    22654022.165
  22654021.830          45.500          47.000
 118296094.008 7  92178772.886 7  22510998.086    22510997.580    22511001.774
  22511001.492          44.750          47.750
 125363151.025 7  97685570.157 7  23855813.782    23855813.723    23855818.016
  23855818.099          43.000          44.250
 110251504.094 8  85910267.617 9  20980162.152    20980162.362    20980165.371
  20980165.624          53.250          54.500
 116856170.565 8  91056759.485 8  22236990.099    22236989.869    22236993.015
  22236993.304          49.250          49.750
 111542802.768 8  86916470.14347  21225886.986    21225886.235
  21225887.298          50.500          45.5004
 105831241.719 8  82465903.58347  20139013.665    20139013.002
  20139014.144          48.750          45.7504
 121561230.157 7  94723039.457 7  23132331.861    23132331.938    23132333.486
  23132332.750          45.500          43.000
 20  1  5  1 47 30.0000000  0  8G32G24G08G10G27G21G20G15
 118952211.859 7  92690039.679 7  22635853.181    22635853.817    22635857.129
  22635857.103          45.750          47.000
 118250979.033 7  92143618.343 7  22502412.199    22502412.160    22502416.257
  22502416.558          45.000          47.500
 125307646.133 7  97642319.590 7  23845251.704    23845251.018    23845255.618
  23845256.176          43.250          43.750
 110214831.712 8  85881691.734 9  20973183.542    20973183.787    20973186.637
  20973187.230          53.250          54.750
 116859930.337 8  91059689.175 8  22237705.266    22237705.149    22237709.078
  22237708.928          49.000          50.000
 111581872.009 8  86946913.70247  21233321.569    21233320.911
  21233322.051          50.500          45.2504
 105841018.466 8  82473521.82247  20140874.236    20140873.421
  20140874.553          48.750          45.7504
 121662647.689 7  94802066.084 7  23151631.582    23151630.944    23151631.845
  23151631.969          46.750          42.500
 20  1  5  1 48  0.0000000  0  8G32G24G08G10G27G21G20G15
 118857017.588 7  92615862.329 7  22617738.254    22617738.902    22617741.691
  22617741.815          45.250          46.750
 118206378.090 7  92108864.377 7  22493924.273    22493925.208    22493928.722
  22493929.291          43.750          47.500
 125252629.470 7  97599449.452 7  23834782.265    23834781.696    23834786.806
  23834786.118          43.000          44.250
 110178406.732 8  85853308.639 9  20966252.292    20966252.309    20966255.201
  20966255.635          53.500          54.500
 116864294.533 8  91063089.843 8  22238536.006    22238535.868    22238539.619
  22238539.246          49.250          49.500
 111621322.204 8  86977654.10547  21240828.794    21240828.059
  21240828.976          50.500          45.5004
 105851103.450 8  82481380.24247  20142793.243    20142792.421
  20142793.690          48.750          45.7504
 121764271.330 7  94881253.349 7  23170969.420    23170969.617    23170970.301
  23170970.503          45.750          42.750
 20  1  5  1 48 30.0000000  0  8G32G24G08G10G27G21G20G15
 118762090.207 7  92541892.962 7  22599674.702    22599674.854    22599677.852
  22599677.948          45.750          46.750
 118162295.349 7  92074514.185 7  22485536.856    22485536.285    22485540.155
  22485540.138          45.500          47.250
 125198104.802 7  97556962.689 7  23824407.378    23824406.155    23824410.729
  23824410.707          44.000          43.500
 110142231.543 8  85825120.180 9  20959368.305    20959368.372    20959371.334
  20959371.709          53.000          54.500
 116869264.957 8  91066962.892 8  22239481.633    22239481.470    22239484.928
  22239485.132          48.500          49.500
 111661155.816 8  87008693.28147  21248408.844    21248408.126
  21248409.230          51.000          45.2504
 105861499.048 8  82489480.70747  20144771.494    20144770.627
  20144771.835          49.000          45.7504
 121866100.211 7  94960600.496 7  23190346.341    23190347.121    23190347.238
  23190347.692          44.750          42.000
 20  1  5  1 49  0.0000000  0  8G32G24G08G10G27G21G20G15
 118667429.855 7  92468131.638 7  22581661.380    22581661.356    22581664.893
  22581664.938          45.750          47.250
 118118732.074 7  92040568.786 7  22477245.905    22477246.479    22477250.298
  22477250.801          44.750          47.500
 125144072.451 7  97514859.571 7  23814124.803    23814124.339    23814129.651
  23814128.624          43.250          44.250
 110106304.719 8  85797125.250 9  20952531.624    20952531.682    20952534.671
  20952535.077          53.500          54.500
 116874839.532 8  91071306.715 8  22240542.842    22240542.366    22240545.802
  22240546.069          49.250          49.500
 111701370.900 8  87040029.69447  21256061.416    21256060.657
  21256061.709          50.750          45.2504
 105872203.672 8  82497821.96847  20146808.459    20146807.734
  20146808.915          49.000          45.7504
 121968130.297 7  95040104.450 7  23209762.907    23209762.772    23209763.743
  23209763.695          45.500          42.750
 20  1  5  1 49 30.0000000  0  8G32G24G08G10G27G21G20G15
 118573038.092 7  92394579.634 7  22563698.737    22563699.128    22563702.970
  22563702.943          46.000          47.750
 118075689.826 7  92007029.396 7  22469055.688    22469056.033    22469059.929
  22469060.218          45.000          47.750
 125090533.845 7  97473141.173 7  23803936.512    23803936.093    23803940.601
  23803940.792          42.500          44.000
 110070626.242 8  85769323.844 9  20945742.298    20945742.367    20945745.387
  20945745.725          53.500          54.500
 116881017.514 8  91076120.728 8  22241718.089    22241718.047    22241721.461
  22241721.609          49.000          49.250
 111741967.366 8  87071663.29647  21263786.496    21263786.041
  21263787.181          50.250          45.2504
 105883216.854 8  82506403.66447  20148904.399    20148903.376
  20148904.689          48.750          45.7504
 122070359.021 7  95119763.169 7  23229216.186    23229216.237    23229217.166
  23229216.972          45.250          42.500
 20  1  5  1 50  0.0000000  0  8G32G24G08G10G27G21G20G15
 118478917.047 7  92321238.592 7  22545788.222    22545788.832    22545791.995
  22545791.921          45.750          47.500
 118033171.100 7  91973897.923 7  22460964.293    22460964.873    22460968.205
  22460968.930          44.750          46.500
 125037491.179 7  97431809.223 7  23793842.546    23793841.950    23793847.276
  23793846.799          42.500          43.500
 110035196.674 8  85741716.386 9  20939000.108    20939000.336    20939003.371
  20939003.627          53.250          54.750
 116887798.811 8  91081404.846 8  22243008.532    22243008.442    22243011.875
  22243011.944          49.000          49.250
 111782945.728 8  87103594.47547  21271584.487    21271583.945
  21271585.018          50.500          45.2504
 105894538.852 8  82515225.99347  20151058.544    20151058.076
  20151059.260          49.250          45.5004
 122172784.232 7  95199575.022 7  23248707.398    23248707.302    23248707.819
  23248707.759          45.750          42.500
 20  1  5  1 50 30.0000000  0  8G32G24G08G10G27G21G20G15
 118385068.824 7  92248110.107 7  22527929.070    22527929.847    22527932.980
  22527933.004          44.750          47.250
 117991178.723 7  91941176.621 7  22452974.212    22452974.358    22452977.658
  22452978.122          46.000          46.750
 124984946.713 7  97390865.471 7  23783843.795    23783843.663    23783847.960
  23783847.579          43.000          43.250
 110000016.549 8  85714303.305 9  20932305.650    20932305.717    20932308.593
  20932309.223          53.250          54.750
 116895183.177 8  91087158.897 8  22244413.940    22244414.049    22244417.271
  22244417.256          49.500          49.500
 111824306.130 8  87135823.34847  21279455.179    21279454.504
  21279455.752          50.500          45.0004
 105906169.950 8  82524289.17547  20153272.240    20153271.387
  20153272.445          49.250          45.7504
 122275403.590 7  95279538.130 7  23268234.938    23268235.336    23268235.835
  23268236.346          45.250          42.500
 20  1  5  1 51  0.0000000  0  8G32G24G08G10G27G21G20G15
 118291494.931 7  92175195.402 7  22510122.890    22510123.088    22510126.713
  22510126.803          45.750          47.750
 117949714.079 7  91908866.523 7  22445083.142    22445084.186    22445087.468
  22445087.468          45.250          47.500
 124932901.293 7  97350310.613 7  23773939.970    23773939.659    23773943.317
  23773943.577          43.500          43.250
 109965085.844 8  85687084.580 9  20925658.546    20925658.656    20925661.716
  20925662.033          53.250          54.750
 116903169.825 8  91093382.246 8  22245933.637    22245933.244    22245936.846
  22245936.806          49.250          49.250
 111866048.031 8  87168349.49447  21287398.547    21287397.759
  21287398.972          50.250          45.0004
 105918109.799 8  82533592.95547  20155543.917    20155543.251
  20155544.568          49.250          45.7504
 122378214.324 7  95359650.392 7  23287798.869    23287798.884    23287799.558
  23287800.032          45.000          42.000
 20  1  5  1 51 30.0000000  0  8G32G24G08G10G27G21G20G15
 118198196.851 7  92102495.608 7  22492368.860    22492369.329    22492372.427
  22492372.982          46.750          47.500
 117908779.404 7  91876969.356 7  22437294.116    22437293.693    22437298.102
  22437297.795          46.000          47.750
 124881356.424 7  97310145.773 7  23764131.857    23764131.387    23764135.288
  23764135.472          43.250          44.000
 109930404.490 8  85660060.148 9  20919058.743    20919058.971    20919061.943
  20919062.417          53.000          55.000
 116911757.911 8  91100074.262 8  22247568.159    22247567.837    22247571.223
  22247571.255          49.750          49.500
 111908170.939 8  87201172.53647  21295414.273    21295413.508
  21295414.721          50.500          45.0004
 105930358.189 8  82543137.14847  20157874.889    20157874.176
  20157875.391          49.000          45.7504
 122481213.911 7  95439909.779 7  23307398.664    23307399.289    23307400.617
  23307399.645          43.750          42.750
 20  1  5  1 52  0.0000000  0  8G32G24G08G10G27G21G20G15
 118105177.016 7  92030012.623 7  22474667.885    22474668.363    22474671.577
  22474671.394          46.500          47.250
 117868377.730 7  91845487.517 7  22429605.739    22429605.587    22429609.082
  22429609.570          45.750          46.750
 124830314.902 7  97270373.163 7  23754418.116    23754417.785    23754422.742
  23754422.501          43.500          44.500
 109895973.369 8  85633230.700 9  20912506.764    20912507.020    20912509.966
  20912510.407          53.250          54.500
 116920947.499 8  91107234.977 8  22249316.661    22249316.486    22249319.629
  22249320.004          49.500          49.250
 111950675.588 8  87234293.02947  21303502.570    21303502.034
  21303503.240          50.250          45.2504
 105942915.820 8  82552922.31847  20160264.757    20160263.935
  20160265.176          49.250          45.7504
 122584400.094 7  95520314.576 7  23327034.529    23327035.064    23327035.423
  23327035.584          44.250          42.500
 20  1  5  1 52 30.0000000  0  8G32G24G08G10G27G21G20G15
 118012436.438 7  91957747.249 7  22457019.912    22457020.203    22457023.182
  22457023.776          45.750          47.500
 117828510.261 7  91814421.970 7  22422018.404    22422018.879    22422023.318
  22422023.219          44.750          47.500
 124779777.372 7  97230993.265 7  23744801.928    23744801.731    23744805.701
  23744806.394          43.250          44.250
 109861791.971 8  85606595.842 9  20906002.492    20906002.565    20906005.406
  20906005.906          53.250          54.750
 116930737.242 8  91114863.343 8  22251179.867    22251179.580    22251182.876
  22251182.817          49.000          49.250
 111993561.232 8  87267710.41447  21311663.346    21311662.834
  21311663.804          50.000          44.7504
 105955781.854 8  82562947.80247  20162713.173    20162712.089
  20162713.347          48.750          45.7504
 122687769.991 7  95600862.539 7  23346705.051    23346705.606    23346706.817
  23346706.315          43.500          42.000
 20  1  5  1 53  0.0000000  0  8G32G24G08G10G27G21G20G15
 117919977.434 7  91885701.285 8  22439425.070    22439425.601    22439429.396
  22439429.289          45.750          48.000
 117789179.260 7  91783774.428 7  22414533.591    22414534.689    22414538.432
  22414538.389          44.250          47.250
 124729746.004 7  97192007.784 7  23735281.291    23735280.789    23735285.263
  23735284.856          43.250          44.000
 109827861.100 8  85580156.196 9  20899545.507    20899545.589    20899548.554
  20899549.016          53.250          54.500
 116941127.035 8  91122959.288 8  22253157.149    22253156.814    22253159.886
  22253160.107          48.000          49.750
 112036828.528 8  87301425.18447  21319896.828    21319896.285
  21319897.322          49.000          44.7504
 105968956.951 7  82573214.11147  20165220.321    20165219.367
  20165220.536          47.500          46.0004
 122791321.646 7  95681552.110 6  23366410.743    23366411.264    23366411.520
  23366410.922          44.000          41.500
 20  1  5  1 53 30.0000000  0  8G32G24G08G10G27G21G20G15
 117827800.745 7  91813875.306 7  22421884.958    22421885.289    22421888.686
  22421888.745          46.250          47.500
 117750386.211 7  91753546.079 7  22407152.601    22407152.695    22407156.571
  22407156.821          45.500          47.500
 124680221.406 7  97153417.193 7  23725856.873    23725856.851    23725860.891
  23725860.710          43.000          44.250
 109794180.048 8  85553911.233 9  20893136.419    20893136.341    20893139.299
  20893139.807          53.000          54.750
 116952115.278 8  91131521.549 8  22255247.679    22255247.628    22255251.026
  22255250.997          48.750          49.500
 112080475.967 8  87335436.17747  21328202.713    21328202.035
  21328203.283          50.000          45.0004
 105982439.958 8  82583720.34447  20167785.533    20167785.041
  20167786.301          48.500          45.5004
 122895051.555 7  95762380.585 6  23386150.019    23386149.770    23386150.407
  23386150.455          44.000          41.250
 20  1  5  1 54  0.0000000  0  8G32G24G08G10G27G21G20G15
 117735909.133 7  91742271.449 7  22404398.610    22404399.202    22404402.574
  22404401.856          46.500          47.750
 117712134.482 7  91723739.565 7  22399874.687    22399873.964    22399877.367
  22399877.064          46.000          46.250
 124631206.101 7  97115223.442 7  23716529.282    23716529.153    23716534.449
  23716533.036          42.750          44.000
 109760749.975 8  85527861.822 9  20886774.572    20886774.747    20886777.866
  20886778.262          53.000          55.000
 116963702.227 8  91140550.333 8  22257452.812    22257452.528    22257456.311
  22257456.165          48.750          50.000
 112124504.499 8  87369744.10947  21336580.801    21336580.415
  21336581.408          48.750          44.7504
 105996231.636 8  82594467.09747  20170410.268    20170409.616
  20170410.697          48.250          45.7504
 122998958.309 7  95843346.868 6  23405922.720    23405922.875    23405924.576
  23405923.746          43.250          41.750
 20  1  5  1 54 30.0000000  0  8G32G24G08G10G27G21G20G15
 117644304.116 7  91670890.923 8  22386966.704    22386967.010    22386970.103
  22386970.451          46.000          48.000
 117674425.508 8  91694355.924 7  22392698.557    22392697.671    22392701.064
  22392701.649          48.000          46.250
 124582701.827 7  97077427.883 7  23707299.134    23707299.397    23707303.433
  23707303.509          42.750          44.250
 109727570.980 8  85502008.060 9  20880460.879    20880461.122    20880464.026
  20880464.484          53.000          54.750
 116975886.979 7  91150044.934 8  22259771.357    22259771.279    22259774.586
  22259774.646          45.750          49.750
 112168913.763 8  87404348.72447  21345031.977    21345031.375
  21345032.339          49.750          44.5004
 106010332.018 7  82605454.40847  20173093.483    20173092.773
  20173093.925          46.750          45.7504
 123103039.179 7  95924448.824 6  23425728.854    23425729.027    23425730.198
  23425729.303          43.750          41.500
 20  1  5  1 55  0.0000000  0  8G32G24G08G10G27G21G20G15
 117552987.052 7  91599734.782 7  22369589.458    22369590.000    22369593.528
  22369593.254          46.750          47.750
 117637261.331 7  91665396.817 7  22385625.752    22385625.315    22385629.742
  22385629.393          47.500          47.250
 124534709.678 7  97040031.407 7  23698166.793    23698166.438    23698170.996
  23698170.323          42.500          43.750
 109694642.893 8  85476349.809 9  20874194.974    20874195.011    20874197.847
  20874198.486          53.000          54.750
 116988668.424 7  91160004.501 8  22262203.550    22262203.439    22262206.766
  22262206.906          46.500          49.500
 112213703.164 8  87439249.53847  21353554.867    21353554.454
  21353555.586          50.000          45.0004
 106024740.856 7  82616682.06647  20175835.495    20175834.620
  20175835.948          47.750          45.5004
 123207291.321 7  96005684.232 6  23445567.396    23445567.346    23445568.947
  23445568.301          43.500          41.250
 20  1  5  1 55 30.0000000  0  8G32G24G08G10G27G21G20G15
 117461959.288 7  91528804.055 8  22352267.608    22352267.976    22352271.504
  22352271.372          45.500          48.250
 117600642.571 7  91636862.718 7  22378657.141    22378657.016    22378661.164
  22378661.704          47.250          47.500
 124487230.789 7  97003034.869 7  23689131.768    23689131.216    23689135.651
  23689135.546          42.250          44.000
 109661965.612 8  85450886.991 9  20867976.669    20867976.882    20867979.681
  20867980.199          52.500          55.000
 117002045.454 8  91170428.159 8  22264749.316    22264749.048    22264752.526
  22264752.366          48.000          49.250
 112258872.411 8  87474446.34547  21362150.609    21362149.943
  21362150.959          49.750          45.0004
 106039457.451 8  82628149.53247  20178635.759    20178635.134
  20178636.372          49.250          45.7504
 123311712.177 7  96087051.107 6  23465437.728    23465438.220    23465438.480
  23465439.114          43.500          41.500
 20  1  5  1 56  0.0000000  0  8G32G24G08G10G27G21G20G15
 117371223.346 7  91458100.736 8  22335001.112    22335001.513    22335004.450
  22335004.826          46.500          48.250
 117564573.015 7  91608756.581 7  22371793.127    22371793.457    22371796.897
  22371797.315          45.750          47.000
 124440267.484 7  96966440.088 7  23680194.784    23680194.371    23680199.011
  23680198.769          42.500          43.750
 109629540.232 8  85425620.457 9  20861806.219    20861806.447    20861809.298
  20861809.656          52.500          54.750
 117016018.066 8  91181315.914 8  22267408.008    22267407.919    22267411.448
  22267411.487          48.000          49.500
 112304422.090 8  87509939.58347  21370818.371    21370817.788
  21370818.655          49.250          44.7504
 106054482.775 8  82639857.57047  20181495.073    20181494.304
  20181495.709          48.750          45.5004
 123416299.961 7  96168548.065 6  23485340.477    23485340.389    23485341.270
  23485341.259          42.750          41.500
 20  1  5  1 56 30.0000000  0  8G32G24G08G10G27G21G20G15
 117280779.650 7  91387625.146 8  22317790.234    22317790.433    22317793.924
  22317794.018          46.250          48.000
 117529052.825 7  91581078.513 7  22365034.325    22365034.288    22365037.712
  22365038.399          47.750          47.250
 124393819.875 7  96930247.137 7  23671356.181    23671356.151    23671360.729
  23671360.732          42.500          44.250
 109597365.690 8  85400549.392 9  20855683.672    20855683.869    20855686.866
  20855687.193          52.750          54.750
 117030584.184 8  91192666.122 8  22270179.772    22270179.742    22270183.169
  22270183.144          48.500          49.500
 112350350.385 8  87545727.85547  21379558.092    21379557.589
  21379558.695          49.750          44.5004
 106069815.344 8  82651805.01947  20184412.653    20184411.939
  20184413.362          48.750          45.5004
 123521050.899 7  96250172.145 6  23505273.867    23505274.001    23505274.897
  23505274.279          43.750          41.500
 20  1  5  1 57  0.0000000  0  8G32G24G08G10G27G21G20G15
 117190631.823 7  91317380.094 8  22300635.485    22300635.835    22300639.446
  22300639.352          46.750          48.250
 117494086.449 7  91553832.004 7  22358380.422    22358380.151    22358384.552
  22358384.561          47.750          47.750
 124347891.575 7  96894458.863 7  23662616.290    23662616.030    23662620.532
  23662620.563          42.250          44.250
 109565444.166 8  85375675.471 9  20849609.169    20849609.390    20849612.233
  20849612.617          53.250          54.500
 117045744.857 8  91204479.628 8  22273065.003    22273064.824    22273067.930
  22273068.189          48.000          49.000
 112396659.270 8  87581812.68847  21388370.598    21388370.037
  21388370.952          49.750          44.7504
 106085457.140 8  82663993.42947  20187389.321    20187388.552
  20187389.884          49.000          45.7504
 123625964.906 7  96331923.294 6  23525238.338    23525238.173    23525239.871
  23525239.061          44.000          41.750
 20  1  5  1 57 30.0000000  0  8G32G24G08G10G27G21G20G15
 117100780.046 7  91247365.740 8  22283537.242    22283537.857    22283541.093
  22283541.200          47.000          48.000
 117459673.417 7  91527016.639 7  22351831.314    22351831.519    22351835.588
  22351836.027          47.000          47.500
 124302482.578 7  96859075.228 7  23653975.599    23653975.618    23653979.847
  23653979.263          42.750          44.000
 109533774.422 8  85350997.748 9  20843582.789    20843582.876    20843585.873
  20843586.287          53.500          55.000
 117061497.771 8  91216754.637 8  22276062.861    22276062.501    22276065.961
  22276066.125          48.500          49.250
 112443346.974 8  87618192.70547  21397254.949    21397254.299
  21397255.333          49.500          44.7504
 106101406.566 8  82676421.55147  20190424.396    20190423.700
  20190424.867          48.500          45.7504
 123731037.833 7  96413798.291 6  23545232.983    23545232.908    23545233.355
  23545233.888          43.500          40.750
 20  1  5  1 58  0.0000000  0  8G32G24G08G10G27G21G20G15
 117011226.275 7  91177583.587 8  22266496.297    22266496.392    22266499.269
  22266499.618          47.500          48.250
 117425816.240 7  91500634.414 7  22345388.602    22345389.028    22345392.954
  22345392.799          46.500          47.250
 124257594.759 7  96824097.700 7  23645433.503    23645433.738    23645437.470
  23645437.158          42.750          44.000
 109502356.954 8  85326516.594 9  20837604.135    20837604.278    20837607.117
  20837607.629          52.500          55.000
 117077842.260 8  91229490.583 8  22279172.731    22279172.761    22279176.092
  22279176.147          48.250          49.250
 112490413.753 8  87654868.10847  21406211.390    21406210.850
  21406212.070          49.500          44.5004
 106117664.104 8  82689089.76347  20193517.950    20193517.400
  20193518.628          49.000          45.5004
 123836267.699 7  96495795.562 7  23565257.760    23565257.684    23565258.959
  23565259.020          43.750          42.250
 20  1  5  1 58 30.0000000  0  8G32G24G08G10G27G21G20G15
 116921971.587 7  91108034.477 8  22249511.282    22249511.706    22249514.989
  22249514.711          46.500          48.250
 117392516.496 7  91474686.573 7  22339051.805    22339051.916    22339056.046
  22339055.964          47.000          47.750
 124213228.567 7  96789526.643 7  23636991.094    23636991.000    23636995.046
  23636994.854          42.500          43.750
 109471191.503 8  85302231.828 9  20831673.595    20831673.778    20831676.717
  20831677.206          52.500          55.000
 117094776.838 8  91242686.358 8  22282395.580    22282395.364    22282398.944
  22282398.732          48.250          49.500
 112537858.441 8  87691837.97747  21415239.834    21415239.212
  21415240.433          49.500          44.7504
 106134229.058 8  82701997.50947  20196670.433    20196669.490
  20196670.930          48.750          45.5004
 123941651.284 7  96577912.604 6  23585311.166    23585311.045    23585312.645
  23585312.279          42.250          41.750
 20  1  5  1 59  0.0000000  0  8G32G24G08G10G27G21G20G15
 116833019.240 7  91038720.965 8  22232584.714    22232584.805    22232588.129
  22232587.899          47.250          48.500
 117359777.155 7  91449175.377 7  22332822.595    22332821.984    22332826.079
  22332826.180          46.500          47.500
 124169387.633 7  96755364.854 7  23628648.541    23628648.106    23628652.352
  23628652.098          43.000          44.500
 109440279.880 8  85278144.845 9  20825791.229    20825791.390    20825794.376
  20825794.759          52.500          55.000
 117112302.168 8  91256342.455 8  22285730.273    22285730.074    22285733.631
  22285733.841          48.000          49.250
 112585682.556 8  87729103.50747  21424340.370    21424340.068
  21424341.020          50.000          44.7504
 106151102.833 8  82715145.90547  20199881.116    20199880.449
  20199881.766          48.750          45.5004
 124047188.016 7  96660148.972 6  23605394.455    23605394.570    23605396.321
  23605395.220          42.250          41.750
 20  1  5  1 59 30.0000000  0  9G32G24G14G08G10G27G21G20G15
 116744369.172 7  90969642.981 8  22215714.783    22215714.954    22215718.281
  22215718.236          47.500          48.500
 117327598.443 7  91424101.067 7  22326698.541    22326698.732    22326702.321
  22326702.676          42.750          47.250
 128742733.571 6                  24498927.046
                        37.500
 124126071.316 7  96721611.886 7  23620405.673    23620405.851    23620409.418
  23620409.288          42.750          44.250
 109409620.611 8  85254254.507 9  20819957.051    20819957.098    20819960.287
  20819960.577          51.500          55.000
 117130415.541 8  91270456.762 8  22289177.151    22289177.054    22289180.508
  22289180.858          48.500          49.250
 112633883.938 8  87766663.01347  21433513.027    21433512.501
  21433513.415          50.500          44.5004
 106168283.887 8  82728533.72347  20203150.633    20203150.039
  20203151.356          49.500          45.5004
 124152873.800 7  96742501.489 6  23625505.649    23625506.128    23625506.815
  23625506.649          43.250          40.750
 20  1  5  2  0  0.0000000  0  9G32G24G14G08G10G27G21G20G15
 116656023.758 7  90900802.406 8  22198903.072    22198903.396    22198906.758
  22198906.764          47.250          48.500
 117295983.596 7  91399466.088 7  22320682.550    22320682.329    22320686.562
  22320686.714          46.500          47.500
 128638328.187 6 100237657.70743  24479059.702    24479058.603
  24479060.480          36.250          20.7504
 124083281.318 7  96688269.025 7  23612263.105    23612262.508    23612267.125
  23612266.506          42.500          44.250
 109379214.716 8  85230561.609 9  20814171.176    20814171.097    20814173.864
  20814174.431          52.750          54.750
 117149116.709 8  91285029.091 8  22292735.911    22292735.714    22292739.280
  22292739.011          48.500          49.250
 112682463.349 8  87804517.08547  21442757.263    21442756.722
  21442757.942          49.750          44.5004
 106185772.663 8  82742161.34447  20206478.507    20206478.032
  20206479.341          49.250          45.7504
 124258706.857 7  96824968.796 6  23645645.147    23645645.696    23645646.469
  23645646.402          43.750          41.250
 20  1  5  2  0 30.0000000  0  8G32G24G08G10G27G21G20G15
 116567983.781 7  90832199.827 8  22182149.671    22182150.248    22182153.558
  22182153.351          47.500          49.000
 117264932.931 7  91375270.780 7  22314773.883    22314773.456    22314777.855
  22314777.963          46.000          47.500
 124041018.848 7  96655337.233 7  23604220.595    23604220.163    23604225.414
  23604224.706          42.750          44.500
 109349061.549 8  85207065.626 9  20808433.052    20808433.185    20808436.002
  20808436.493          52.500          55.000
 117168403.783 7  91300057.976 8  22296406.448    22296406.048    22296409.122
  22296409.469          46.250          49.000
 112731419.394 8  87842664.63547  21452073.338    21452072.720
  21452073.926          49.750          44.5004
 106203568.395 7  82756028.13547  20209865.129    20209864.360
  20209865.864          47.500          45.5004
 124364684.172 7  96907548.478 6  23665812.353    23665812.368    23665814.183
  23665813.247          44.250          41.250
 20  1  5  2  1  0.0000000  0  9G32G24G08G10G27G14G21G20G15
 116480252.103 7  90763837.480 8  22165454.868    22165454.875    22165458.302
  22165458.104          47.250          48.500
 117234449.337 7  91351517.306 7  22308973.439    22308972.861    22308976.679
  22308977.270          47.250          47.250
 123999285.889 7  96622818.038 7  23596279.006    23596278.726    23596283.717
  23596283.053          42.500          44.000
 109319162.673 8  85183767.792 9  20802743.536    20802743.599    20802746.417
  20802746.901          53.250          54.750
 117188276.997 7  91315543.577 8  22300187.769    22300187.605    22300191.214
  22300191.106          45.250          49.250
 128429877.985 6 100075230.71743  24439393.298    24439393.700
  24439395.227          37.000          20.2504
 112780752.997 8  87881106.38647  21461461.290    21461460.573
  21461461.696          49.500          44.5004
 106221672.371 7  82770135.11747  20213309.959    20213309.478
  20213310.803          46.500          45.7504
 124470804.440 7  96990239.572 6  23686005.425    23686006.256    23686007.331
  23686007.142          43.250          41.000
 20  1  5  2  1 30.0000000  0  9G32G24G08G10G27G14G21G20G15
 116392830.370 7  90695716.666 8  22148818.949    22148819.341    22148822.505
  22148822.967          47.000          48.750
 117204534.314 7  91328206.889 7  22303280.166    22303280.429    22303284.649
  22303284.621          47.000          47.750
 123958084.127 7  96590712.764 7  23588438.461    23588438.496    23588442.601
  23588442.103          42.500          44.000
 109289518.358 8  85160668.325 9  20797102.240    20797102.406    20797105.320
  20797105.787          52.750          54.750
 117208735.275 8  91331485.091 8  22304081.036    22304080.768    22304084.267
  22304084.168          48.000          49.250
 128325844.250 6  99994165.45943  24419596.496    24419596.785
  24419597.024          38.000          20.5004
 112830463.783 8  87919842.05247  21470920.891    21470920.316
  21470921.482          49.250          44.2504
 106240084.704 8  82784482.40047  20216813.980    20216813.318
  20216814.602          48.750          45.7504
 124577065.648 7  97073040.465 6  23706227.264    23706227.090    23706227.167
  23706227.675          44.500          40.000
 20  1  5  2  2  0.0000000  0  9G32G24G08G10G27G14G21G20G15
 116305718.025 7  90627836.919 8  22132242.081    22132242.737    22132245.873
  22132245.685          47.750          49.250
 117175188.296 7  91305339.859 7  22297695.739    22297696.187    22297699.610
  22297700.147          46.750          46.750
 123917412.816 7  96559020.838 7  23580698.914    23580698.886    23580703.417
  23580703.014          42.000          44.750
 109260126.710 8  85137765.735 9  20791509.295    20791509.390    20791512.253
  20791512.758          53.000          54.750
 117229775.358 7  91347879.956 8  22308084.790    22308084.595    22308087.987
  22308087.927          47.750          49.000
 128221936.509 6  99913198.40843  24399823.046    24399822.956
  24399825.599          37.250          20.0004
 112880549.371 8  87958869.77147  21480451.862    21480451.325
  21480452.488          49.500          44.2504
 106258802.816 8  82799067.93047  20220375.888    20220375.159
  20220376.562          49.000          45.7504
 124683463.133 7  97155947.626 6  23726473.902    23726473.860    23726474.370
  23726474.934          44.500          38.500
 20  1  5  2  2 30.0000000  0  9G32G24G08G10G27G14G21G20G15
 116218917.926 7  90560200.478 8  22115724.743    22115724.993    22115728.145
  22115728.189          47.750          49.000
 117146413.573 7  91282917.990 8  22292220.722    22292220.287    22292225.091
  22292224.284          47.000          48.000
 123877274.820 7  96527744.472 7  23573061.054    23573060.965    23573065.185
  23573065.207          42.500          44.250
 109230989.251 8  85115061.222 9  20785964.805    20785964.850    20785967.459
  20785968.052          52.750          54.750
 117251397.412 7  91364728.304 8  22312199.272    22312199.106    22312202.705
  22312202.360          47.000          49.500
 128118157.626 6  99832331.75943  24380075.191    24380074.333
  24380075.558          37.000          20.5004
 112931010.588 8  87998190.19547  21490054.204    21490053.695
  21490054.893          48.500          44.0004
 106277828.152 7  82813892.86147  20223996.272    20223995.729
  20223996.977          47.750          45.7504
 124789995.756 7  97238960.048 6  23746745.434    23746746.199    23746747.194
  23746747.359          43.500          39.250
 20  1  5  2  3  0.0000000  0  9G32G24G08G10G27G14G21G20G15
 116132432.967 7  90492809.614 8  22099267.049    22099267.301    22099270.909
  22099271.001          47.500          49.250
 117118213.429 7  91260943.854 7  22286854.056    22286854.290    22286857.852
  22286858.271          46.750          47.000
 123837671.817 7  96496884.979 7  23565525.139    23565524.641    23565528.555
  23565528.221          42.000          44.250
 109202107.551 8  85092556.006 9  20780468.533    20780468.736    20780471.792
  20780472.143          53.000          54.750
 117273601.565 8  91382030.226 8  22316424.559    22316424.276    22316428.006
  22316427.804          48.250          49.250
 128014510.781 6  99751567.99843  24360351.754    24360352.220
  24360353.029          37.500          21.5004
 112981848.495 8  88037804.13847  21499728.314    21499727.820
  21499729.014          49.000          43.7504
 106297161.840 8  82828958.06747  20227675.349    20227674.793
  20227675.988          49.000          45.5004
 124896662.966 7  97322077.311 6  23767045.040    23767044.079    23767045.222
  23767044.726          44.500          40.500
 20  1  5  2  3 30.0000000  0  9G32G24G08G10G27G14G21G20G15
 116046262.701 7  90425663.958 8  22082869.657    22082869.767    22082873.144
  22082872.947          47.750          49.000
 117090587.067 7  91239416.808 8  22281596.955    22281596.840    22281601.100
  22281601.183          47.000          48.000
 123798603.633 7  96466442.247 7  23558090.284    23558090.698    23558094.178
  23558094.044          42.250          43.500
 109173479.834 8  85070248.685 9  20775020.880    20775021.059    20775023.971
  20775024.432          53.250          54.750
 117296384.610 8  91399783.246 8  22320760.145    22320760.010    22320763.182
  22320762.846          48.500          49.000
 127910995.709 6  99670906.91143  24340652.987    24340652.723
  24340654.949          38.000          21.5004
 113033060.592 8  88077709.66147  21509473.473    21509473.159
  21509474.103          49.500          43.7504
 106316801.821 8  82844261.94647  20231412.554    20231412.170
  20231413.330          49.500          45.7504
 125003459.871 7  97405295.631 6  23787367.663    23787367.114    23787369.428
  23787368.178          44.500          41.250
 20  1  5  2  4  0.0000000  0  9G32G24G08G10G27G14G21G20G15
 115960410.026 7  90358765.784 8  22066532.081    22066532.702    22066535.771
  22066535.849          47.500          49.000
 117063537.868 7  91218339.505 7  22276449.267    22276449.482    22276453.613
  22276453.755          43.750          47.750
 123760072.293 7  96436417.825 7  23550758.133    23550757.781    23550762.580
  23550762.640          42.250          44.000
 109145107.748 8  85048140.567 9  20769622.051    20769622.153    20769624.894
  20769625.327          52.250          55.000
 117319746.724 8  91417987.487 8  22325205.980    22325205.643    22325208.630
  22325209.071          48.500          48.750
 127807615.636 6  99590351.01643  24320981.163    24320979.757
  24320982.116          37.500          21.2504
 113084647.897 8  88117907.54847  21519290.458    21519289.874
  21519290.855          49.500          43.7504
 106336749.741 8  82859805.76947  20235208.837    20235207.933
  20235209.391          49.500          45.7504
 125110385.588 7  97488614.342 6  23807714.598    23807714.111    23807716.970
  23807714.617          43.000          41.500
 20  1  5  2  4 30.0000000  0  9G32G24G08G10G27G14G21G20G15
 115874875.468 7  90292115.475 8  22050255.119    22050255.815    22050259.023
  22050259.228          47.750          49.000
 117037065.641 7  91197711.793 7  22271412.057    22271412.236    22271415.966
  22271416.383          44.750          47.500
 123722078.461 7  96406812.237 7  23543528.409    23543527.999    23543532.166
  23543532.302          42.750          44.250
 109116990.473 8  85026230.996 9  20764271.400    20764271.493    20764274.537
  20764274.916          52.750          55.250
 117343685.600 7  91436641.155 8  22329761.001    22329761.111    22329764.288
  22329764.260          47.750          48.750
 127704371.183 6  99509900.82543  24301334.454    24301333.375
  24301335.683          37.750          21.5004
 113136608.859 8  88158396.59247  21529178.500    21529177.931
  21529178.750          49.250          44.0004
 106357004.076 8  82875588.36247  20239062.973    20239062.414
  20239063.809          48.750          46.0004
 125217436.904 7  97572030.901 6  23828085.444    23828086.188    23828086.955
  23828086.807          43.250          40.750
 20  1  5  2  5  0.0000000  0  9G32G24G08G10G27G14G21G20G15
 115789661.802 8  90225715.227 8  22034039.794    22034040.212    22034043.360
  22034043.217          48.250          49.000
 117011173.810 7  91177536.341 7  22266484.394    22266485.211    22266489.219
  22266489.134          46.500          47.250
 123684624.353 7  96377627.218 7  23536400.431    23536400.397    23536405.049
  23536404.858          42.250          44.500
 109089129.574 8  85004521.198 9  20758969.559    20758969.757    20758972.744
  20758973.249          53.250          55.250
 117368201.312 8  91455744.299 8  22334426.606    22334426.442    22334429.484
  22334429.569          48.500          48.750
 127601265.395 6  99429558.65643  24281712.793    24281712.762
  24281715.349          38.000          23.0004
 113188944.340 8  88199177.47547  21539137.614    21539136.954
  21539137.904          49.500          43.7504
 106377566.422 8  82891610.96547  20242975.955    20242975.154
  20242976.630          49.250          45.7504
 125324612.860 7  97655544.561 6  23848480.334    23848480.776    23848482.535
  23848481.796          44.000          41.000
 20  1  5  2  5 30.0000000  0  9G32G24G08G10G27G14G21G20G15
 115704769.367 8  90159565.268 8  22017885.186    22017885.494    22017889.208
  22017889.185          48.500          49.250
 116985862.815 7  91157813.480 7  22261668.722    22261668.639    22261672.370
  22261673.033          47.500          47.250
 123647709.863 7  96348862.682 7  23529375.959    23529376.456    23529380.190
  23529380.509          42.500          43.750
 109061524.091 8  84983010.425 9  20753716.468    20753716.594    20753719.535
  20753720.052          53.000          55.250
 117393291.302 7  91475294.927 8  22339200.697    22339200.362    22339204.133
  22339204.004          47.500          48.750
 127498298.942 6  99349325.08243  24262119.870    24262119.633
  24262121.267          38.500          22.2504
 113241652.750 8  88240248.94147  21549167.746    21549167.080
  21549168.156          49.500          44.0004
 106398435.213 8  82907872.35347  20246946.923    20246946.454
  20246947.858          48.750          45.7504
 125431910.150 7  97739152.805 6  23868898.436    23868898.434    23868899.724
  23868899.730          44.250          41.000
 20  1  5  2  6  0.0000000  0  9G32G24G08G10G27G14G21G20G15
 115620199.401 8  90093666.601 8  22001791.773    22001792.413    22001795.932
  22001795.973          48.000          49.750
 116961133.159 8  91138543.624 7  22256962.877    22256962.779    22256966.717
  22256966.849          48.250          47.750
 123611336.169 7  96320519.529 7  23522454.669    23522453.981    23522459.132
  23522458.682          43.000          44.000
 109034173.990 8  84961698.665 9  20748511.852    20748512.124    20748514.820
  20748515.488          53.250          55.000
 117418953.971 8  91495291.800 8  22344084.214    22344084.150    22344087.675
  22344087.623          48.250          49.250
 127395473.315 6  99269201.22543  24242552.691    24242552.272
  24242554.366          38.250          21.7504
 113294733.277 8  88281610.37447  21559268.359    21559267.983
  21559268.902          50.000          43.5004
 106419610.156 8  82924372.30147  20250976.576    20250975.835
  20250977.228          49.500          45.7504
 125539325.832 7  97822853.301 6  23889339.086    23889339.623    23889340.108
  23889339.772          44.500          40.500
 20  1  5  2  6 30.0000000  0  9G32G24G08G10G27G14G21G20G15
 115535954.796 8  90028021.451 8  21985760.852    21985761.105    21985764.543
  21985764.580          48.000          49.250
 116936988.126 7  91119729.314 7  22252367.606    22252367.944    22252371.893
  22252372.431          47.000          47.750
 123575505.426 7  96292599.463 7  23515636.640    23515636.112    23515640.234
  23515640.053          43.000          43.500
 109007080.933 8  84940587.185 9  20743356.301    20743356.424    20743359.275
  20743359.833          53.000          55.000
 117445189.438 8  91515735.017 8  22349076.977    22349076.779    22349079.992
  22349080.166          48.250          48.750
 127292791.800 6  99189189.64143  24223012.153    24223013.719
  24223013.674          38.000          22.2504
 113348187.002 8  88323262.61047  21569440.476    21569439.633
  21569441.064          49.250          43.5004
 106441092.748 8  82941111.97647  20255064.461    20255063.933
  20255065.286          49.250          45.7504
 125646859.071 7  97906645.390 6  23909801.191    23909802.389    23909802.743
  23909802.672          43.250          39.500
 20  1  5  2  7  0.0000000  0  9G32G24G08G10G27G14G21G20G15
 115452035.575 8  89962629.858 8  21969791.653    21969792.113    21969795.157
  21969795.401          48.750          49.750
 116913427.319 7  91101370.235 8  22247884.586    22247884.634    22247888.903
  22247888.785          47.500          48.250
 123540217.326 7  96265102.238 7  23508921.397    23508921.148    23508924.850
  23508924.745          43.250          43.250
 108980243.714 8  84919675.076 9  20738249.356    20738249.537    20738252.357
  20738252.839          53.250          55.250
 117471994.793 8  91536622.298 8  22354177.676    22354177.785    22354180.818
  22354180.795          48.500          48.750
 127190254.545 6  99109290.47643  24203500.438    24203500.724
  24203502.412          37.500          20.5004
 113402011.568 8  88365203.81347  21579682.716    21579682.093
  21579683.438          49.500          43.2504
 106462881.341 8  82958090.09647  20259210.832    20259210.071
  20259211.471          49.250          45.7504
 125754506.385 7  97990526.396 6  23930286.322    23930287.365    23930287.262
  23930287.193          43.750          38.500
 20  1  5  2  7 30.0000000  0  9G32G24G08G10G27G14G21G20G15
 115368443.901 8  89897493.490 8  21953884.520    21953884.845    21953888.444
  21953888.390          49.000          49.500
 116890453.451 7  91083468.523 7  22243512.847    22243512.704    22243516.726
  22243517.352          47.000          47.500
 123505473.524 7  96238029.153 7  23502309.138    23502309.131    23502313.658
  23502313.659          42.750          43.750
 108953663.221 8  84898962.995 9  20733191.471    20733191.340    20733194.382
  20733194.695          53.250          55.250
 117499369.366 8  91557953.132 8  22359387.189    22359387.016    22359390.215
  22359390.201          48.250          49.000
 127087864.346 6  99029505.92243  24184017.347    24184015.195
  24184017.846          39.250          21.2504
 113456207.460 8  88407434.36547  21589996.189    21589995.464
  21589996.586          49.750          43.5004
 106484976.499 8  82975307.08147  20263415.511    20263414.808
  20263416.006          50.250          45.7504
 125862266.002 7  98074494.882 6  23950792.876    23950793.418    23950792.628
  23950793.797          44.250          38.250
 20  1  5  2  8  0.0000000  0  9G32G24G08G10G27G14G21G20G15
 115285181.620 8  89832613.784 8  21938040.423    21938040.719    21938044.030
  21938043.950          48.750          49.500
 116868068.461 7  91066025.670 8  22239252.962    22239253.210    22239257.454
  22239257.252          47.500          48.250
 123471275.721 7  96211381.504 7  23495802.166    23495802.077    23495806.324
  23495806.086          42.750          43.750
 108927340.005 8  84878451.387 9  20728182.209    20728182.325    20728185.061
  20728185.551          53.500          55.250
 117527312.144 8  91579726.709 8  22364704.361    22364704.118    22364707.498
  22364707.370          48.500          48.750
 126985622.870 6  98949837.25043  24164560.738    24164561.050
  24164561.305          39.250          23.2504
 113510774.486 8  88449954.10947  21600379.762    21600379.391
  21600380.359          49.000          43.5004
 106507378.648 8  82992763.29447  20267678.167    20267677.659
  20267679.123          49.250          45.7504
 125970136.060 7  98158549.456 6  23971320.073    23971319.909    23971320.785
  23971320.419          44.250          38.750
 20  1  5  2  8 30.0000000  0  9G32G24G08G10G27G14G21G20G15
 115202249.392 8  89767991.277 8  21922258.990    21922259.334    21922262.941
  21922262.676          49.250          49.750
 116846272.264 7  91049041.640 7  22235105.408    22235105.261    22235109.214
  22235109.543          46.750          47.500
 123437623.845 7  96185159.256 7  23489398.082    23489397.996    23489402.360
  23489401.911          43.000          44.000
 108901273.812 8  84858140.066 9  20723221.754    20723222.031    20723225.057
  20723225.370          53.750          55.250
 117555820.869 8  91601941.287 8  22370129.323    22370129.026    22370132.757
  22370132.431          48.250          49.000
 126883530.949 6  98870285.09843  24145133.828    24145133.038
  24145134.438          39.750          23.0004
 113565711.488 8  88492762.14847  21610833.911    21610833.304
  21610834.548          49.750          43.2504
 106530086.766 8  83010457.93147  20271999.698    20271998.874
  20272000.251          50.750          45.7504
 126078113.594 7  98242687.760 6  23991868.311    23991867.670    23991867.793
  23991867.464          44.750          38.500
 20  1  5  2  9  0.0000000  0  9G32G24G08G10G27G14G21G20G15
 115119649.893 8  89703628.032 8  21906540.702    21906541.321    21906544.447
  21906544.441          49.500          50.000
 116825066.877 7  91032517.956 8  22231069.576    22231070.207    22231074.204
  22231074.265          46.750          48.000
 123404520.074 7  96159364.112 7  23483098.572    23483099.090    23483102.824
  23483102.394          43.000          43.500
 108875465.941 9  84838030.042 9  20718310.856    20718310.850    20718313.810
  20718314.236          54.000          55.250
 117584895.254 8  91624596.641 8  22375661.821    22375661.754    22375665.082
  22375665.045          48.250          48.500
 126781591.911 6  98790852.05943  24125734.799    24125734.816
  24125736.926          39.250          23.7504
 113621018.677 8  88535858.65047  21621358.541    21621357.967
  21621358.955          50.000          43.0004
 106553102.105 8  83028391.94147  20276379.239    20276378.666
  20276379.895          50.000          45.7504
 126186197.491 7  98326908.923 6  24012434.511    24012435.120    24012434.999
  24012435.825          43.000          37.500
 20  1  5  2  9 30.0000000  0  9G32G24G08G10G27G14G21G20G15
 115037383.377 8  89639524.257 8  21890885.904    21890886.235    21890889.980
  21890889.875          49.000          50.000
 116804453.488 7  91016455.575 8  22227147.344    22227147.711    22227151.699
  22227151.625          47.500          48.000
 123371964.488 7  96133996.115 7  23476903.762    23476903.125    23476908.118
  23476907.502          43.500          43.250
 108849915.512 8  84818120.609 9  20713448.704    20713448.859    20713451.879
  20713452.241          53.750          55.000
 117614532.721 8  91647690.761 8  22381302.126    22381301.829    22381304.500
  22381305.039          48.000          48.250
 126679806.284 6  98711538.59044  24106365.770    24106365.122
  24106367.380          39.500          24.0004
 113676694.645 8  88579242.51047  21631953.274    21631952.810
  21631953.893          49.250          43.0004
 106576423.260 8  83046564.26747  20280817.101    20280816.514
  20280817.808          50.000          45.7504
 126294384.483 7  98411210.414 6  24033022.721    24033022.579    24033023.462
  24033023.769          44.000          39.750
 20  1  5  2 10  0.0000000  0  9G32G24G08G10G27G14G21G20G15
 114955451.794 8  89575681.470 8  21875295.155    21875295.577    21875298.648
  21875298.698          49.500          50.000
 116784433.253 8  91000855.388 7  22223337.946    22223338.027    22223341.752
  22223341.996          48.000          47.750
 123339958.335 7  96109056.253 7  23470812.991    23470813.059    23470817.487
  23470816.788          43.000          43.500
 108824623.281 8  84798412.377 9  20708635.599    20708635.821    20708638.976
  20708639.321          53.500          55.250
 117644732.209 7  91671222.823 8  22387048.881    22387048.411    22387052.025
  22387051.649          47.750          48.500
 126578176.272 6  98632346.38744  24087026.486    24087026.442
  24087028.208          39.750          24.2504
 113732739.328 8  88622913.67247  21642618.498    21642617.705
  21642618.846          49.000          43.0004
 106600050.778 8  83064975.31947  20285313.423    20285312.515
  20285314.105          50.000          45.5004
 126402672.835 7  98495590.909 6  24053629.009    24053629.369    24053630.058
  24053630.295          43.250          39.500
 20  1  5  2 10 30.0000000  0  9G32G24G08G10G27G14G21G20G15
 114873856.032 8  89512100.355 8  21859768.150    21859768.318    21859771.044
  21859771.364          49.750          49.250
 116765007.064 8  90985718.086 8  22219641.352    22219641.102    22219645.255
  22219645.594          48.500          48.250
 123308502.087 7  96084544.892 7  23464827.216    23464826.917    23464831.000
  23464830.829          44.250          43.250
 108799589.019 8  84778905.166 9  20703872.050    20703872.025    20703874.960
  20703875.434          53.750          55.250
 117675491.716 7  91695191.257 8  22392902.223    22392901.930    22392905.240
  22392905.017          47.500          48.750
 126476703.174 6  98553276.46544  24067717.113    24067716.698
  24067717.786          39.750          24.5004
 113789151.683 8  88666871.34247  21653353.366    21653352.620
  21653353.886          49.250          43.0004
 106623984.105 8  83083624.65247  20289867.713    20289867.022
  20289868.420          50.250          45.7504
 126511059.813 7  98580048.220 6  24074254.004    24074254.546    24074256.345
  24074255.838          43.250          40.750
 20  1  5  2 11  0.0000000  0  9G32G24G08G10G27G14G21G20G15
 114792598.055 8  89448782.458 8  21844304.732    21844305.214    21844308.460
  21844308.769          49.500          50.000
 116746176.748 7  90971045.111 8  22216057.678    22216057.983    22216062.352
  22216061.925          47.750          48.500
 123277596.838 7  96060462.892 7  23458945.967    23458946.043    23458950.490
  23458950.375          43.250          43.500
 108774813.487 9  84759599.547 9  20699157.046    20699157.433    20699160.444
  20699160.853          54.000          55.250
 117706810.168 8  91719595.231 8  22398861.819    22398861.643    22398864.962
  22398864.727          48.000          48.750
 126375389.130 6  98474330.44944  24048436.625    24048436.691
  24048438.725          38.750          24.0004
 113845931.344 8  88711115.22647  21664158.090    21664157.349
  21664158.582          49.250          42.7504
 106648223.744 8  83102512.66147  20294480.388    20294479.652
  20294481.006          50.250          45.7504
 126619543.610 7  98664581.032 6  24094898.561    24094898.578    24094900.227
  24094900.149          43.750          40.000
 20  1  5  2 11 30.0000000  0  9G32G24G08G10G27G14G21G20G15
 114711679.029 8  89385728.669 8  21828906.390    21828906.662    21828910.275
  21828910.282          49.750          49.750
 116727943.782 8  90956837.615 7  22212588.515    22212588.008    22212592.593
  22212592.706          48.500          47.750
 123247243.725 7  96036811.096 7  23453170.536    23453170.053    23453174.210
  23453173.791          43.750          44.000
 108750296.743 9  84740495.588 9  20694491.981    20694492.068    20694494.924
  20694495.378          54.000          55.500
 117738685.788 8  91744433.374 8  22404927.543    22404927.209    22404930.870
  22404931.074          48.000          49.000
 126274235.419 6  98395509.36844  24029188.493    24029188.390
  24029189.507          39.750          24.5004
 113903077.780 8  88755644.90447  21675032.575    21675032.264
  21675033.433          49.500          43.0004
 106672769.454 8  83121639.18147  20299151.303    20299150.496
  20299151.746          50.250          45.7504
 126728121.877 7  98749187.406 6  24115559.324    24115560.194    24115561.209
  24115560.683          43.250          40.250
 20  1  5  2 12  0.0000000  0  9G32G24G08G10G27G14G21G20G15
 114631099.834 8  89322939.694 8  21813572.838    21813573.134    21813576.319
  21813576.479          49.750          49.750
 116710308.381 8  90943095.737 7  22209232.224    22209232.614    22209236.477
  22209236.671          48.250          47.750
 123217442.746 7  96013589.555 7  23447499.249    23447499.046    23447504.048
  23447502.850          43.750          44.000
 108726038.604 9  84721593.126 9  20689875.646    20689875.952    20689878.841
  20689879.291          54.000          55.250
 117771116.510 7  91769704.050 8  22411098.588    22411098.541    22411102.119
  22411102.100          47.000          49.000
 126173243.354 6  98316814.21244  24009970.676    24009969.705
  24009971.117          39.750          25.0004
 113960589.867 8  88800459.50747  21685977.068    21685976.319
  21685977.715          49.000          42.7504
 106697620.325 8  83141003.49947  20303880.000    20303879.535
  20303880.828          50.250          45.7504
 126836791.995 7  98833865.377 6  24136239.549    24136239.548    24136240.133
  24136239.704          44.500          38.250
 20  1  5  2 12 30.0000000  0  9G32G24G08G10G27G14G21G20G15
 114550862.781 8  89260417.313 8  21798303.873    21798304.510    21798307.975
  21798307.939          49.750          50.000
 116693272.067 8  90929820.673 7  22205990.154    22205990.448    22205994.429
  22205994.664          48.000          47.500
 123188195.602 7  95990799.564 7  23441933.734    23441933.413    23441937.990
  23441937.746          43.750          44.000
 108702040.177 8  84702893.046 9  20685308.852    20685309.081    20685312.082
  20685312.567          53.500          55.000
 117804101.551 7  91795406.661 8  22417375.431    22417375.274    22417379.161
  22417379.039          47.250          49.000
 126072415.754 6  98238247.27043  23990783.377    23990783.377
  23990784.577          40.000          23.5004
 114018467.519 8  88845558.96247  21696990.532    21696989.845
  21696991.287          48.750          42.5004
 106722777.391 8  83160606.38447  20308667.390    20308666.749
  20308668.159          49.750          45.5004
 126945552.710 7  98918613.938 6  24156935.671    24156936.080    24156936.635
  24156935.854          43.250          38.250
 20  1  5  2 13  0.0000000  0  9G32G24G08G10G27G14G21G20G15
 114470969.447 8  89198162.769 8  21783100.975    21783101.345    21783104.500
  21783104.701          50.250          50.000
 116676837.139 8  90917014.235 7  22202862.712    22202863.027    22202867.062
  22202867.221          48.000          47.750
 123159503.647 7  95968442.194 7  23436474.111    23436473.731    23436477.872
  23436478.147          44.000          44.750
 108678302.058 8  84684395.807 9  20680791.642    20680791.944    20680794.914
  20680795.307          53.750          55.250
 117837639.566 7  91821540.160 8  22423757.682    22423757.593    22423761.045
  22423761.121          47.750          48.750
 125971754.411 6  98159809.86843  23971627.958    23971627.884
  23971628.959          39.250          23.5004
 114076710.459 8  88890943.05647  21708073.687    21708073.361
  21708074.657          48.750          42.5004
 106748240.853 8  83180448.02247  20313512.594    20313512.443
  20313513.818          49.500          45.5004
 127054401.946 7  99003431.473 6  24177648.452    24177649.096    24177649.768
  24177650.083          42.750          37.500
 20  1  5  2 13 30.0000000  0  9G32G24G08G10G27G14G21G20G15
 114391419.783 8  89136176.004 8  21767962.996    21767963.438    21767966.750
  21767966.787          50.250          50.250
 116661002.487 8  90904675.534 8  22199849.623    22199849.669    22199853.717
  22199853.953          48.250          48.000
 123131366.026 7  95946516.752 7  23431119.462    23431118.842    23431123.422
  23431123.053          44.250          44.000
 108654823.028 9  84666100.451 9  20676323.960    20676324.078    20676326.855
  20676327.417          54.000          55.250
 117871727.403 7  91848102.102 8  22430244.488    22430244.474    22430247.585
  22430247.652          47.500          48.500
 125871259.721 6  98081502.33144  23952504.745    23952503.914
  23952506.063          39.500          24.2504
 114135317.078 8  88936610.53547  21719226.295    21719225.767
  21719227.171          48.750          42.7504
 106774008.797 8  83200526.93847  20318416.400    20318415.786
  20318417.155          49.750          45.5004
 127163336.247 7  99088315.316 6  24198378.687    24198378.825    24198379.668
  24198379.840          42.750          37.750
 20  1  5  2 14  0.0000000  0  9G32G24G08G10G27G14G21G20G15
 114312217.050 8  89074459.596 8  21752891.240    21752891.677    21752895.066
  21752895.371          50.250          50.250
 116645771.018 8  90892806.853 8  22196951.624    22196951.269    22196955.223
  22196955.451          48.750          48.000
 123103785.611 7  95925025.515 7  23425870.657    23425870.692    23425875.083
  23425874.723          44.500          44.000
 108631605.323 8  84648008.735 9  20671905.587    20671905.755    20671908.702
  20671909.266          53.750          55.250
 117906365.349 7  91875092.697 8  22436835.950    22436835.670    22436838.981
  22436839.074          47.250          48.750
 125770935.254 6  98003327.42344  23933413.803    23933413.561
  23933414.807          40.250          25.5004
 114194288.247 8  88982562.07647  21730448.130    21730447.610
  21730448.898          49.000          42.5004
 106800083.574 8  83220844.93347  20323378.157    20323377.656
  20323379.080          50.000          45.7504
 127272355.427 7  99173265.284 6  24219124.355    24219124.168    24219126.965
  24219125.682          42.000          38.250
 20  1  5  2 14 30.0000000  0  9G32G24G08G10G27G14G21G20G15
 114233360.390 8  89013012.838 8  21737885.314    21737885.772    21737889.198
  21737889.096          50.750          50.250
 116631142.261 8  90881407.808 8  22194167.774    22194167.583    22194171.745
  22194171.884          48.250          48.250
 123076760.924 7  95903967.304 7  23420728.350    23420728.552    23420732.441
  23420731.889          44.500          43.500
 108608647.005 9  84630119.139 9  20667536.906    20667536.997    20667539.952
  20667540.444          54.000          55.000
 117941549.466 7  91902508.877 8  22443531.386    22443531.098    22443534.465
  22443534.610          47.750          48.500
 125670780.596 6  97925284.84044  23914353.985    23914354.249
  23914356.457          39.750          25.2504
 114253621.476 8  89028795.75247  21741738.966    21741738.570
  21741739.436          49.500          42.2504
 106826462.839 8  83241400.19747  20328397.901    20328397.352
  20328398.750          49.750          45.7504
 127381454.994 7  99258277.867 6  24239885.342    24239885.191    24239886.009
  24239886.639          42.000          38.250
 20  1  5  2 15  0.0000000  0  9G32G24G08G10G27G14G21G20G15
 114154853.025 8  88951838.269 8  21722945.813    21722946.388    21722949.518
  21722949.902          50.500          50.250
 116617118.393 7  90870480.115 8  22191498.760    22191498.981    22191503.235
  22191503.547          47.750          48.500
 123050294.289 7  95883343.961 7  23415691.871    23415691.284    23415696.139
  23415696.069          43.750          44.000
 108585950.223 8  84612433.324 9  20663217.735    20663217.910    20663220.941
  20663221.416          53.750          55.500
 117977279.863 7  91930350.733 8  22450330.340    22450330.356    22450333.623
  22450333.764          47.000          48.000
 125570799.454 6  97847377.47044  23895329.124    23895328.331
  23895330.287          40.250          25.7504
 114313317.256 8  89075311.92847  21753098.823    21753098.282
  21753099.366          49.250          42.0004
 106853148.288 8  83262194.04047  20333476.282    20333475.472
  20333476.976          50.000          45.5004
 127490635.069 7  99343353.203 6  24260662.481    24260661.655    24260662.638
  24260661.889          42.750          37.750
 20  1  5  2 15 30.0000000  0  9G32G24G08G10G27G14G21G20G15
 114076695.178 8  88890936.050 8  21708073.048    21708073.233    21708076.731
  21708076.901          50.750          50.500
 116603699.453 8  90860023.803 7  22188945.424    22188945.502    22188949.305
  22188949.699          48.750          47.750
 123024385.538 7  95863155.321 7  23410761.575    23410760.998    23410765.543
  23410765.765          44.250          44.000
 108563514.177 8  84594950.681 9  20658948.492    20658948.463    20658951.462
  20658951.915          53.750          55.000
 118013553.743 7  91958616.088 8  22457233.086    22457232.896    22457236.238
  22457236.395          46.750          48.500
 125470991.465 6  97769605.01144  23876336.698    23876336.349
  23876337.337          40.750          25.5004
 114373373.765 8  89122109.19747  21764527.155    21764526.570
  21764527.847          49.750          42.2504
 106880138.709 8  83283225.52147  20338612.486    20338611.662
  20338613.020          50.000          45.7504
 127599892.175 7  99428488.595 6  24281453.763    24281453.192    24281452.677
  24281453.273          43.500          37.500
 20  1  5  2 16  0.0000000  0  9G32G24G08G10G27G14G21G20G15
 113998888.291 8  88830307.312 8  21693266.733    21693267.347    21693270.766
  21693270.714          51.000          50.500
 116590886.870 8  90850039.971 8  22186507.393    22186507.170    22186511.135
  22186511.490          48.500          48.000
 122999035.286 7  95843401.873 7  23405937.776    23405937.217    23405942.196
  23405941.351          43.500          44.000
 108541339.334 8  84577671.583 9  20654728.601    20654728.812    20654731.674
  20654732.223          53.500          55.250
 118050369.434 7  91987303.630 8  22464238.740    22464238.878    22464242.228
  22464242.190          47.500          48.250
 125371359.279 6  97691969.53744  23857377.527    23857375.952
  23857377.721          40.750          25.7504
 114433790.709 8  89169187.32147  21776024.097    21776023.575
  21776024.840          49.000          42.0004
 106907434.037 8  83304494.60147  20343806.542    20343805.870
  20343807.181          49.750          45.7504
 127709224.290 7  99513682.396 6  24302258.471    24302258.059    24302257.793
  24302258.158          43.000          37.250
 20  1  5  2 16 30.0000000  0  9G32G24G08G10G27G14G21G20G15
 113921434.392 8  88769953.632 8  21678527.825    21678528.041    21678531.636
  21678531.540          50.750          50.500
 116578682.385 8  90840529.972 8  22184184.515    22184184.887    22184189.473
  22184188.884          48.000          48.250
 122974244.900 7  95824084.682 7  23401220.381    23401219.984    23401224.563
  23401223.944          44.500          44.000
 108519426.738 8  84560596.831 9  20650558.959    20650559.018    20650561.899
  20650562.366          53.500          55.250
 118087725.989 7  92016412.618 8  22471347.716    22471347.311    22471350.830
  22471350.765          46.500          48.250
 125271905.354 6  97614472.98944  23838451.597    23838450.757
  23838452.494          40.500          26.0004
 114494568.168 8  89216546.35847  21787589.761    21787589.155
  21787590.235          48.750          42.0004
 106935035.133 8  83326001.93747  20349059.066    20349058.321
  20349059.616          50.000          45.5004
 127818630.286 7  99598933.758 6  24323078.019    24323076.591    24323077.806
  24323077.693          42.000          37.250
 20  1  5  2 17  0.0000000  0  9G32G24G08G10G27G14G21G20G15
 113844333.164 8  88709874.762 8  21663855.918    21663856.217    21663859.858
  21663859.930          50.750          50.500
 116567085.016 8  90831493.067 7  22181977.340    22181977.839    22181982.146
  22181982.204          48.000          47.750
 122950013.792 7  95805203.283 7  23396609.093    23396608.721    23396613.264
  23396613.156          45.000          44.250
 108497774.947 9  84543725.300 9  20646438.600    20646438.751    20646441.782
  20646442.201          54.000          55.250
 118125619.825 7  92045940.268 8  22478558.857    22478558.626    22478561.470
  22478561.877          47.000          48.000
 125172629.581 6  97537115.25944  23819560.112    23819559.809
  23819561.235          39.750          26.0004
 114555703.797 8  89264184.50046  21799223.489    21799222.770
  21799224.133          48.750          41.7504
 106962940.490 8  83347746.34947  20354369.352    20354368.438
  20354369.795          49.500          45.7504
 127928106.135 6  99684239.534 6  24343908.858    24343908.879    24343910.793
  24343910.827          41.000          37.500
