     2.11           OBSERVATION DATA    G (GPS)             RINEX VERSION / TYPE
teqc  2018Jun8                          20200103 01:12:02UTCPGM / RUN BY / DATE
Linux 2.4.20-8|x86|gcc -static|Linux 32|=+                  COMMENT
BIT 2 OF LLI FLAGS DATA COLLECTED UNDER A/S CONDITION       COMMENT
POL2                                                        MARKER NAME
GGN                 JPL                                     OBSERVER / AGENCY
02563                 Javad Delta-3             1s jps      REC # / TYPE / VERS
383-1030            TPSCR.G3                                ANT # / TYPE
  1239971.4511  4530790.0876  4302578.7950                  APPROX POSITION XYZ
        0.0780        0.0000        0.0000                  ANTENNA: DELTA H/E/N
     1     1                                                WAVELENGTH FACT L1/2
     8    L1    L2    C1    P1    C2    P2    S1    S2      # / TYPES OF OBSERV
    30.0000                                                 INTERVAL
Forced Modulo Decimation to 30 seconds                      COMMENT
 SNR is mapped to RINEX snr flag value [0-9]                COMMENT
  L1 & L2: min(max(int(snr_dBHz/6), 0), 9)                  COMMENT
teqc edited: all GLONASS satellites excluded                COMMENT
teqc edited: all SBAS satellites excluded                   COMMENT
teqc edited: all Galileo satellites excluded                COMMENT
teqc edited: all Beidou satellites excluded                 COMMENT
teqc edited: all QZSS satellites excluded                   COMMENT
teqc edited: all IRNSS satellites excluded                  COMMENT
pseudorange smoothing corrections not applied               COMMENT
  2020     1     3     0     0    0.0000000     GPS         TIME OF FIRST OBS
                                                            END OF HEADER
 20  1  3  0  0  0.0000000  0  9G29G16G05G21G10G13G26G15G20
 113876912.112 8  88735125.201 8  21670020.759    21670020.588    21670021.891
  21670021.906          50.000          49.000
 125851565.385 6  98066148.48044  23948757.604    23948757.502
  23948758.126          39.000          25.2504
 129361489.806 7 100801162.826 6  24616671.591    24616671.134    24616672.257
  24616672.856          42.000          39.500
 111675020.008 7  87019497.53047  21251046.180    21251045.478
  21251046.643          47.750          45.5004
 124905908.949 7  97329278.886 7  23768803.823    23768804.185    23768807.428
  23768807.888          42.750          44.250
 116418363.909 7  90715456.35746  22153638.778    22153638.542
  22153639.804          46.250          36.0004
 127810406.297 6  99592522.790 6  24321514.715    24321514.307    24321519.325
  24321519.809          38.750          41.000
 108973299.046 9  84914117.100 8  20736893.488    20736893.540    20736894.844
  20736894.746          54.000          52.250
 111888568.915 7  87185900.07246  21291685.839    21291685.310
  21291687.006          46.250          41.7504
 20  1  3  0  0 30.0000000  0 10G29G16G05G27G21G10G13G26G15G20
 113964202.083 8  88803143.346 8  21686631.106    21686630.932    21686632.818
  21686632.510          49.500          48.750
 125874389.085 6  98083933.14544  23953101.310    23953100.495
  23953102.012          39.500          25.0004
 129462515.169 6 100879883.865 6  24635894.988    24635894.703    24635897.059
  24635896.611          41.000          39.750
 130124086.990 6 101395396.322 6  24761791.260    24761791.243    24761794.823
  24761794.706          36.500          41.500
 111642785.947 7  86994380.08447  21244912.142    21244911.557
  21244912.670          47.500          45.5004
 124818212.294 7  97260943.868 7  23752116.274    23752115.627    23752119.774
  23752119.677          42.250          44.250
 116452594.424 7  90742129.48945  22160152.743    22160152.724
  22160153.456          46.500          35.7504
 127868564.187 6  99637840.635 6  24332581.619    24332581.495    24332586.710
  24332587.080          38.500          41.000
 108963116.676 8  84906182.790 8  20734955.819    20734955.979    20734957.308
  20734957.100          53.750          52.250
 111827102.146 7  87138003.91646  21279989.158    21279988.341
  21279990.165          46.250          41.5004
 20  1  3  0  1  0.0000000  0 10G29G16G05G27G21G10G13G26G15G20
 114051882.327 8  88871465.604 8  21703315.878    21703316.037    21703318.199
  21703317.764          49.500          49.250
 125897752.920 6  98102138.69344  23957546.489    23957546.719
  23957547.675          38.750          24.2504
 129563536.753 7 100958602.009 6  24655120.327    24655120.291    24655120.583
  24655120.729          43.000          40.000
 130021903.147 6 101315772.550 6  24742345.675    24742346.904    24742349.453
  24742349.563          37.000          39.750
 111610751.182 7  86969417.94047  21238816.142    21238815.471
  21238816.783          47.250          45.2504
 124730690.395 7  97192744.990 7  23735460.578    23735460.951    23735464.632
  23735465.358          42.000          44.750
 116487422.267 7  90769268.07946  22166780.297    22166780.068
  22166781.429          46.750          36.0004
 127927048.797 6  99683413.048 6  24343711.114    24343710.665    24343715.653
  24343715.880          38.500          41.250
 108953583.975 8  84898754.721 8  20733141.864    20733141.883    20733143.094
  20733143.036          53.500          52.500
 111765927.012 7  87090335.00247  21268347.999    21268347.283
  21268349.115          46.500          42.0004
 20  1  3  0  1 30.0000000  0 10G29G16G05G27G21G10G13G26G15G20
 114139948.981 8  88940088.965 8  21720074.654    21720074.762    21720076.337
  21720076.341          49.250          49.000
 125921653.648 6  98120762.62344  23962095.171    23962095.291
  23962096.163          38.750          24.5004
 129664551.848 7 101037315.047 6  24674342.395    24674341.929    24674342.584
  24674342.397          42.000          39.250
 129919918.198 6 101236303.771 6  24722938.682    24722939.046    24722943.229
  24722942.181          38.000          39.500
 111578915.419 7  86944610.85547  21232757.806    21232757.361
  21232758.469          47.250          45.5004
 124643342.340 7  97124681.582 7  23718838.738    23718838.873    23718842.179
  23718842.528          42.500          44.000
 116522844.811 7  90796870.07046  22173521.060    22173520.766
  22173521.593          46.750          36.0004
 127985855.980 6  99729236.804 6  24354901.300    24354900.924    24354906.834
  24354907.650          38.250          41.250
 108944699.520 8  84891831.777 8  20731450.913    20731451.348    20731452.649
  20731452.460          53.500          52.500
 111705042.559 7  87042892.60146  21256762.160    21256761.291
  21256763.067          46.750          41.7504
 20  1  3  0  2  0.0000000  0 10G29G16G05G27G21G10G13G26G15G20
 114228400.374 8  89009012.112 8  21736906.628    21736906.572    21736907.929
  21736908.108          49.500          48.500
 125946090.226 6  98139804.08744  23966744.503    23966743.925
  23966745.497          38.000          24.0004
 129765559.797 6 101116022.592 6  24693563.025    24693562.656    24693564.735
  24693563.270          41.750          39.750
 129818135.406 6 101156992.508 6  24703571.243    24703570.339    24703574.266
  24703573.258          39.250          39.500
 111547280.146 7  86919959.99447  21226738.003    21226737.397
  21226738.478          47.500          45.5004
 124556169.445 7  97056754.675 7  23702250.178    23702250.165    23702254.632
  23702254.943          42.250          45.000
 116558861.321 7  90824934.89545  22180374.647    22180374.420
  22180375.739          47.000          35.7504
 128044983.497 6  99775310.200 6  24366153.031    24366153.400    24366157.767
  24366158.557          38.000          41.000
 108936464.687 9  84885415.033 8  20729884.060    20729884.268    20729885.525
  20729885.364          54.000          52.250
 111644449.867 7  86995677.54747  21245231.587    21245230.928
  21245232.635          46.500          42.0004
 20  1  3  0  2 30.0000000  0 10G29G16G05G27G21G10G13G26G15G20
 114317235.168 8  89078234.027 8  21753811.413    21753811.401    21753812.859
  21753812.817          49.500          48.750
 125971061.891 6  98159262.51744  23971497.577    23971496.308
  23971498.484          38.500          24.0004
 129866560.175 6 101194724.167 6  24712781.476    24712781.120    24712783.493
  24712784.485          37.750          39.750
 129716558.200 6 101077841.428 6  24684240.866    24684241.095    24684244.230
  24684244.380          40.000          39.500
 111515847.610 7  86895467.10547  21220756.499    21220756.106
  21220757.113          47.750          45.5004
 124469173.226 7  96988965.442 7  23685696.122    23685695.943    23685699.743
  23685700.407          42.000          45.000
 116595471.183 7  90853462.08246  22187341.827    22187340.952
  22187342.318          47.500          36.2504
 128104429.439 6  99821631.700 6  24377465.228    24377464.642    24377470.682
  24377469.706          37.500          40.250
 108928880.198 8  84879505.050 8  20728440.803    20728441.043    20728442.386
  20728442.216          53.750          52.500
 111584149.888 7  86948690.58447  21233756.705    21233755.996
  21233757.946          46.250          42.0004
 20  1  3  0  3  0.0000000  0 10G29G16G05G27G21G10G13G26G15G20
 114406449.589 8  89147751.747 8  21770788.121    21770788.156    21770789.553
  21770789.466          49.250          48.500
 125996565.471 6  98179135.40044  23976350.041    23976348.801
  23976351.511          38.500          24.5004
 129967549.717 6 101273417.263 6  24732000.590    24732001.094    24732002.417
  24732001.688          41.000          41.250
 129615187.632 6 100998851.385 6  24664950.161    24664950.521    24664954.667
  24664953.933          39.750          39.500
 111484616.522 7  86871131.19447  21214813.469    21214812.843
  21214814.066          47.250          45.2504
 124382352.739 7  96921313.123 7  23669174.434    23669174.316    23669177.806
  23669178.218          42.500          44.000
 116632671.593 7  90882449.41446  22194420.652    22194420.258
  22194421.521          47.250          36.0004
 128164189.595 6  99868198.058 6  24388837.235    24388837.239    24388842.727
  24388842.371          37.750          41.250
 108921944.644 8  84874100.736 8  20727121.029    20727121.193    20727122.647
  20727122.427          53.500          52.750
 111524141.714 7  86901930.99347  21222337.493    21222336.895
  21222338.792          46.750          42.0004
 20  1  3  0  3 30.0000000  0 10G29G16G05G27G21G10G13G26G15G20
 114496042.419 8  89217564.339 8  21787837.249    21787837.135    21787838.190
  21787838.548          49.500          48.000
 126022600.531 6  98199422.42644  23981304.551    23981304.588
  23981306.263          38.000          25.0004
 130068528.739 6 101352102.222 6  24751216.991    24751216.249    24751218.890
  24751218.840          40.500          41.250
 129514027.360 6 100920025.200 6  24645701.044    24645701.299    24645704.632
  24645704.166          39.250          39.500
 111453589.438 7  86846954.24347  21208909.297    21208908.535
  21208909.681          47.750          45.5004
 124295709.780 7  96853799.130 7  23652686.512    23652686.713    23652690.386
  23652690.950          42.250          45.000
 116670462.348 7  90911896.74945  22201611.732    22201611.564
  22201612.672          47.250          35.7504
 128224262.285 6  99915007.917 6  24400269.227    24400268.216    24400273.177
  24400274.102          37.500          40.500
 108915659.118 8  84869202.926 8  20725924.778    20725925.080    20725926.110
  20725926.103          53.500          52.250
 111464426.566 7  86855399.73747  21210974.243    21210973.587
  21210975.329          47.000          42.2504
 20  1  3  0  4  0.0000000  0 10G29G16G05G26G27G21G10G13G15G20
 114586010.765 8  89287669.525 8  21804957.339    21804957.545    21804958.981
  21804959.194          48.250          48.500
 126049164.656 6  98220121.73144  23986359.540    23986359.586
  23986361.262          38.250          25.2504
 130169495.462 7 101430777.583 6  24770430.871    24770430.323    24770430.926
  24770430.288          42.000          40.000
 128284657.654 6                  24411758.530
                        36.500
 129413079.509 6 100841364.545 6  24626491.608    24626491.856    24626494.643
  24626493.515          39.000          39.000
 111422766.187 7  86822936.12147  21203043.742    21203043.223
  21203044.233          47.500          45.5004
 124209244.465 7  96786423.574 7  23636232.965    23636232.171    23636236.318
  23636237.405          42.500          44.750
 116708841.559 7  90941802.64245  22208915.165    22208914.534
  22208916.130          47.000          35.2504
 108910023.117 8  84864811.242 8  20724852.535    20724852.612    20724854.018
  20724853.686          53.250          52.250
 111405004.227 7  86809096.63747  21199666.429    21199665.835
  21199667.729          47.000          42.5004
 20  1  3  0  4 30.0000000  0 10G29G16G05G26G27G21G10G13G15G20
 114676352.295 8  89358065.512 8  21822149.085    21822148.893    21822150.322
  21822150.468          49.000          48.500
 126076256.760 6  98241232.45744  23991515.552    23991514.927
  23991516.557          38.250          25.0004
 130270449.338 7 101509442.919 6  24789642.045    24789641.895    24789642.614
  24789642.518          42.750          39.750
 128345346.641 6 100009358.443 7  24423307.861    24423307.440    24423313.088
  24423313.479          38.250          42.000
 129312346.925 6 100762871.621 6  24607322.962    24607321.985    24607325.128
  24607325.360          39.000          39.000
 111392148.263 7  86799077.99147  21197217.370    21197216.797
  21197217.841          47.250          45.5004
 124122957.608 6  96719187.074 7  23619812.464    23619812.806    23619816.414
  23619817.149          41.250          44.750
 116747807.854 7  90972166.00545  22216329.942    22216329.851
  22216330.545          47.000          35.2504
 108905037.307 8  84860926.197 8  20723903.590    20723903.945    20723905.061
  20723904.651          53.250          52.250
 111345875.100 7  86763022.03147  21188414.652    21188413.889
  21188415.431          46.500          42.5004
 20  1  3  0  5  0.0000000  0 10G29G16G05G26G27G21G10G13G15G20
 114767065.110 8  89428750.816 8  21839411.066    21839411.077    21839412.250
  21839412.279          48.750          48.250
 126103882.308 6  98262764.38044  23996770.579    23996771.030
  23996771.030          36.750          24.2504
 130371388.508 7 101588096.829 6  24808849.815    24808849.891    24808850.054
  24808849.674          43.250          38.750
 128406339.258 6 100056885.157 6  24434913.595    24434913.657    24434918.121
  24434918.940          36.750          39.250
 129211832.507 6 100684548.693 6  24588194.355    24588194.459    24588198.499
  24588197.580          38.000          40.000
 111361736.960 7  86775380.86847  21191430.405    21191429.701
  21191430.825          47.250          45.5004
 124036850.194 7  96652090.408 7  23603427.022    23603427.511    23603430.876
  23603431.839          42.000          45.250
 116787360.074 7  91002985.91945  22223856.582    22223856.204
  22223857.096          47.000          35.7504
 108900701.678 8  84857547.793 8  20723078.617    20723078.776    20723079.955
  20723079.844          53.250          52.250
 111287040.351 7  86717176.79947  21177218.665    21177217.830
  21177219.575          47.000          42.5004
 20  1  3  0  5 30.0000000  0 10G29G16G05G26G27G21G10G13G15G20
 114858147.524 8  89499724.120 8  21856743.521    21856743.429    21856744.943
  21856745.030          48.750          48.250
 126132026.011 6  98284694.49144  24002125.556    24002125.262
  24002128.119          36.750          24.0004
 130472312.607 6 101666738.963 6  24828054.132    24828054.415    24828056.352
  24828055.741          41.500          39.000
 128467633.649 6 100104647.008 6  24446578.023    24446577.859    24446583.227
  24446582.120          37.000          39.500
 129111539.335 6 100606398.139 6  24569109.431    24569109.677    24569113.448
  24569113.064          37.750          40.750
 111331533.181 7  86751845.46547  21185682.753    21185682.157
  21185683.243          47.250          45.5004
 123950923.262 6  96585134.379 7  23587075.773    23587076.263    23587079.859
  23587079.667          41.750          45.750
 116827497.288 7  91034261.67945  22231494.308    22231494.093
  22231495.327          47.000          35.5004
 108897016.837 8  84854676.489 8  20722377.429    20722377.381    20722378.899
  20722378.602          52.500          52.500
 111228500.543 7  86671561.39747  21166078.849    21166078.200
  21166080.246          46.500          42.7504
 20  1  3  0  6  0.0000000  0 10G29G16G05G26G27G21G10G13G15G20
 114949596.628 8  89570983.148 8  21874145.728    21874145.623    21874147.310
  21874147.345          48.750          48.250
 126160692.641 6  98307032.10344  24007580.858    24007581.052
  24007582.950          36.250          24.0004
 130573219.920 6 101745368.041 6  24847255.620    24847255.480    24847258.292
  24847257.278          41.000          37.500
 128529226.494 6 100152641.434 6  24458298.263    24458298.462    24458303.768
  24458303.767          36.250          40.750
 129011469.543 6 100528421.660 6  24550066.048    24550066.329    24550070.047
  24550070.365          38.000          41.750
 111301538.043 7  86728472.62647  21179974.841    21179974.224
  21179975.283          47.500          45.7504
 123865176.999 7  96518319.130 7  23570758.778    23570759.507    23570762.729
  23570762.884          42.500          45.500
 116868217.583 7  91065991.78645  22239243.490    22239243.182
  22239244.351          47.500          35.5004
 108893982.199 8  84852311.844 8  20721799.902    20721800.042    20721801.343
  20721801.268          52.500          52.250
 111170255.706 7  86626175.83347  21154995.200    21154994.343
  21154996.122          46.500          42.2504
 20  1  3  0  6 30.0000000  0  9G29G05G26G27G21G10G13G15G20
 115041410.007 8  89642526.033 8  21891617.174    21891617.284    21891618.902
  21891618.715          48.500          48.250
 130674109.603 7 101823983.375 5  24866455.779    24866454.307    24866455.249
  24866454.500          42.250          35.500
 128591114.946 6 100200866.161 6  24470075.395    24470075.881    24470080.415
  24470081.871          37.000          40.500
 128911625.680 6 100450621.234 7  24531066.768    24531067.335    24531071.744
  24531070.942          38.750          42.500
 111271751.972 8  86705262.69747  21174306.746    21174306.145
  21174307.161          48.000          45.7504
 123779611.893 6  96451645.043 7  23554476.510    23554476.397    23554480.254
  23554480.742          41.750          45.250
 116909519.185 7  91098174.85445  22247102.470    22247102.258
  22247103.573          47.500          35.5004
 108891597.275 8  84850453.473 8  20721345.975    20721346.174    20721347.508
  20721347.331          52.750          52.250
 111112305.868 7  86581020.15047  21143967.795    21143967.086
  21143968.981          46.750          42.5004
 20  1  3  0  7  0.0000000  0  9G29G05G26G27G21G10G13G15G20
 115133585.556 8  89714351.126 7  21909157.410    21909157.569    21909158.755
  21909159.082          48.250          47.750
 130774980.266 7 101902583.927 5  24885650.010    24885649.614    24885649.524
  24885649.137          42.500          34.500
 128653296.377 6 100249319.224 6  24481908.717    24481908.247    24481913.021
  24481913.057          37.500          40.500
 128812010.555 6 100372999.086 6  24512110.240    24512110.320    24512115.540
  24512115.275          38.750          41.750
 111242175.757 7  86682216.29547  21168678.584    21168677.878
  21168678.980          47.750          45.5004
 123694228.808 7  96385112.789 7  23538228.566    23538228.562    23538232.454
  23538232.582          42.000          45.000
 116951400.905 7  91130809.97345  22255072.318    22255072.124
  22255073.100          47.250          35.2504
 108889862.585 8  84849101.770 8  20721016.157    20721016.088    20721017.535
  20721017.398          51.250          52.500
 111054651.236 7  86536094.48547  21132996.186    21132995.495
  21132997.666          47.000          42.5004
 20  1  3  0  7 30.0000000  0  8G29G05G27G21G10G13G15G20
 115226119.943 8  89786455.832 8  21926765.970    21926766.057    21926768.070
  21926767.671          48.250          48.000
 130875830.542 7 101981168.525 6  24904840.711    24904841.627    24904841.873
  24904842.302          42.000          36.000
 128712626.360 6 100295556.875 6  24493198.162    24493198.660    24493202.126
  24493202.152          39.750          41.500
 111212811.033 7  86659334.69047  21163090.552    21163089.924
  21163091.076          46.750          45.5004
 123609027.930 7  96318722.503 7  23522015.063    23522015.110    23522019.263
  23522019.678          42.500          45.000
 116993860.728 7  91163895.54845  22263152.529    22263152.336
  22263153.167          47.250          35.5004
 108888777.224 8  84848256.038 8  20720809.649    20720809.563    20720810.843
  20720810.586          50.250          52.500
 110997292.149 7  86491399.12747  21122081.246    21122080.687
  21122082.255          46.750          42.7504
 20  1  3  0  8  0.0000000  0  9G26G29G05G27G21G10G13G15G20
 128778527.393 6 100346905.050 6  24505739.248    24505738.781    24505743.047
  24505743.217          37.250          37.500
 115319012.259 8  89858839.444 8  21944442.850    21944443.271    21944445.186
  21944444.690          48.000          48.250
 130976659.915 7 102059736.925 5  24924027.427    24924028.250    24924029.652
  24924027.528          42.250          34.750
 128613476.641 6 100218297.343 6  24474331.084    24474331.033    24474335.254
  24474334.284          40.000          40.750
 111183658.761 7  86636618.62747  21157543.267    21157542.635
  21157543.688          46.500          45.5004
 123524010.659 6  96252475.291 7  23505836.532    23505836.964    23505840.895
  23505841.370          41.750          45.500
 117036897.930 8  91197431.03645  22271342.234    22271341.752
  22271343.053          48.000          35.5004
 108888342.269 8  84847917.121 8  20720726.723    20720726.867    20720728.134
  20720727.905          50.000          52.500
 110940229.730 7  86446934.92947  21111222.228    21111221.779
  21111223.741          46.250          43.0004
 20  1  3  0  8 30.0000000  0  9G26G29G05G27G21G10G13G15G20
 128841570.456 6 100396029.513 6  24517735.507    24517736.037    24517741.939
  24517741.270          37.000          41.750
 115412259.398 8  89931499.552 8  21962187.604    21962187.690    21962188.863
  21962188.697          48.500          48.000
 131077467.087 7 102138287.953 6  24943211.400    24943211.582    24943213.067
  24943212.983          42.250          38.750
 128514563.320 6 100141222.035 6  24455508.909    24455508.386    24455512.203
  24455511.774          40.250          40.500
 111154719.552 7  86614068.59147  21152036.331    21152035.621
  21152036.751          46.500          45.5004
 123439177.019 7  96186371.189 7  23489693.674    23489693.709    23489697.662
  23489697.813          42.000          46.000
 117080510.010 7  91231414.49245  22279640.999    22279641.122
  22279642.173          47.500          35.5004
 108888556.956 8  84848084.410 8  20720767.582    20720767.734    20720768.707
  20720768.628          50.250          52.000
 110883463.668 7  86402701.69247  21100420.680    21100419.908
  21100421.240          47.000          43.0004
 20  1  3  0  9  0.0000000  0  8G29G05G27G21G10G13G15G20
 115505860.282 7  90004435.285 8  21979999.008    21979999.062    21980001.066
  21980000.601          47.750          48.000
 131178251.983 7 102216821.661 6  24962390.397    24962390.020    24962390.499
  24962390.938          42.250          38.750
 128415890.452 6 100064334.098 6  24436731.747    24436731.835    24436733.859
  24436733.634          40.500          39.750
 111125995.806 7  86591686.45047  21146570.283    21146569.621
  21146570.767          46.750          45.7504
 123354528.900 7  96120411.627 7  23473585.908    23473586.159    23473589.834
  23473590.214          42.000          45.750
 117124696.773 7  91265845.73945  22288049.709    22288049.512
  22288050.094          47.500          35.7504
 108889422.162 8  84848758.608 8  20720932.272    20720932.391    20720933.420
  20720933.365          49.250          52.250
 110826995.591 7  86358700.59747  21089674.435    21089673.841
  21089675.617          46.250          42.7504
 20  1  3  0  9 30.0000000  0  9G16G29G05G27G21G10G13G15G20
 126375858.687 6  98474691.38644  24048525.503    24048525.304
  24048527.188          36.750          24.5004
 115599810.876 7  90077643.532 8  21997877.304    21997877.442    21997879.218
  21997879.150          47.500          48.250
 131279012.226 6 102295336.131 6  24981563.677    24981564.606    24981563.697
  24981563.120          40.750          37.750
 128317459.519 6  99987634.674 6  24418000.755    24418001.300    24418003.861
  24418004.103          40.500          39.000
 111097486.974 7  86569471.77447  21141145.099    21141144.702
  21141145.694          47.250          45.7504
 123270065.774 7  96054596.223 7  23457512.877    23457512.762    23457517.099
  23457517.136          42.000          46.250
 117169455.492 7  91300722.67745  22296566.496    22296566.660
  22296567.894          47.000          35.5004
 108890936.454 8  84849938.581 8  20721220.355    20721220.506    20721221.664
  20721221.497          50.500          52.250
 110770824.522 7  86314930.98047  21078986.004    21078985.524
  21078986.874          47.000          43.2504
 20  1  3  0 10  0.0000000  0  9G29G26G05G27G21G10G13G15G20
 115694108.787 8  90151122.412 8  22015821.886    22015821.631    22015823.557
  22015823.441          48.000          48.000
 129032379.185 6 100544715.169 6  24554046.115    24554046.126    24554050.122
  24554051.238          37.500          36.500
 131379746.125 6 102373830.089 6  25000732.903    25000733.002    25000733.009
  25000731.812          40.000          36.500
 128219272.790 6  99911125.543 6  24399316.593    24399316.150    24399319.664
  24399319.763          40.000          39.000
 111069193.820 7  86547425.16347  21135761.112    21135760.621
  21135761.664          46.250          45.5004
 123185787.880 7  95988925.134 7  23441475.156    23441475.099    23441479.105
  23441479.808          42.000          46.000
 117214784.461 7  91336043.94945  22305192.327    22305192.489
  22305193.526          47.000          35.0004
 108893099.502 8  84851624.075 8  20721631.983    20721632.164    20721633.525
  20721633.091          51.000          52.250
 110714950.425 7  86271392.72747  21068353.203    21068352.352
  21068354.260          45.750          42.7504
 20  1  3  0 10 30.0000000  0  8G29G05G27G21G10G13G15G20
 115788752.092 7  90224870.436 8  22033831.984    22033831.621    22033833.508
  22033833.233          47.500          48.000
 131480441.438 6 102452296.250 6  25019897.206    25019896.393    25019897.962
  25019897.287          38.250          36.250
 128121333.300 6  99834809.071 6  24380679.591    24380679.565    24380682.842
  24380682.501          39.750          39.750
 111041117.639 7  86525547.61347  21130418.538    21130417.884
  21130419.076          46.250          45.7504
 123101696.228 6  95923399.195 7  23425472.969    23425473.220    23425477.867
  23425477.387          41.250          46.000
 117260682.023 7  91371808.28545  22313926.683    22313926.440
  22313927.585          47.250          35.2504
 108895911.346 8  84853815.142 8  20722166.873    20722167.226    20722168.591
  20722168.464          50.250          52.500
 110659374.127 7  86228086.56047  21057777.707    21057777.155
  21057778.683          46.750          43.2504
 20  1  3  0 11  0.0000000  0  8G29G05G27G21G10G13G15G20
 115883737.492 7  90298885.020 8  22051906.965    22051906.824    22051908.397
  22051908.335          47.750          48.000
 131581120.188 6 102530747.233 6  25039056.027    25039055.476    25039055.592
  25039056.170          40.000          39.750
 128023643.050 6  99758686.787 6  24362089.068    24362089.009    24362093.605
  24362093.333          39.250          41.250
 111013259.322 7  86503839.83347  21125117.275    21125116.569
  21125117.702          46.250          45.7504
 123017790.662 6  95858018.233 7  23409506.377    23409506.217    23409510.476
  23409511.095          41.500          45.750
 117307145.858 7  91408013.87945  22322768.712    22322767.988
  22322769.541          47.750          34.7504
 108899370.664 8  84856510.716 8  20722825.091    20722825.378    20722826.652
  20722826.582          50.250          52.500
 110604094.981 7  86185011.89847  21047258.042    21047257.223
  21047258.998          46.000          42.7504
 20  1  3  0 11 30.0000000  0  8G29G05G27G21G10G13G15G20
 115979064.600 7  90373165.880 7  22070047.030    22070046.898    22070048.401
  22070048.466          47.750          47.750
 131681771.505 6 102609176.823 6  25058208.607    25058208.853    25058208.864
  25058208.978          41.250          39.250
 127926206.802 6  99682762.454 7  24343548.568    24343548.609    24343552.334
  24343551.088          40.250          42.000
 110985621.411 7  86482303.80347  21119858.009    21119857.324
  21119858.477          47.500          45.7504
 122934073.926 6  95792784.422 7  23393575.547    23393575.792    23393579.838
  23393580.236          41.000          46.000
 117354176.189 7  91444660.90445  22331717.786    22331717.486
  22331719.064          47.000          34.5004
 108903479.606 8  84859712.500 8  20723607.060    20723607.273    20723608.416
  20723608.535          51.000          52.000
 110549115.341 7  86142170.65347  21036796.321    21036795.574
  21036796.958          47.000          43.5004
 20  1  3  0 12  0.0000000  0  8G29G05G27G21G10G13G15G20
 116074730.087 7  90447710.400 8  22088251.620    22088251.851    22088253.294
  22088253.255          47.500          48.250
 131782393.362 6 102687583.417 6  25077355.776    25077354.935    25077358.430
  25077356.781          39.500          40.500
 127829026.274 6  99607037.361 7  24325055.625    24325055.273    24325058.654
  24325058.935          41.750          42.500
 110958203.740 7  86460939.38347  21114640.585    21114639.845
  21114640.981          47.500          45.5004
 122850545.620 7  95727697.435 7  23377680.661    23377681.268    23377684.206
  23377684.906          42.000          45.500
 117401770.634 7  91481747.49845  22340774.809    22340774.940
  22340775.803          47.500          34.7504
 108908236.812 8  84863419.418 8  20724512.463    20724512.604    20724513.912
  20724513.813          50.750          52.250
 110494435.148 7  86099562.71547  21026389.850    21026389.295
  21026391.582          45.250          42.7504
 20  1  3  0 12 30.0000000  0  8G29G05G27G21G10G13G15G20
 116170731.624 7  90522516.783 7  22106520.413    22106520.103    22106521.628
  22106521.650          47.750          47.500
 131882984.626 6 102765966.253 6  25096497.209    25096497.574    25096499.086
  25096498.861          39.250          40.500
 127732104.226 6  99531513.681 7  24306611.634    24306611.345    24306615.122
  24306615.254          41.750          42.500
 110931007.690 7  86439747.65347  21109465.389    21109464.667
  21109465.668          47.500          45.7504
 122767206.440 7  95662757.820 7  23361822.451    23361822.244    23361825.951
  23361826.745          42.000          46.250
 117449927.506 7  91519272.33945  22349939.021    22349938.679
  22349940.275          47.000          34.7504
 108913641.845 8  84867631.138 8  20725540.953    20725541.079    20725542.121
  20725542.114          50.500          52.000
 110440054.371 7  86057188.11947  21016042.280    21016041.983
  21016043.059          46.250          43.5004
 20  1  3  0 13  0.0000000  0  8G29G05G27G21G10G13G15G20
 116267065.748 7  90597582.334 7  22124852.039    22124852.095    22124852.887
  22124853.514          47.750          47.000
 131983543.317 6 102844323.626 6  25115634.164    25115633.114    25115634.238
  25115634.581          40.250          37.000
 127635442.419 6  99456192.795 7  24288217.603    24288217.621    24288221.171
  24288221.279          41.750          42.750
 110904033.729 7  86418728.98547  21104331.980    21104331.659
  21104332.818          47.500          45.5004
 122684056.059 6  95597965.323 7  23345998.818    23345998.944    23346002.329
  23346003.450          41.750          45.750
 117498644.018 7  91557233.25845  22359209.443    22359209.039
  22359210.204          47.250          34.7504
 108919693.426 8  84872346.660 8  20726692.512    20726692.731    20726694.113
  20726693.638          50.250          52.000
 110385972.636 7  86015046.50747  21005750.359    21005749.684
  21005751.840          45.250          43.0004
 20  1  3  0 13 30.0000000  0  8G29G05G27G21G10G13G15G20
 116363731.114 7  90672905.995 7  22143246.332    22143246.431    22143248.227
  22143247.992          47.000          47.500
 132084070.078 6 102922656.196 6  25134763.352    25134763.813    25134764.551
  25134763.991          40.250          38.500
 127539044.354 6  99381077.426 7  24269873.544    24269873.631    24269876.873
  24269876.799          40.750          42.750
 110877282.984 7  86397884.24847  21099241.771    21099241.226
  21099242.270          47.500          45.7504
 122601095.886 7  95533321.043 7  23330211.985    23330212.379    23330215.824
  23330216.908          42.000          46.250
 117547919.114 7  91595629.45145  22368585.851    22368586.069
  22368587.322          46.750          34.5004
 108926391.972 8  84877566.311 8  20727967.219    20727967.259    20727968.885
  20727968.480          50.750          52.500
 110332190.678 7  85973138.51247  20995516.909    20995516.171
  20995517.447          46.750          43.5004
 20  1  3  0 14  0.0000000  0  8G29G05G27G21G10G13G15G20
 116460725.424 7  90748485.963 7  22161703.957    22161703.857    22161705.783
  22161705.879          47.000          47.750
 132184563.408 6 103000962.683 6  25153886.421    25153886.870    25153887.046
  25153886.746          39.750          36.500
 127442913.101 6  99306169.961 7  24251580.133    24251580.900    24251583.307
  24251584.464          40.750          42.250
 110850757.732 8  86377215.22047  21094194.245    21094193.552
  21094194.630          48.000          45.7504
 122518326.911 6  95468825.750 7  23314461.566    23314461.977    23314466.071
  23314466.432          41.250          46.750
 117597751.448 7  91634459.84145  22378068.557    22378068.537
  22378069.674          46.500          34.0004
 108933737.155 8  84883289.842 8  20729364.981    20729365.049    20729366.440
  20729366.118          51.000          52.250
 110278709.258 7  85931464.67847  20985339.146    20985338.394
  20985340.172          46.250          43.0004
 20  1  3  0 14 30.0000000  0  8G29G05G27G21G10G13G15G20
 116558046.292 7  90824320.388 7  22180223.350    22180223.230    22180225.214
  22180225.182          46.750          47.500
 132285022.303 6 103079242.328 6  25173003.472    25173002.347    25173003.961
  25173003.989          40.000          38.000
 127347051.439 6  99231472.562 7  24233338.412    24233337.741    24233341.548
  24233341.167          40.500          42.000
 110824458.496 8  86356722.30847  21089189.670    21089188.910
  21089190.095          48.000          45.7504
 122435749.728 6  95404479.899 7  23298747.354    23298747.651    23298750.856
  23298751.620          41.000          45.500
 117648139.365 7  91673723.15745  22387657.520    22387657.492
  22387658.281          47.000          34.2504
 108941728.811 8  84889517.109 8  20730885.796    20730885.790    20730887.020
  20730887.026          51.000          52.250
 110225528.770 7  85890025.35347  20975219.764    20975219.065
  20975220.332          47.250          43.7504
 20  1  3  0 15  0.0000000  0  8G29G05G27G21G10G13G15G20
 116655691.028 7  90900407.184 7  22198804.559    22198804.713    22198806.325
  22198806.216          46.750          47.250
 132385445.939 6 103157494.560 6  25192113.510    25192113.506    25192115.486
  25192113.919          39.000          36.750
 127251461.794 6  99156987.121 7  24215148.548    24215148.594    24215151.807
  24215152.391          40.750          42.500
 110798385.914 8  86336406.01347  21084228.248    21084227.575
  21084228.646          48.500          45.7504
 122353364.675 6  95340283.772 7  23283070.137    23283070.315    23283074.100
  23283074.195          41.750          45.750
 117699080.795 7  91713417.78445  22397350.905    22397351.188
  22397351.954          46.500          34.2504
 108950366.325 8  84896247.646 8  20732529.442    20732529.443    20732530.938
  20732530.684          51.250          52.500
 110172649.323 7  85848820.60347  20965156.253    20965155.627
  20965157.756          46.250          43.2504
 20  1  3  0 15 30.0000000  0  9G16G29G05G27G21G10G13G15G20
 126802329.995 6  98807015.58443  24129682.430    24129681.573
  24129682.912          36.250          23.0004
 116753655.796 7  90976743.364 7  22217446.743    22217446.663    22217448.391
  22217448.149          46.750          47.000
 132485831.740 6 103235717.197 5  25211216.184    25211215.754    25211217.788
  25211216.790          38.750          35.500
 127156145.462 6  99082714.658 7  24197010.133    24197010.440    24197013.960
  24197013.684          40.500          42.250
 110772539.699 8  86316266.10547  21079309.728    21079309.205
  21079310.287          48.500          45.5004
 122271170.917 6  95276236.688 7  23267429.265    23267428.666    23267433.520
  23267433.722          41.250          46.750
 117750572.552 7  91753541.23945  22407149.156    22407149.753
  22407150.801          46.250          34.2504
 108959647.574 8  84903479.804 8  20734295.602    20734295.692    20734297.084
  20734296.857          51.250          52.250
 110120069.824 7  85807849.57547  20955151.409    20955150.815
  20955152.137          47.250          43.7504
 20  1  3  0 16  0.0000000  0 10G16G29G05G26G27G21G10G13G15G20
 126841072.785 6  98837204.76644  24137055.447    24137054.340
  24137055.873          36.500          24.5004
 116851940.133 7  91053328.560 7  22236149.397    22236149.599    22236151.571
  22236151.134          46.500          47.000
 132586180.799 6 103313911.328 5  25230312.277    25230312.298    25230312.370
  25230312.390          38.750          33.750
                 101158013.715 6                                  24703825.348
                                        41.000
 127061107.198 6  99008658.873 7  24178925.185    24178924.930    24178928.705
  24178927.939          40.250          42.000
 110746923.347 8  86296305.30847  21074435.245    21074434.538
  21074435.710          48.750          45.7504
 122189171.133 7  95212340.780 7  23251825.564    23251825.303    23251829.342
  23251830.069          43.000          47.000
 117802614.572 7  91794093.45845  22417052.669    22417052.863
  22417053.798          46.500          34.2504
 108969574.112 8  84911214.773 8  20736184.454    20736184.707    20736185.878
  20736185.590          51.500          52.000
 110067792.376 7  85767113.90847  20945202.945    20945202.265
  20945204.149          46.750          43.2504
 20  1  3  0 16 30.0000000  0 10G16G29G05G26G27G21G10G13G15G20
 126880298.372 6  98867770.11143  24144519.935    24144519.497
  24144520.704          36.000          23.5004
 116950540.303 7  91130159.847 7  22254912.491    22254912.632    22254914.193
  22254914.058          46.750          47.000
 132686490.894 6 103392075.002 5  25249399.959    25249400.490    25249402.213
  25249400.759          39.000          35.000
 129886663.059 6 101210383.620 6  24716610.451    24716609.569    24716615.767
  24716615.945          37.000          37.250
 126966348.547 6  98934820.996 7  24160893.590    24160892.978    24160895.819
  24160896.463          40.500          42.000
 110721536.568 8  86276523.39647  21069604.337    21069603.516
  21069604.738          48.500          45.5004
 122107364.782 7  95148595.583 7  23236258.225    23236258.218    23236262.191
  23236262.858          42.250          47.000
 117855203.919 7  91835072.17945  22427060.393    22427060.630
  22427061.196          46.750          34.2504
 108980144.170 8  84919451.190 8  20738195.897    20738196.077    20738197.109
  20738197.088          51.750          52.000
 110015816.446 8  85726613.18947  20935312.738    20935311.943
  20935313.386          48.000          43.7504
 20  1  3  0 17  0.0000000  0  9G29G05G16G27G21G10G13G15G20
 117049454.182 7  91207235.590 7  22273735.505    22273735.533    22273737.291
  22273737.173          47.250          47.000
 132786761.652 6 103470208.095 5  25268481.113    25268481.303    25268481.818
  25268482.242          37.000          33.250
 126920012.648 6  98898711.04643  24152075.858    24152075.018
  24152075.969          36.750          23.2504
 126871872.470 6  98861203.281 7  24142915.063    24142914.633    24142918.397
  24142918.426          41.500          42.750
 110696380.512 8  86256921.27547  21064817.315    21064816.540
  21064817.722          48.750          45.7504
 122025752.503 7  95085001.610 7  23220727.796    23220727.730    23220731.542
  23220732.638          42.750          47.000
 117908338.847 7  91876476.02545  22437171.485    22437171.275
  22437172.648          45.750          34.5004
 108991357.400 8  84928188.779 8  20740329.809    20740329.773    20740330.773
  20740330.869          52.250          52.000
 109964142.427 7  85686347.73747  20925478.969    20925478.253
  20925480.332          47.250          43.7504
 20  1  3  0 17 30.0000000  0  9G29G05G16G27G21G10G13G15G20
 117148679.317 7  91284553.879 7  22292617.291    22292617.654    22292619.326
  22292618.729          47.250          46.750
 132886992.133 6 103548309.746 6  25287554.040    25287554.311    25287554.868
  25287555.222          37.250          36.500
 126960198.006 6  98930024.26043  24159722.121    24159721.213
  24159723.464          36.500          22.5004
 126777681.676 6  98787807.854 7  24124991.400    24124991.656    24124994.964
  24124994.370          41.500          43.250
 110671455.997 8  86237499.57147  21060074.330    21060073.745
  21060074.750          49.000          45.7504
 121944335.019 7  95021559.432 7  23205233.758    23205234.049    23205238.410
  23205238.624          42.250          45.750
 117962017.727 7  91918303.72745  22447386.463    22447386.406
  22447387.632          46.500          34.2504
 109003213.318 8  84937427.166 8  20742585.653    20742585.904    20742587.149
  20742587.026          52.500          52.000
 109912770.594 8  85646317.75547  20915703.446    20915702.714
  20915704.286          48.000          43.7504
 20  1  3  0 18  0.0000000  0  8G29G26G27G21G10G13G15G20
 117248212.539 7  91362112.232 7  22311557.848    22311557.789    22311559.694
  22311559.667          47.500          47.500
 130089706.665 6 101368600.102 6  24755247.463                    24755252.481
                        38.750          37.000
 126683778.356 6  98714636.449 7  24107122.060    24107121.577    24107125.503
  24107124.945          41.750          43.750
 110646763.932 8  86218258.99547  21055375.330    21055374.981
  21055375.948          48.750          45.7504
 121863112.296 7  94958269.001 7  23189778.782    23189778.634    23189781.983
  23189782.577          43.500          45.750
 118016237.792 7  91960553.13345  22457703.796    22457703.763
  22457704.964          46.000          34.2504
 109015710.513 8  84947165.250 8  20744963.767    20744964.108    20744965.518
  20744965.201          52.750          52.250
 109861700.505 7  85606522.89847  20905984.915    20905984.307
  20905986.152          47.750          43.7504
 20  1  3  0 18 30.0000000  0  9G29G26G16G27G21G10G13G15G20
 117348051.947 7  91439909.154 7  22330556.705    22330556.502    22330558.189
  22330558.380          47.500          46.750
 130157845.332 6 101421695.176 6  24768212.767    24768213.099    24768218.419
  24768218.878          36.500          41.250
 127041996.323 6  98993762.42643  24175287.941    24175287.713
  24175288.914          38.000          23.5004
 126590165.648 7  98641691.486 7  24089308.008    24089308.156    24089311.634
  24089311.552          42.250          43.750
 110622305.553 8  86199200.51647  21050721.130    21050720.642
  21050721.685          48.750          45.5004
 121782085.352 7  94895131.132 7  23174359.519    23174359.762    23174363.243
  23174364.004          43.250          46.250
 118070997.799 7  92003223.27645  22468124.962    22468124.363
  22468126.224          46.250          34.2504
 109028848.853 8  84957402.932 8  20747464.104    20747464.207    20747465.756
  20747465.359          52.750          52.500
 109810933.304 8  85566964.05147  20896324.537    20896323.868
  20896325.435          48.250          44.0004
 20  1  3  0 19  0.0000000  0  9G29G26G16G27G21G10G13G15G20
 117448194.240 7  91517942.098 7  22349612.923    22349612.782    22349614.962
  22349614.728          47.000          46.500
 130226207.844 6 101474964.664 6  24781222.861    24781222.530    24781228.040
  24781228.332          38.000          40.750
 127083603.874 6  99026183.83843  24183205.756    24183204.921
  24183206.884          36.750          23.5004
 126496845.438 6  98568974.441 7  24071549.844    24071549.847    24071553.342
  24071553.049          41.750          44.000
 110598081.417 8  86180324.56047  21046111.657    21046110.984
  21046112.040          49.000          45.7504
 121701253.936 7  94832145.642 7  23158977.897    23158977.958    23158981.169
  23158981.428          43.750          46.000
 118126295.149 7  92046312.13045  22478647.693    22478647.207
  22478648.013          46.500          34.0004
 109042626.666 8  84968138.901 8  20750085.710    20750085.950    20750087.383
  20750087.203          53.250          52.000
 109760468.231 8  85527640.62747  20886720.983    20886720.463
  20886722.105          48.250          43.7504
 20  1  3  0 19 30.0000000  0  9G29G26G16G27G21G10G13G15G20
 117548638.588 7  91596210.416 7  22368727.225    22368726.894    22368729.079
  22368728.473          47.750          46.500
 130294792.925 6 101528407.594 6  24794273.296    24794273.011    24794279.372
  24794279.386          36.500          41.500
 127125682.312 6  99058972.23944  24191213.156    24191212.220
  24191214.551          38.000          24.7504
 126403822.198 6  98496488.798 7  24053847.957    24053847.283    24053851.505
  24053850.956          41.500          43.750
 110574094.208 8  86161633.23347  21041546.976    21041546.274
  21041547.326          48.750          45.7504
 121620620.342 7  94769314.261 7  23143634.261    23143634.107    23143637.517
  23143637.821          44.250          46.500
 118182129.202 7  92089819.17945  22489272.178    22489272.086
  22489272.976          45.250          33.7504
 109057045.154 8  84979374.095 8  20752829.737    20752829.770    20752831.299
  20752831.036          53.500          52.250
 109710307.275 8  85488554.18047  20877176.199    20877175.380
  20877176.947          48.500          43.7504
 20  1  3  0 20  0.0000000  0  9G29G26G16G27G21G10G13G15G20
 117649382.530 7  91674712.180 7  22387898.175    22387897.995    22387900.064
  22387899.700          47.750          46.500
 130363597.918 6 101582021.884 6  24807367.229    24807366.799    24807372.135
  24807372.563          37.500          40.750
 127168229.959 6  99092126.20943  24199308.737    24199308.990
  24199311.229          37.250          23.7504
 126311098.741 6  98424236.755 7  24036202.748    24036203.201    24036206.821
  24036206.976          41.250          44.000
 110550345.471 8  86143127.71847  21037027.867    21037027.173
  21037028.144          49.250          46.0004
 121540185.264 7  94706637.582 7  23128327.103    23128327.256    23128331.120
  23128331.287          43.750          45.500
 118238498.039 7  92133742.95645  22499998.424    22499998.605
  22499999.757          45.250          33.5004
 109072103.793 8  84991108.107 8  20755695.323    20755695.418    20755696.471
  20755696.411          53.750          52.250
 109660450.825 8  85449705.01247  20867688.544    20867687.794
  20867689.526          48.500          44.0004
 20  1  3  0 20 30.0000000  0  9G29G26G16G27G21G10G13G15G20
 117750422.136 8  91753444.326 7  22407124.720    22407125.166    22407126.591
  22407126.529          48.000          46.000
 130432618.465 6 101635804.140 6  24820500.128    24820500.440    24820506.577
  24820507.098          36.750          41.250
 127211242.992 6  99125642.83043  24207494.271    24207494.422
  24207496.130          36.500          23.5004
 126218676.413 6  98352219.349 7  24018616.058    24018615.677    24018619.597
  24018619.357          41.000          44.250
 110526834.378 8  86124807.37947  21032553.588    21032553.131
  21032554.118          49.000          45.7504
 121459947.846 7  94644114.919 7  23113058.211    23113058.227    23113062.490
  23113062.807          43.750          46.750
 118295398.387 7  92178080.90245  22510825.982    22510826.530
  22510827.600          45.000          33.7504
 109087800.181 9  85003339.060 8  20758682.110    20758682.311    20758683.357
  20758683.301          54.000          52.000
 109610897.759 8  85411092.24647  20858258.897    20858258.343
  20858259.746          49.000          44.0004
 20  1  3  0 21  0.0000000  0  9G29G26G16G27G21G10G13G15G20
 117851754.797 8  91832404.837 7  22426407.967    22426408.485    22426410.200
  22426409.707          48.250          46.000
 130501851.437 6 101689751.908 6  24833675.628    24833675.586    24833681.143
  24833681.216          38.750          41.000
 127254718.944 6  99159520.13643  24215766.986    24215766.481
  24215769.831          37.000          22.5004
 126126557.753 6  98280438.577 7  24001086.257    24001086.215    24001089.925
  24001089.833          41.000          44.750
 110503561.737 8  86106672.85247  21028125.062    21028124.481
  21028125.437          49.250          45.7504
 121379908.394 7  94581746.525 7  23097827.034    23097827.775    23097831.419
  23097832.087          43.750          47.250
 118352828.270 7  92222831.45545  22521754.770    22521754.860
  22521756.089          45.000          33.5004
 109104133.067 9  85016065.989 8  20761790.160    20761790.312    20761791.255
  20761791.207          54.000          52.000
 109561648.157 8  85372715.93547  20848887.134    20848886.249
  20848887.902          49.000          44.0004
 20  1  3  0 21 30.0000000  0  9G29G26G16G27G21G10G13G15G20
 117953379.141 7  91911592.635 7  22445746.463    22445746.744    22445747.607
  22445748.197          47.500          45.750
 130571295.166 6 101743863.917 6  24846890.085    24846890.783    24846897.027
  24846896.174          38.000          41.500
 127298656.713 6  99193757.35143  24224127.968    24224127.864
  24224130.810          37.750          23.0004
 126034746.547 6  98208897.374 7  23983615.452    23983615.099    23983618.762
  23983619.038          40.750          44.250
 110480530.323 8  86088726.28747  21023742.452    21023741.820
  21023742.767          49.000          46.0004
 121300068.627 7  94519533.744 7  23082634.614    23082634.838    23082638.597
  23082639.118          44.250          47.000
 118410786.448 7  92267993.68545  22532783.346    22532784.223
  22532785.358          44.000          33.7504
 109121103.060 9  85029289.372 8  20765019.416    20765019.709    20765020.823
  20765020.547          54.250          52.000
 109512703.595 8  85334577.33747  20839572.808    20839572.444
  20839573.923          48.500          44.0004
 20  1  3  0 22  0.0000000  0  9G29G26G16G27G21G10G13G15G20
 118055292.434 8  91991005.584 7  22465140.261    22465139.719    22465142.073
  22465141.757          48.000          46.500
 130640946.706 6 101798137.818 6  24860144.533    24860144.948    24860149.836
  24860150.949          37.750          40.250
 127343054.206 6  99228352.76244  24232577.145    24232576.361
  24232578.980          37.750          24.0004
 125943245.549 6  98137597.913 7  23966203.975    23966203.067    23966206.243
  23966205.970          41.000          44.000
 110457740.747 8  86070968.17047  21019405.719    21019405.016
  21019406.083          49.250          45.7504
 121220429.097 7  94457476.977 7  23067480.037    23067480.114    23067483.784
  23067483.544          45.000          46.500
 118469270.978 7  92313566.04345  22543913.220    22543913.035
  22543914.630          45.000          34.5004
 109138709.445 8  85043008.635 8  20768369.715    20768370.045    20768371.200
  20768370.992          53.750          52.000
 109464063.766 8  85296676.18447  20830317.235    20830316.511
  20830318.196          48.750          43.7504
 20  1  3  0 22 30.0000000  0  9G29G26G16G27G21G10G13G15G20
 118157490.808 8  92070640.654 7  22484587.870    22484587.801    22484589.291
  22484589.250          48.250          46.500
 130710801.583 6 101852570.219 6  24873437.479    24873436.558    24873443.296
  24873443.387          37.000          40.000
 127387907.316 6  99263303.24143  24241111.575    24241111.785
  24241114.982          37.250          23.5004
 125852055.849 6  98066541.014 7  23948850.696    23948850.161    23948853.697
  23948854.174          41.000          43.250
 110435192.712 8  86053398.26847  21015114.841    21015114.297
  21015115.337          49.250          46.0004
 121140988.698 7  94395575.369 7  23052362.833    23052362.996    23052366.135
  23052366.773          45.000          46.250
 118528278.182 7  92359545.69845  22555142.204    22555141.991
  22555143.258          45.000          33.7504
 109156949.793 8  85057221.903 8  20771840.721    20771840.961    20771842.085
  20771842.065          53.750          52.000
 109415727.659 8  85259011.69647  20821119.298    20821118.455
  20821120.136          48.750          44.0004
 20  1  3  0 23  0.0000000  0  9G29G26G16G27G21G10G13G15G20
 118259971.863 8  92150496.018 7  22504089.863    22504089.499    22504091.305
  22504090.654          49.000          45.750
 130780857.273 6 101907159.078 6  24886769.191    24886768.557    24886774.342
  24886774.442          37.250          39.500
 127433214.112 6  99298607.20144  24249734.804    24249733.954
  24249736.143          39.250          24.2504
 125761180.610 6  97995729.123 7  23931557.925    23931557.523    23931560.157
  23931560.700          41.500          43.250
 110412887.685 8  86036017.72747  21010870.250    21010869.638
  21010870.753          49.500          45.5004
 121061748.389 7  94333829.680 7  23037283.436    23037284.100    23037287.499
  23037288.220          44.500          47.250
 118587806.282 7  92405931.23445  22566469.891    22566469.885
  22566470.997          44.250          33.7504
 109175823.241 8  85071928.494 8  20775432.272    20775432.449    20775433.933
  20775433.559          53.750          52.250
 109367696.421 8  85221584.77247  20811978.886    20811978.232
  20811980.028          48.750          44.0004
 20  1  3  0 23 30.0000000  0  9G29G05G16G27G21G10G13G15G20
 118362733.871 7  92230570.321 7  22523644.361    22523644.406    22523646.066
  22523646.038          47.750          46.000
 134086268.272 6 104482807.491 5  25515769.184    25515769.316    25515769.942
  25515769.757          38.750          35.500
 127478972.829 6  99334263.34244  24258442.450    24258440.643
  24258443.870          39.250          24.2504
 125670623.059 6  97925164.788 7  23914324.463    23914324.565    23914327.838
  23914327.746          40.750          43.500
 110390827.517 8  86018827.98947  21006672.541    21006671.857
  21006672.797          49.250          45.7504
 120982709.254 7  94272240.755 7  23022243.027    23022243.578    23022246.754
  23022246.934          44.750          46.750
 118647854.048 7  92452721.69045  22577896.613    22577896.216
  22577897.847          44.000          33.0004
 109195329.588 8  85087128.257 8  20779144.058    20779144.298    20779145.656
  20779145.423          53.750          52.250
 109319970.157 8  85184395.49047  20802897.196    20802896.543
  20802898.056          49.000          44.2504
 20  1  3  0 24  0.0000000  0  9G29G05G16G27G21G10G13G15G20
 118465774.940 7  92310862.038 7  22543252.151    22543252.100    22543253.731
  22543253.895          47.250          45.750
 134185891.957 6 104560436.318 6  25534727.103    25534727.494    25534728.321
  25534728.539          38.250          39.000
 127525182.731 6  99370271.03844  24267235.448    24267235.690
  24267236.917          40.000          24.7504
 125580387.074 6  97854851.030 7  23897152.980    23897153.158    23897156.272
  23897157.105          41.250          44.000
 110369013.990 8  86001830.43947  21002521.628    21002520.922
  21002521.893          49.500          45.7504
 120903873.013 7  94210809.921 7  23007240.984    23007241.255    23007244.951
  23007245.315          44.750          47.000
 118708420.198 7  92499916.09345  22589421.412    22589421.665
  22589422.729          44.000          32.5004
 109215469.000 8  85102821.311 8  20782976.637    20782976.776    20782978.298
  20782977.897          53.750          52.250
 109272550.427 8  85147445.06847  20793873.400    20793872.703
  20793874.351          48.750          44.0004
 20  1  3  0 24 30.0000000  0  9G29G05G16G27G21G10G13G15G20
 118569091.073 8  92391368.103 7  22562912.894    22562912.874    22562914.583
  22562914.649          48.250          46.250
 134285462.386 6 104638023.639 6  25553674.312    25553674.725    25553675.995
  25553674.331          38.500          38.250
 127571839.168 6  99406626.69543  24276112.817    24276112.670
  24276115.376          37.750          23.2504
 125490473.273 6  97784788.327 7  23880043.324    23880043.180    23880046.148
  23880046.408          41.250          44.000
 110347446.391 8  85985024.52147  20998417.315    20998416.625
  20998417.763          49.500          45.7504
 120825237.998 7  94149535.885 7  22992277.121    22992277.202    22992281.253
  22992281.877          44.500          47.250
 118769500.455 7  92547511.10245  22601045.430    22601045.080
  22601046.380          44.250          32.7504
 109236238.417 8  85119005.293 8  20786928.993    20786929.109    20786930.199
  20786930.152          53.750          52.000
 109225435.401 8  85110732.07147  20784907.601    20784906.956
  20784908.689          48.750          44.2504
 20  1  3  0 25  0.0000000  0  9G29G05G16G27G21G10G13G15G20
 118672681.038 8  92472087.546 7  22582625.415    22582625.607    22582626.928
  22582627.294          48.250          45.500
 134384979.951 6 104715569.765 6  25572612.194    25572611.885    25572613.535
  25572612.933          37.000          36.500
 127618941.387 6  99443329.68944  24285076.814    24285077.449
  24285078.961          39.750          25.2504
 125400886.026 6  97714980.102 7  23862995.320    23862995.004    23862999.262
  23862998.915          40.750          44.250
 110326127.491 8  85968412.39247  20994360.606    20994359.721
  20994360.801          49.250          45.7504
 120746806.427 7  94088420.380 7  22977352.370    22977352.800    22977355.696
  22977356.493          45.000          46.750
 118831094.626 7  92595506.55145  22612766.050    22612765.960
  22612766.761          44.250          32.5004
 109257638.508 8  85135680.691 8  20791001.200    20791001.447    20791002.633
  20791002.392          53.250          51.750
 109178627.074 8  85074258.06347  20776000.434    20775999.816
  20776001.282          48.500          44.2504
 20  1  3  0 25 30.0000000  0  8G29G16G27G21G10G13G15G20
 118776540.890 7  92553017.308 7  22602388.970    22602388.923    22602390.561
  22602390.377          47.500          45.250
 127666485.553 6  99480377.06443  24294123.847    24294123.684
  24294125.741          38.000          22.2504
 125311626.494 6  97645427.220 7  23846010.115    23846010.059    23846013.701
  23846013.608          41.250          44.750
 110305056.810 8  85951993.68647  20990351.023    20990350.392
  20990351.197          49.500          45.7504
 120668577.331 7  94027462.633 7  22962465.620    22962466.064    22962469.375
  22962469.787          45.000          47.000
 118893199.086 7  92643899.65645  22624583.895    22624584.415
  22624584.708          44.500          33.0004
 109279666.670 8  85152845.495 8  20795193.075    20795193.171    20795194.358
  20795194.202          53.500          51.750
 109132124.212 8  85038022.07747  20767151.135    20767150.470
  20767152.015          49.250          44.2504
 20  1  3  0 26  0.0000000  0  8G29G16G27G21G10G13G15G20
 118880668.895 8  92634155.990 7  22622204.355    22622204.685    22622205.267
  22622205.681          48.000          45.250
 127714470.144 6  99517767.64743  24303256.295    24303255.244
  24303256.954          39.250          23.7504
 125222698.419 6  97576132.614 7  23829087.111    23829087.621    23829090.777
  23829090.338          41.250          44.750
 110284236.588 8  85935770.13547  20986388.674    20986388.250
  20986389.304          49.250          45.5004
 120590552.166 7  93966663.801 7  22947618.145    22947617.797    22947622.006
  22947622.859          45.000          47.250
 118955812.326 7  92692689.18845  22636499.179    22636498.877
  22636499.968          44.500          32.5004
 109302322.950 8  85170499.742 8  20799504.418    20799504.488    20799505.708
  20799505.483          53.000          52.000
 109085927.803 8  85002024.87847  20758360.299    20758359.598
  20758361.182          49.000          44.2504
 20  1  3  0 26 30.0000000  0  8G29G16G27G21G10G13G15G20
 118985061.678 8  92715501.025 7  22642069.638    22642069.501    22642071.480
  22642071.176          48.000          46.000
 127762892.501 6  99555499.30443  24312470.409    24312470.040
  24312471.304          39.500          22.7504
 125134103.880 6  97507097.918 7  23812228.322    23812228.099    23812232.141
  23812232.600          41.500          45.000
 110263667.212 8  85919742.05047  20982474.688    20982474.055
  20982475.101          49.500          45.7504
 120512730.911 7  93906023.857 7  22932809.015    22932809.146    22932812.775
  22932813.493          44.750          47.250
 119018931.749 7  92741873.15845  22648510.092    22648509.925
  22648510.819          44.250          32.7504
 109325605.600 8  85188642.077 8  20803934.716    20803935.073    20803935.984
  20803936.028          53.250          51.500
 109040037.641 8  84966266.32547  20749627.731    20749626.920
  20749628.581          49.250          44.5004
 20  1  3  0 27  0.0000000  0  8G29G16G27G21G10G13G15G20
 119089716.326 7  92797050.098 7  22661984.056    22661984.424    22661985.740
  22661986.253          47.000          45.750
 127811749.080 6  99593569.35943  24321766.604    24321767.035
  24321768.735          38.500          22.2504
 125045844.862 6  97438324.658 7  23795433.366    23795433.469    23795437.200
  23795436.756          41.500          45.250
 110243348.955 8  85903909.64447  20978608.259    20978607.535
  20978608.726          49.000          45.7504
 120435113.265 7  93845542.560 7  22918039.139    22918039.144    22918042.951
  22918043.413          45.000          47.500
 119082554.266 7  92791449.15045  22660617.417    22660616.682
  22660618.232          44.000          32.7504
 109349512.582 8  85207270.893 8  20808484.120    20808484.459    20808485.731
  20808485.341          53.250          51.750
 108994453.266 8  84930746.03247  20740953.381    20740952.461
  20740954.171          49.500          44.5004
 20  1  3  0 27 30.0000000  0  9G29G26G16G27G21G10G13G15G20
 119194632.507 7  92878802.936 7  22681949.743    22681949.771    22681951.576
  22681951.439          47.500          46.000
 131419937.756 6 102405149.539 5  25008383.913    25008382.663    25008387.966
  25008387.689          37.000          34.250
 127861039.671 6  99631977.60943  24331146.892    24331146.023
  24331147.587          40.500          23.2504
 124957926.268 6  97369816.660 7  23778703.160    23778702.536    23778706.545
  23778706.608          41.500          45.750
 110223285.165 8  85888275.53447  20974790.131    20974789.496
  20974790.616          49.000          46.0004
 120357701.963 7  93785222.062 8  22903307.888    22903308.385    22903312.316
  22903312.563          45.250          48.000
 119146680.011 7  92841417.25245  22672819.878    22672819.359
  22672821.048          44.750          32.7504
 109374045.246 8  85226387.266 8  20813152.721    20813152.843    20813153.823
  20813153.856          53.000          51.750
 108949177.029 8  84895465.85947  20732337.581    20732336.813
  20732338.418          49.000          44.5004
 20  1  3  0 28  0.0000000  0  9G29G26G16G27G21G10G13G15G20
 119299805.870 7  92960756.200 7  22701963.496    22701963.599    22701965.535
  22701965.119          47.750          45.750
 131491847.099 6 102461182.814 6  25022067.134    25022067.998    25022072.205
  25022072.343          38.000          37.750
 127910760.317 6  99670720.95043  24340608.155    24340607.540
  24340610.233          39.250          23.0004
 124870349.258 6  97301574.846 7  23762037.360    23762037.871    23762041.436
  23762040.831          41.500          45.250
 110203475.375 8  85872839.33847  20971020.445    20971019.882
  20971020.917          49.000          45.5004
 120280495.999 7  93725061.561 7  22888616.128    22888616.460    22888620.238
  22888620.794          45.250          47.750
 119211305.130 7  92891774.49045  22685117.129    22685117.047
  22685118.617          44.250          32.7504
 109399200.948 8  85245989.119 8  20817939.625    20817939.757    20817941.058
  20817940.838          53.250          52.000
 108904207.616 8  84860424.76547  20723779.920    20723779.372
  20723780.946          49.250          44.5004
 20  1  3  0 28 30.0000000  0  9G29G26G16G27G21G10G13G15G20
 119405234.415 7  93042908.307 7  22722025.848    22722025.603    22722026.480
  22722027.322          47.000          45.000
 131563925.978 6 102517348.183 6  25035782.570    25035783.801    25035787.775
  25035789.012          36.000          38.250
 127960909.568 6  99709798.25743  24350150.347    24350151.178
  24350152.913          39.750          23.5004
 124783117.086 7  97233601.721 7  23745438.355    23745437.797    23745441.223
  23745440.725          42.250          45.250
 110183921.169 8  85857602.29647  20967299.550    20967298.852
  20967299.805          49.250          45.7504
 120203496.339 7  93665061.818 8  22873963.740    22873963.647    22873968.257
  22873968.436          45.250          48.000
 119276427.825 7  92942519.45845  22697510.122    22697510.369
  22697511.017          45.250          32.5004
 109424978.676 8  85266075.671 8  20822844.870    20822845.086    20822846.142
  20822846.064          53.000          51.750
 108859545.764 8  84825623.33347  20715281.380    20715280.566
  20715282.013          49.500          44.5004
 20  1  3  0 29  0.0000000  0  8G29G16G27G21G10G13G15G20
 119510915.008 7  93125256.815 7  22742136.254    22742135.718    22742137.281
  22742137.480          47.000          45.000
 128011484.142 6  99749206.99443  24359775.760    24359775.051
  24359777.021          39.250          22.2504
 124696231.799 7  97165898.899 7  23728904.038    23728904.085    23728907.544
  23728908.026          42.000          45.250
 110164623.400 8  85842565.07747  20963627.152    20963626.644
  20963627.652          49.250          45.5004
 120126702.941 7  93605222.803 8  22859350.481    22859350.820    22859354.396
  22859355.051          45.500          48.000
 119342045.410 7  92993650.04945  22709996.452    22709996.855
  22709997.516          44.750          32.7504
 109451376.800 8  85286645.649 8  20827868.603    20827868.577    20827869.513
  20827869.457          53.250          51.750
 108815191.183 8  84791061.32147  20706840.740    20706840.133
  20706841.663          49.250          44.7504
 20  1  3  0 29 30.0000000  0  8G29G16G27G21G10G13G15G20
 119616844.844 7  93207799.535 7  22762294.127    22762293.461    22762295.845
  22762295.454          47.250          46.000
 128062481.185 6  99788944.89843  24369480.068    24369478.705
  24369479.869          38.750          21.0004
 124609696.070 7  97098468.457 7  23712436.631    23712436.953    23712440.408
  23712440.319          42.000          45.250
 110145583.045 8  85827728.44147  20960004.033    20960003.334
  20960004.391          49.000          45.7504
 120050116.183 7  93545544.809 7  22844776.433    22844776.573    22844779.924
  22844780.615          45.500          47.750
 119408155.477 7  93045164.37545  22722577.703    22722576.818
  22722578.073          45.250          32.2504
 109478394.355 8  85307698.293 8  20833009.757    20833009.681    20833011.000
  20833010.867          53.250          52.000
 108771143.985 8  84756738.83347  20698458.727    20698458.227
  20698459.780          49.250          44.7504
 20  1  3  0 30  0.0000000  0  8G29G16G27G21G10G13G15G20
 119723021.079 7  93290534.249 7  22782498.977    22782498.266    22782500.287
  22782500.718          47.250          45.750
 128113898.207 6  99829010.11543  24379264.709    24379263.530
  24379266.335          39.500          22.2504
 124523512.222 7  97031312.215 7  23696036.791    23696036.943    23696040.368
  23696040.618          42.750          45.250
 110126800.840 8  85813092.94947  20956429.779    20956429.168
  20956430.270          49.000          45.7504
 119973736.226 7  93486027.966 8  22830241.701    22830241.782    22830245.933
  22830246.494          45.750          48.000
 119474755.544 7  93097060.54645  22735250.872    22735250.642
  22735251.838          45.500          32.5004
 109506029.501 8  85329232.186 8  20838268.237    20838268.723    20838270.022
  20838269.411          52.500          51.750
 108727404.218 8  84722655.90247  20690135.668    20690134.790
  20690136.370          49.500          44.5004
 20  1  3  0 30 30.0000000  0  8G29G16G27G21G10G13G15G20
 119829442.444 7  93373459.982 7  22802749.649    22802750.043    22802751.292
  22802751.558          47.000          45.000
 128165734.073 6  99869401.66743  24389127.314    24389127.702
  24389130.105          39.250          22.5004
 124437684.412 7  96964433.397 7  23679704.116    23679704.335    23679707.495
  23679707.756          42.000          45.500
 110108279.324 8  85798660.61047  20952905.475    20952904.638
  20952905.672          49.500          45.5004
 119897564.993 7  93426673.760 8  22815747.083    22815747.170    22815751.213
  22815751.481          45.750          48.000
 119541844.668 7  93149337.78545  22748017.184    22748017.196
  22748018.144          44.500          32.0004
 109534282.491 8  85351247.502 8  20843644.677    20843644.921    20843646.261
  20843646.019          52.500          51.750
 108683973.289 8  84688813.62347  20681870.610    20681870.126
  20681871.807          49.250          44.5004
 20  1  3  0 31  0.0000000  0  8G29G16G27G21G10G13G15G20
 119936104.672 7  93456573.407 7  22823046.715    22823046.880    22823048.312
  22823048.357          46.750          44.750
 128217984.343 6  99910116.16443  24399071.340    24399071.024
  24399071.959          39.250          22.2504
 124352213.282 7  96897832.527 7  23663439.559    23663439.381    23663443.110
  23663443.675          42.250          45.750
 110090017.419 8  85784430.56047  20949430.083    20949429.652
  20949430.564          49.250          46.0004
 119821600.969 7  93367480.998 7  22801291.448    22801291.860    22801295.220
  22801295.924          46.250          47.500
 119609418.562 7  93201992.77545  22760876.169    22760875.816
  22760877.083          44.750          32.0004
 109563149.961 8  85373741.643 8  20849138.078    20849138.283    20849139.099
  20849139.108          52.250          51.750
 108640849.412 8  84655210.60447  20673664.751    20673664.018
  20673665.512          49.750          44.7504
 20  1  3  0 31 30.0000000  0  8G29G16G27G21G10G13G15G20
 120043005.951 7  93539873.104 7  22843389.156    22843389.218    22843391.669
  22843391.445          46.500          45.250
 128270647.258 6  99951152.19943  24409092.595    24409092.714
  24409093.320          38.750          21.5004
 124267102.525 7  96831512.467 7  23647243.306    23647244.010    23647247.419
  23647247.088          42.500          46.000
 110072017.333 8  85770404.52447  20946005.018    20946004.332
  20946005.382          49.250          45.7504
 119745845.647 7  93308450.884 8  22786875.606    22786875.510    22786879.694
  22786880.142          45.750          48.000
 119677475.962 7  93255024.51345  22773826.732    22773826.503
  22773828.008          44.500          31.7504
 109592631.774 8  85396714.497 8  20854748.097    20854748.469    20854749.590
  20854749.398          52.250          51.250
 108598033.872 8  84621847.85847  20665517.132    20665516.639
  20665517.923          50.000          44.7504
 20  1  3  0 32  0.0000000  0  9G26G29G16G27G21G10G13G15G20
 132072965.542 6 102913999.878 5  25132649.795    25132650.220    25132654.402
  25132654.919          37.250          35.000
 120150143.766 7  93623357.104 7  22863777.350    22863777.457    22863779.042
  22863778.935          46.750          45.250
 128323720.726 6  99992508.11843  24419192.501    24419191.392
  24419193.435          38.750          20.5004
 124182354.909 7  96765475.362 7  23631116.968    23631116.485    23631120.409
  23631120.797          43.000          46.000
 110054280.271 8  85756583.44447  20942629.476    20942628.851
  20942630.095          49.000          45.7504
 119670299.572 7  93249583.820 8  22772500.110    22772499.958    22772503.821
  22772504.387          46.000          48.000
 119746014.502 7  93308431.17045  22786869.853    22786869.554
  22786870.467          44.750          32.2504
 109622726.360 8  85420164.820 8  20860475.173    20860475.320    20860476.029
  20860476.235          52.250          51.500
 108555526.810 8  84588725.48547  20657428.382    20657427.570
  20657429.147          49.500          44.7504
 20  1  3  0 32 30.0000000  0  8G29G16G27G21G10G13G15G20
 120257515.594 7  93707023.453 7  22884208.837    22884208.841    22884210.876
  22884211.418          46.250          44.750
 128377202.181 6 100034181.95543  24429369.826    24429369.531
  24429371.200          38.750          22.5004
 124097973.314 7  96699723.482 7  23615059.199    23615059.190    23615062.741
  23615062.776          43.000          45.750
 110036807.913 8  85742968.61947  20939304.492    20939304.053
  20939305.196          49.000          45.5004
 119594963.457 7  93190880.367 8  22758163.817    22758164.238    22758167.940
  22758168.390          46.000          48.500
 119815032.189 7  93362211.16945  22800003.062    22800003.468
  22800004.240          44.500          31.7504
 109653432.758 8  85444091.892 8  20866318.171    20866318.612    20866319.526
  20866319.422          52.500          51.250
 108513329.043 8  84555844.12047  20649398.567    20649397.684
  20649399.136          49.750          44.7504
 20  1  3  0 33  0.0000000  0  8G29G16G27G21G10G13G15G20
 120365118.797 7  93790870.087 7  22904685.310    22904685.360    22904687.326
  22904687.061          46.500          44.500
 128431088.578 6 100076171.36543  24439624.020    24439623.015
  24439625.611          39.250          21.5004
 124013960.113 7  96634258.655 7  23599072.632    23599072.143    23599075.765
  23599075.505          43.250          46.000
 110019600.631 8  85729560.34847  20936030.328    20936029.651
  20936030.736          49.000          45.7504
 119519837.382 7  93132340.583 8  22743868.148    22743868.035    22743871.703
  22743872.334          46.500          48.000
 119884526.460 7  93416362.55345  22813227.602    22813227.586
  22813228.361          44.000          32.0004
 109684749.745 8  85468494.743 8  20872277.784    20872277.807    20872278.954
  20872278.836          52.250          51.500
 108471440.224 8  84523203.48947  20641427.154    20641426.548
  20641428.008          50.000          44.7504
 20  1  3  0 33 30.0000000  0  8G29G16G27G21G10G13G15G20
 120472949.314 7  93874893.888 7  22925205.770    22925205.450    22925206.588
  22925206.285          47.500          44.000
 128485376.578 6 100118473.71543  24449954.606    24449954.827
  24449956.045          38.500          20.5004
 123930316.788 7  96569082.042 7  23583155.619    23583155.299    23583158.895
  23583158.803          43.000          45.750
 110002658.735 8  85716358.87047  20932806.192    20932805.683
  20932806.844          49.000          45.7504
 119444920.677 7  93073963.938 8  22729611.686    22729611.785    22729616.081
  22729615.899          46.250          48.500
 119954493.386 7  93470882.25145  22826541.688    22826542.093
  22826542.933          44.750          32.0004
 109716673.835 8  85493370.663 8  20878352.718    20878352.684    20878353.792
  20878353.836          51.750          51.500
 108429859.260 8  84490802.74747  20633514.513    20633513.755
  20633515.499          49.750          45.0004
 20  1  3  0 34  0.0000000  0  8G29G16G27G21G10G13G15G20
 120581006.259 7  93959094.103 7  22945767.895    22945767.671    22945769.500
  22945769.199          46.500          44.500
 128540064.927 6 100161087.96843  24460360.352    24460359.892
  24460362.767          37.000          19.0004
 123847047.730 7  96504197.057 7  23567310.220    23567309.794    23567313.385
  23567313.278          43.250          45.500
 109985984.960 8  85703366.31547  20929633.798    20929632.750
  20929633.867          49.000          45.7504
 119370215.526 7  93015752.147 8  22715395.689    22715395.673    22715399.799
  22715400.513          46.500          48.750
 120024932.644 7  93525769.97545  22839946.039    22839946.131
  22839947.334          44.500          32.2504
 109749205.728 8  85518720.191 8  20884543.180    20884543.415    20884544.580
  20884544.495          52.250          51.500
 108388588.143 8  84458643.44547  20625660.822    20625660.337
  20625661.819          50.000          44.5004
 20  1  3  0 34 30.0000000  0  8G29G16G27G21G10G13G15G20
 120689286.194 7  94043468.073 7  22966372.624    22966372.164    22966375.059
  22966374.729          45.750          45.250
 128595150.580 6 100204011.83643  24470843.572    24470844.557
  24470845.491          38.250          21.5004
 123764154.744 7  96439605.116 7  23551535.678    23551535.990    23551539.543
  23551539.162          43.000          45.750
 109969579.347 8  85690582.72447  20926511.425    20926510.954
  20926512.030          49.000          46.0004
 119295721.534 7  92957704.888 8  22701219.921    22701220.343    22701224.058
  22701224.344          46.250          48.500
 120095840.862 7  93581023.12145  22853439.001    22853439.494
  22853440.179          44.000          31.7504
 109782343.205 8  85544541.611 8  20890849.216    20890849.369    20890850.330
  20890850.169          52.500          51.250
 108347626.056 8  84426724.94947  20617866.138    20617865.408
  20617867.061          49.750          44.7504
 20  1  3  0 35  0.0000000  0  8G29G16G27G21G10G13G15G20
 120797786.710 7  94128013.888 7  22987019.413    22987019.179    22987021.307
  22987021.437          45.750          44.500
 128650630.576 6 100247242.95443  24481401.410    24481400.634
  24481402.373          37.500          21.5004
 123681640.229 7  96375308.090 7  23535834.066    23535833.565    23535836.934
  23535837.518          42.750          46.000
 109953442.801 8  85678008.78847  20923440.888    20923440.336
  20923441.265          48.750          45.7504
 119221438.917 7  92899822.353 8  22687084.476    22687084.652    22687088.548
  22687089.114          46.750          48.750
 120167215.455 7  93636639.69445  22867021.605    22867021.277
  22867022.164          43.750          32.0004
 109816084.571 8  85570833.582 8  20897269.907    20897269.969    20897270.980
  20897270.962          52.250          51.500
 108306973.161 8  84395047.38147  20610130.191    20610129.412
  20610130.898          49.750          45.0004
 20  1  3  0 35 30.0000000  0  8G29G16G27G21G10G13G15G20
 120906505.494 7  94212729.830 7  23007707.734    23007708.132    23007709.734
  23007710.156          45.750          43.750
 128706502.830 6 100290779.77443  24492034.238    24492032.195
  24492034.287          38.500          21.7504
 123599507.340 7  96311308.441 7  23520204.715    23520204.709    23520208.257
  23520208.262          43.000          46.250
 109937577.249 8  85665646.01547  20920421.947    20920421.258
  20920422.239          49.250          46.0004
 119147368.646 7  92842105.274 8  22672989.363    22672989.468    22672993.433
  22672993.722          46.500          48.500
 120239054.440 7  93692618.13645  22880691.892    22880691.747
  22880692.901          44.250          31.5004
 109850428.744 8  85597595.284 8  20903805.353    20903805.414    20903806.696
  20903806.488          52.750          51.500
 108266630.116 8  84363611.25247  20602453.051    20602452.208
  20602453.922          49.500          45.0004
 20  1  3  0 36  0.0000000  0  8G29G16G27G21G10G13G15G20
 121015439.565 7  94297613.535 7  23028437.296    23028437.404    23028439.111
  23028439.413          46.000          43.750
 128762764.239 6 100334619.80143  24502739.925    24502739.483
  24502739.884          36.500          20.7504
 123517758.659 7  96247608.175 7  23504648.164    23504647.878    23504651.630
  23504651.392          43.000          46.000
 109921983.595 8  85653495.11147  20917454.509    20917453.891
  20917454.843          49.000          46.0004
 119073511.083 7  92784553.936 8  22658934.632    22658934.880    22658938.889
  22658939.145          46.750          48.750
 120311355.436 7  93748956.56345  22894450.295    22894450.210
  22894451.246          44.000          31.0004
 109885374.261 8  85624825.565 8  20910455.171    20910455.295    20910456.632
  20910456.396          52.500          51.750
 108226596.876 8  84332416.52847  20594834.972    20594834.402
  20594835.816          50.250          45.0004
 20  1  3  0 36 30.0000000  0  8G29G16G27G21G10G13G15G20
 121124585.765 7  94382662.500 7  23049206.881    23049206.613    23049208.996
  23049209.459          45.250          44.500
 128819411.754 6 100378760.72543  24513519.477    24513519.070
  24513520.875          38.250          20.7504
 123436396.123 7  96184208.800 7  23489165.697    23489165.940    23489169.068
  23489169.194          43.000          45.750
 109906662.335 8  85641556.46447  20914538.986    20914538.333
  20914539.344          49.000          46.0004
 118999865.924 7  92727168.121 8  22644920.004    22644920.800    22644924.586
  22644924.849          46.500          49.000
 120384115.286 7  93805652.55845  22908296.586    22908295.509
  22908296.647          44.750          31.2504
 109920918.966 8  85652522.744 8  20917219.185    20917219.417    20917220.439
  20917220.214          53.000          51.500
 108186873.275 8  84301463.09347  20587275.693    20587275.152
  20587276.706          50.000          45.0004
 20  1  3  0 37  0.0000000  0  8G29G16G27G21G10G13G15G20
 121233942.444 7  94467875.478 7  23070017.171    23070017.162    23070019.250
  23070018.901          45.750          43.750
 128876444.138 6 100423201.49843  24524372.520    24524371.841
  24524373.571          37.500          21.2504
 123355423.484 7  96121113.238 7  23473757.115    23473757.271    23473760.671
  23473760.674          43.000          46.000
 109891615.810 8  85629831.89347  20911675.769    20911674.978
  20911676.083          49.000          46.0004
 118926434.853 7  92669949.096 8  22630946.986    22630946.957    22630950.616
  22630951.031          46.750          48.500
 120457332.683 7  93862705.07245  22922228.759    22922228.860
  22922229.692          44.000          30.7504
 109957062.341 8  85680686.414 8  20924096.978    20924097.286    20924098.392
  20924098.153          52.750          51.500
 108147460.284 8  84270751.67247  20579775.757    20579775.027
  20579776.661          50.000          45.0004
 20  1  3  0 37 30.0000000  0  8G29G16G27G21G10G13G15G20
 121343504.642 7  94553248.627 7  23090866.374    23090866.582    23090868.486
  23090868.273          46.500          43.750
 128933855.887 6 100467937.93443  24535298.264    24535296.514
  24535298.108          37.000          20.0004
 123274841.147 7  96058321.804 7  23458422.434    23458422.460    23458425.588
  23458426.064          42.500          46.250
 109876842.527 8  85618320.23947  20908864.407    20908863.805
  20908864.685          48.750          45.7504
 118853215.979 7  92612895.446 8  22617013.769    22617013.932    22617017.979
  22617018.524          46.250          49.250
 120531002.893 7  93920110.44745  22936247.946    22936247.319
  22936249.021          44.250          31.2504
 109993800.235 8  85709313.348 8  20931087.827    20931088.000    20931089.305
  20931089.171          52.500          51.000
 108108356.089 8  84240280.88647  20572334.478    20572333.740
  20572335.277          49.750          45.0004
 20  1  3  0 38  0.0000000  0  8G29G16G27G21G10G13G15G20
 121453271.645 7  94638781.346 7  23111754.932    23111754.563    23111755.869
  23111755.698          46.500          43.500
 128991646.829 6 100512969.78043  24546294.876    24546294.518
  24546295.631          38.000          22.7504
 123194653.510 7  95995837.927 7  23443162.913    23443163.657    23443166.681
  23443166.461          42.250          45.750
 109862345.479 8  85607023.84147  20906105.919    20906105.096
  20906106.100          48.750          45.7504
 118780211.538 7  92556008.881 8  22603121.787    22603121.827    22603125.795
  22603125.981          46.750          49.000
 120605125.533 7  93977868.35445  22950352.725    22950352.395
  22950353.813          43.500          30.7504
 110031133.330 8  85738404.076 8  20938192.269    20938192.341    20938193.370
  20938193.416          53.000          51.250
 108069562.599 8  84210052.20247  20564952.376    20564951.658
  20564953.070          50.000          45.2504
 20  1  3  0 38 30.0000000  0  8G29G16G27G21G10G13G15G20
 121563241.477 7  94724472.121 7  23132680.539    23132680.844    23132682.073
  23132682.351          45.500          42.500
 129049813.734 6 100558294.66843  24557362.509    24557362.715
  24557365.850          37.250          22.2504
 123114863.467 7  95933663.872 7  23427979.977    23427979.186    23427983.135
  23427983.350          42.250          46.000
 109848126.495 8  85595944.11047  20903399.963    20903399.275
  20903400.393          49.000          45.7504
 118707422.320 7  92499290.018 8  22589270.266    22589270.074    22589273.901
  22589274.458          46.750          48.500
 120679697.989 7  94035976.75245  22964543.779    22964543.361
  22964545.037          43.750          31.2504
 110069060.179 8  85767957.460 8  20945409.497    20945409.610    20945410.388
  20945410.678          53.000          51.250
 108031080.102 8  84180065.84847  20557629.389    20557628.647
  20557630.163          50.000          45.2504
 20  1  3  0 39  0.0000000  0  8G29G16G27G21G10G13G15G20
 121673409.916 7  94810317.662 7  23153644.876    23153645.275    23153646.402
  23153646.199          45.250          42.750
 129108353.484 6 100603909.99443  24568503.239    24568502.157
  24568505.357          38.000          21.7504
 123035472.235 7  95871800.583 7  23412871.915    23412871.788    23412875.601
  23412875.941          42.000          46.250
 109834184.997 8  85585080.60847  20900747.060    20900746.260
  20900747.226          48.750          45.7504
 118634847.261 7  92442738.027 8  22575459.314    22575459.506    22575463.625
  22575463.922          46.750          48.750
 120754716.702 7  94094432.88945  22978819.267    22978819.335
  22978820.346          43.500          31.0004
 110107577.641 8  85797971.080 8  20952739.252    20952739.285    20952740.303
  20952740.316          53.000          51.250
 107992907.679 8  84150321.10647  20550365.245    20550364.644
  20550366.143          50.000          45.2504
 20  1  3  0 39 30.0000000  0  8G29G16G27G21G10G13G15G20
 121783774.188 7  94896315.786 7  23174646.551    23174646.857    23174648.909
  23174648.632          45.000          43.500
 129167263.255 6 100649813.70543  24579713.038    24579712.869
  24579714.721          37.500          20.7504
 122956482.712 7  95810250.301 7  23397840.837    23397841.573    23397844.742
  23397844.760          42.750          46.750
 109820522.527 8  85574434.51647  20898147.021    20898146.246
  20898147.492          48.500          45.7504
 118562487.111 7  92386353.485 8  22561689.729    22561690.284    22561693.931
  22561694.256          46.500          48.500
 120830179.345 7  94153234.95445  22993179.014    22993179.280
  22993180.482          43.000          31.2504
 110146684.462 8  85828443.930 8  20960180.866    20960181.098    20960182.038
  20960182.108          53.250          51.250
 107955045.450 8  84120818.07847  20543160.676    20543159.895
  20543161.401          50.250          45.2504
 20  1  3  0 40  0.0000000  0  8G29G16G27G21G10G13G15G20
 121894332.496 7  94982465.114 7  23195685.212    23195685.042    23195687.016
  23195687.049          44.750          43.250
 129226540.348 6 100696003.64743  24590993.555    24590992.872
  24590994.616          36.750          21.0004
 122877897.719 7  95749015.245 7  23382887.028    23382886.421    23382890.120
  23382889.747          43.250          46.000
 109807140.276 8  85564006.78547  20895600.460    20895599.779
  20895600.973          49.000          45.7504
 118490342.518 7  92330136.913 8  22547961.393    22547961.334    22547965.221
  22547965.771          47.000          49.250
 120906083.673 7  94212381.18845  23007623.618    23007622.822
  23007624.525          43.250          31.0004
 110186379.180 8  85859374.883 8  20967734.407    20967734.808    20967735.892
  20967735.802          53.000          51.250
 107917493.483 8  84091556.81347  20536014.441    20536013.844
  20536015.349          49.750          45.2504
 20  1  3  0 40 30.0000000  0  8G29G16G27G21G10G13G15G20
 122005082.323 7  95068763.669 7  23216760.518    23216760.503    23216762.656
  23216762.515          45.000          43.750
 129286182.701 6 100742478.21143  24602343.530    24602341.904
  24602344.726          37.250          20.5004
 122799720.188 7  95688097.691 7  23368010.127    23368010.009    23368013.645
  23368013.308          43.000          46.000
 109794040.047 8  85553798.80547  20893107.682    20893107.125
  20893107.908          48.500          45.7504
 118418414.270 7  92274088.935 8  22534273.819    22534273.815    22534277.398
  22534278.230          46.750          49.000
 120982427.595 7  94271869.95045  23022150.629    23022150.777
  23022152.109          43.000          30.2504
 110226660.381 8  85890762.836 8  20975400.083    20975400.010    20975401.208
  20975400.979          53.000          51.000
 107880253.236 8  84062538.44847  20528927.928    20528927.175
  20528928.775          50.000          45.2504
 20  1  3  0 41  0.0000000  0  8G29G16G27G21G10G13G15G20
 122116020.056 7  95155208.658 7  23237871.393    23237871.693    23237873.303
  23237872.871          45.250          43.750
 129346186.650 6 100789234.49743  24613761.452    24613761.238
  24613763.024          36.500          20.0004
 122721951.908 7  95627499.034 7  23353211.389    23353211.192    23353215.232
  23353214.706          42.500          46.250
 109781221.879 8  85543810.62247  20890668.322    20890667.685
  20890668.766          48.750          45.7504
 118346701.992 7  92218209.229 8  22520627.367    22520627.767    22520631.315
  22520631.697          46.750          49.000
 121059207.710 7  94331698.61745  23036762.062    23036761.326
  23036762.189          43.250          30.2504
 110267525.543 8  85922605.821 8  20983176.328    20983176.500    20983177.482
  20983177.358          53.250          51.250
 107843323.334 8  84033761.91447  20521900.352    20521899.721
  20521901.197          50.250          45.2504
 20  1  3  0 41 30.0000000  0  8G29G16G27G21G10G13G15G20
 122227142.963 7  95241797.916 7  23259017.235    23259017.090    23259019.545
  23259019.018          45.250          43.500
 129406549.114 6 100836270.16443  24625248.348    24625247.824
  24625248.670          36.500          21.0004
 122644595.116 7  95567221.004 7  23338490.550    23338490.768    23338493.983
  23338494.744          42.500          46.000
 109768686.463 8  85534042.76147  20888283.137    20888282.402
  20888283.392          48.750          45.5004
 118275205.779 7  92162497.905 8  22507022.554    22507022.390    22507026.340
  22507026.790          47.750          49.500
 121136421.238 7  94391865.01245  23051454.996    23051454.789
  23051455.821          43.000          31.0004
 110308972.517 8  85954902.166 8  20991063.205    20991063.572    20991064.635
  20991064.422          53.000          51.000
 107806703.865 8  84005227.26847  20514931.787    20514931.245
  20514932.579          49.750          45.2504
 20  1  3  0 42  0.0000000  0  8G29G16G27G21G10G13G15G20
 122338449.932 7  95328530.627 7  23280197.868    23280198.043    23280200.290
  23280200.261          44.250          43.500
 129467268.987 6 100883584.28343  24636802.377    24636802.671
  24636804.615          36.000          21.7504
 122567653.916 7  95507266.834 7  23323849.525    23323849.279    23323852.536
  23323852.767          42.000          46.000
 109756436.647 8  85524497.44647  20885951.787    20885951.254
  20885952.304          48.500          45.7504
 118203927.675 7  92106956.545 8  22493458.225    22493458.501    22493462.919
  22493463.438          47.000          49.750
 121214067.196 7  94452368.33145  23066230.268    23066230.598
  23066231.293          42.750          30.5004
 110351001.291 8  85987651.857 8  20999060.938    20999061.181    20999062.577
  20999062.218          53.250          51.000
 107770396.611 8  83976935.91547  20508023.017    20508022.287
  20508023.610          50.250          45.2504
 20  1  3  0 42 30.0000000  0  7G29G27G21G10G13G15G20
 122449936.705 7  95415403.405 7  23301413.284    23301413.516    23301415.286
  23301415.645          44.250          44.000
 122491129.310 6  95447637.266 7  23309287.190    23309287.185    23309290.439
  23309290.758          41.750          46.000
 109744471.582 8  85515174.00547  20883675.023    20883674.469
  20883675.425          48.750          45.7504
 118132866.278 7  92051584.052 8  22479935.778    22479935.927    22479939.898
  22479940.020          47.000          49.250
 121292141.571 7  94513205.51445  23081087.875    23081087.423
  23081089.021          43.000          30.7504
 110393608.438 8  86020852.230 8  21007169.119    21007169.064    21007170.349
  21007170.056          53.000          51.250
 107734400.032 8  83948886.64547  20501172.873    20501172.279
  20501173.741          50.000          45.2504
 20  1  3  0 43  0.0000000  0  8G16G29G27G21G10G13G15G20
 129589766.177 6 100979040.60643  24660113.673    24660113.344
  24660113.562          37.500          20.7504
 122561601.794 7  95502415.164 7  23322662.338    23322662.432    23322663.843
  23322664.126          44.750          43.250
 122415025.034 6  95388335.229 7  23294804.564    23294804.729    23294808.118
  23294808.591          41.750          45.750
 109732794.361 8  85506074.86947  20881453.021    20881452.359
  20881453.337          48.250          45.7504
 118062023.324 7  91996381.761 8  22466455.115    22466455.064    22466458.751
  22466459.267          47.000          49.250
 121370643.023 7  94574375.46944  23096026.015    23096026.009
  23096027.510          42.250          29.7504
 110436793.420 8  86054502.863 8  21015386.631    21015387.001    21015387.773
  21015388.035          53.250          50.750
 107698715.550 8  83921080.56947  20494382.380    20494381.666
  20494383.123          49.750          45.2504
 20  1  3  0 43 30.0000000  0  9G16G29G24G27G21G10G13G15G20
 129651537.521 6 101027174.12943  24671867.366    24671867.397
  24671868.477          37.750          22.0004
 122673441.521 7  95589562.999 7  23343944.512    23343945.044    23343946.326
  23343947.101          44.750          43.500
 128709583.204 6                  24492620.220
                        37.000
 122339342.726 7  95329362.006 7  23280402.618    23280402.699    23280406.238
  23280406.865          42.250          45.750
 109721405.075 8  85497200.09647  20879285.696    20879285.096
  20879286.051          48.500          45.5004
 117991398.281 7  91941349.291 8  22453015.391    22453015.663    22453019.588
  22453020.076          47.250          49.750
 121449567.820 7  94635875.32345  23111045.258    23111044.625
  23111045.650          42.500          30.0004
 110480553.592 8  86088601.702 8  21023714.027    21023714.089    21023715.453
  21023715.283          52.750          51.000
 107663342.345 8  83893517.03947  20487651.166    20487650.542
  20487651.840          50.000          45.5004
 20  1  3  0 44  0.0000000  0  9G16G29G24G27G21G10G13G15G20
 129713653.061 6 101075575.80243  24683687.883    24683686.973
  24683689.138          38.000          21.5004
 122785452.193 7  95676844.023 7  23365259.176    23365259.640    23365261.438
  23365262.074          44.000          42.750
 128620285.691 6 100223605.461 7  24475627.673    24475627.630    24475631.571
  24475631.185          37.500          43.500
 122264083.558 7  95270718.501 7  23266081.790    23266080.980    23266085.425
  23266085.443          42.250          46.000
 109710303.197 8  85488549.27447  20877173.125    20877172.496
  20877173.328          48.250          45.7504
 117920990.226 7  91886485.924 8  22439616.811    22439617.266    22439621.309
  22439621.606          47.250          49.750
 121528912.132 7  94697702.06044  23126143.630    23126143.232
  23126144.652          42.250          29.7504
 110524885.647 8  86123146.166 8  21032150.179    21032150.323    21032151.411
  21032151.271          52.750          50.750
 107628279.042 8  83866194.99247  20480978.844    20480977.993
  20480979.438          50.000          45.5004
 20  1  3  0 44 30.0000000  0  9G16G29G24G27G21G10G13G15G20
 129776110.505 6 101124243.94643  24695574.064    24695572.622
  24695574.948          38.750          22.2504
 122897632.217 7  95764257.026 7  23386606.996    23386607.151    23386608.510
  23386608.599          44.750          42.500
 128531071.583 6 100154087.976 6  24458650.786    24458650.131    24458653.469
  24458653.825          36.750          38.250
 122189251.290 7  95212407.643 7  23251841.836    23251841.844    23251845.095
  23251845.294          43.000          46.000
 109699490.869 8  85480124.08247  20875115.484    20875114.901
  20875115.971          48.500          46.0004
 117850800.733 7  91831792.854 8  22426260.346    22426260.025    22426264.487
  22426264.902          47.000          49.750
 121608674.837 6  94759854.80844  23141321.228    23141322.151
  23141322.356          41.500          29.7504
 110569788.956 8  86158135.760 8  21040694.852    21040695.115    21040696.170
  21040695.986          52.750          50.750
 107593527.080 8  83839115.54247  20474365.886    20474365.129
  20474366.438          50.250          45.2504
 20  1  3  0 45  0.0000000  0  9G16G29G24G27G21G10G13G15G20
 129838908.416 6 101173177.37143  24707522.252    24707523.524
  24707525.541          36.750          22.0004
 123009979.801 7  95851800.618 6  23407986.065    23407986.094    23407987.082
  23407987.092          44.750          41.750
 128441945.162 6 100084638.786 6  24441689.294    24441690.385    24441693.824
  24441694.461          36.750          40.750
 122114849.274 7  95154432.049 7  23237683.410    23237683.101    23237686.412
  23237686.772          43.500          46.250
 109688970.378 8  85471926.28447  20873113.556    20873113.012
  20873113.992          48.000          45.7504
 117780831.029 7  91777271.029 8  22412945.537    22412945.785    22412949.272
  22412950.004          47.500          49.750
 121688854.172 6  94822332.21544  23156579.119    23156579.621
  23156580.791          41.750          29.0004
 110615262.604 8  86193569.778 8  21049348.114    21049348.482    21049349.948
  21049349.641          52.250          51.000
 107559087.934 8  83812279.84947  20467812.368    20467811.400
  20467812.820          50.250          45.5004
 20  1  3  0 45 30.0000000  0  9G16G29G24G27G21G10G13G15G20
 129902042.415 6 101222372.67443  24719537.413    24719536.298
  24719539.329          38.500          22.2504
 123122491.153 7  95939471.805 7  23429396.184    23429395.459    23429397.668
  23429397.666          44.250          42.000
 128352908.346 6 100015259.432 6  24424747.523    24424746.996    24424749.940
  24424750.365          38.500          37.000
 122040878.937 7  95096792.823 7  23223607.415    23223606.897    23223611.051
  23223610.917          42.750          46.000
 109678741.644 7  85463955.83947  20871167.227    20871166.496
  20871167.376          47.500          45.7504
 117711080.433 7  91722919.959 8  22399672.412    22399672.732    22399676.406
  22399676.817          47.000          49.750
 121769446.371 6  94885131.35444  23171915.739    23171915.161
  23171916.491          41.750          28.7504
 110661303.339 8  86229445.678 8  21058109.616    21058109.804    21058110.916
  21058110.755          52.000          51.000
 107524960.271 8  83785686.86047  20461317.954    20461317.187
  20461318.563          50.000          45.2504
 20  1  3  0 46  0.0000000  0  8G16G29G27G21G10G13G15G20
 129965510.768 6 101271828.46443  24731614.809    24731613.832
  24731617.300          38.750          22.0004
 123235164.718 7  96027269.400 7  23450836.965    23450836.769    23450839.392
  23450839.045          44.250          42.250
 121967343.772 7  95039492.699 7  23209614.009    23209614.111    23209617.339
  23209617.073          42.750          46.250
 109668806.765 7  85456214.36947  20869276.755    20869275.794
  20869277.000          47.750          45.7504
 117641550.408 7  91668740.737 8  22386441.445    22386441.810    22386445.013
  22386445.589          47.250          49.250
 121850449.558 6  94948250.71844  23187330.163    23187330.099
  23187331.213          41.750          28.7504
 110707910.706 8  86265763.116 8  21066978.731    21066978.894    21066979.940
  21066980.036          52.250          51.000
 107491145.139 8  83759337.40847  20454882.997    20454882.613
  20454883.720          50.000          45.5004
 20  1  3  0 46 30.0000000  0  9G16G29G24G27G21G10G13G15G20
 130029309.100 6 101321541.49043  24743755.199    24743754.469
  24743757.185          39.000          22.0004
 123347996.304 7  96115190.094 7  23472308.313    23472308.067    23472310.099
  23472310.426          43.500          42.500
 128175125.350 6  99876717.733 5  24390915.071    24390915.033    24390918.205
  24390916.335          37.000          32.500
 121894244.657 7  94982532.340 7  23195703.474    23195703.674    23195707.634
  23195707.418          42.750          46.250
 109659165.323 7  85448701.55147  20867441.804    20867441.327
  20867442.408          47.750          46.0004
 117572239.583 7  91614732.342 8  22373251.611    22373251.819    22373255.925
  22373256.262          46.750          49.750
 121931859.782 6  95011687.24644  23202821.656    23202822.173
  23202822.668          41.000          29.0004
 110755080.954 8  86302519.153 8  21075954.974    21075955.043    21075956.313
  21075956.274          52.250          51.000
 107457641.284 8  83733230.51047  20448507.472    20448506.850
  20448508.142          49.750          45.5004
 20  1  3  0 47  0.0000000  0  8G16G29G27G21G10G13G15G20
 130093435.352 6 101371509.94643  24755957.875    24755957.511
  24755959.745          39.750          22.0004
 123460983.817 7  96203232.321 7  23493809.349    23493809.228    23493811.371
  23493810.674          44.500          43.000
 121821584.816 7  94925914.291 7  23181877.412    23181877.373    23181880.633
  23181880.162          43.500          46.500
 109649818.857 7  85441418.58447  20865663.335    20865662.627
  20865663.589          47.500          46.0004
 117503149.127 7  91560895.667 8  22360104.404    22360104.556    22360108.494
  22360108.847          47.000          50.000
 122013675.486 6  95075439.75044  23218390.939    23218391.038
  23218392.164          41.500          29.5004
 110802812.679 8  86339712.710 8  21085037.990    21085038.009    21085039.401
  21085039.178          51.750          51.000
 107424449.308 8  83707366.64847  20442191.453    20442190.557
  20442192.047          50.000          45.5004
 20  1  3  0 47 30.0000000  0  9G16G29G24G27G21G10G13G15G20
 130157887.217 6 101421732.20443  24768223.006    24768222.692
  24768224.582          39.000          22.5004
 123574125.529 7  96291394.689 7  23515338.970    23515339.369    23515341.647
  23515341.626          43.750          43.500
 127997731.065 6  99738490.745 5  24357158.024                    24357162.555
                        36.750          32.250
 121749367.437 7  94869641.001 7  23168134.822    23168134.486    23168138.037
  23168137.945          42.750          46.250
 109640769.555 7  85434367.17747  20863941.217    20863940.745
  20863941.651          47.000          46.0004
 117434280.171 7  91507231.567 8  22346999.072    22346999.398    22347003.130
  22347003.545          46.750          49.750
 122095894.470 6  95139506.48044  23234036.500    23234036.355
  23234037.350          41.750          28.5004
 110851104.840 8  86377342.971 8  21094227.375    21094227.590    21094229.160
  21094228.792          51.250          50.750
 107391570.061 8  83681746.47047  20435934.697    20435933.845
  20435935.245          49.500          45.5004
 20  1  3  0 48  0.0000000  0  8G16G29G27G21G10G13G15G20
 130222660.942 6 101472205.20343  24780549.168    24780548.749
  24780551.575          38.500          21.2504
 123687417.414 7  96379674.065 7  23536897.753    23536897.934    23536899.950
  23536899.237          43.250          43.250
 121677593.937 7  94813713.595 7  23154476.914    23154476.866    23154480.110
  23154479.726          43.250          46.250
 109632017.355 7  85427547.27447  20862275.662    20862275.165
  20862276.188          47.000          46.0004
 117365632.009 7  91453739.542 8  22333935.748    22333936.045    22333939.528
  22333940.070          47.000          50.000
 122178512.977 6  95203884.53644  23249758.664    23249758.071
  23249759.372          41.250          28.7504
 110899954.524 8  86415407.661 8  21103523.468    21103523.395    21103524.833
  21103524.520          51.000          50.500
 107359002.812 8  83656369.40047  20429737.316    20429736.571
  20429737.966          49.500          45.5004
 20  1  3  0 48 30.0000000  0  8G16G29G27G21G10G13G15G20
 130287753.414 6 101522926.60643  24792936.025    24792936.179
  24792937.426          39.000          22.0004
 123800856.865 7  96468068.447 7  23558484.829    23558485.276    23558486.635
  23558486.873          43.000          43.250
 121606266.342 7  94758133.649 7  23140903.009    23140903.311    23140906.876
  23140906.572          42.750          46.000
 109623562.859 7  85420959.35247  20860667.248    20860666.434
  20860667.288          47.500          45.7504
 117297204.594 7  91400419.508 8  22320914.498    22320914.548    22320918.053
  22320918.754          46.750          49.750
 122261528.255 6  95268571.77444  23265555.743    23265555.893
  23265556.794          41.000          28.5004
 110949359.215 8  86453904.828 8  21112924.722    21112924.869    21112926.356
  21112926.073          50.750          50.750
 107326746.834 8  83631234.86547  20423599.192    20423598.491
  20423599.862          49.250          45.5004
 20  1  3  0 49  0.0000000  0  8G16G29G27G21G10G13G15G20
 130353162.395 6 101573894.59843  24805381.669    24805381.703
  24805384.525          38.250          19.7504
 123914441.510 7  96556575.959 7  23580098.997    23580099.509    23580101.619
  23580101.861          42.750          43.500
 121535387.752 7  94702903.578 7  23127415.353    23127415.240    23127419.229
  23127418.963          42.500          46.000
 109615407.973 7  85414604.89247  20859115.401    20859114.495
  20859115.536          47.250          46.0004
 117228998.935 7  91347272.268 8  22307935.286    22307935.283    22307939.161
  22307939.486          46.500          50.000
 122344938.241 6  95333566.57444  23281428.421    23281428.234
  23281429.563          41.000          28.7504
 110999317.620 8  86492833.461 8  21122431.496    21122431.704    21122432.746
  21122432.706          51.000          50.750
 107294803.701 8  83606344.11447  20417520.690    20417519.904
  20417521.280          49.500          45.5004
 20  1  3  0 49 30.0000000  0  8G16G29G27G21G10G13G15G20
 130418885.098 6 101625107.10343  24817889.503    24817888.298
  24817891.594          38.000          20.2504
 124028169.239 7  96645194.949 7  23601740.608    23601741.387    23601743.469
  23601742.691          42.500          43.000
 121464960.898 7  94648025.505 7  23114014.024    23114013.933    23114016.706
  23114016.647          43.000          45.750
 109607554.121 7  85408485.00047  20857620.804    20857620.039
  20857621.058          47.000          46.0004
 117161015.746 7  91294298.402 8  22294998.693    22294998.832    22295002.110
  22295002.838          46.750          49.750
 122428740.577 6  95398867.08744  23297375.682    23297375.840
  23297376.317          41.750          28.2504
 111049827.896 8  86532192.122 8  21132043.339    21132043.482    21132044.552
  21132044.460          50.750          50.250
 107263173.186 8  83581696.95847  20411501.359    20411500.747
  20411502.163          49.000          45.7504
 20  1  3  0 50  0.0000000  0  8G16G29G27G21G10G13G15G20
 130484918.117 6 101676561.41743  24830454.212    24830453.950
  24830456.443          38.000          19.2504
 124142036.758 7  96733922.881 7  23623408.911    23623409.268    23623410.515
  23623411.523          42.000          42.750
 121394987.505 7  94593500.776 7  23100698.012    23100697.922    23100701.407
  23100701.399          42.750          46.000
 109600001.559 7  85402599.87147  20856183.569    20856182.608
  20856183.782          46.750          45.7504
 117093254.634 7  91241497.563 8  22282103.901    22282103.956    22282107.488
  22282108.042          46.250          50.000
 122512931.817 6  95464470.67144  23313396.627    23313396.270
  23313397.008          41.500          29.2504
 111100887.449 8  86571978.786 8  21141759.547    21141759.721    21141760.606
  21141760.792          50.750          50.500
 107231855.057 8  83557293.22447  20405541.959    20405541.167
  20405542.564          49.250          45.7504
 20  1  3  0 50 30.0000000  0  8G16G29G27G21G10G13G15G20
 130551257.082 6 101728254.11143  24843079.855    24843078.793
  24843079.557          39.250          20.5004
 124256040.651 6  96822757.087 7  23645103.174    23645103.095    23645105.987
  23645105.941          41.250          42.500
 121325469.310 7  94539330.765 7  23087470.022    23087469.191    23087472.512
  23087472.750          42.750          46.250
 109592750.671 7  85396949.82147  20854803.508    20854803.099
  20854803.992          46.500          46.0004
 117025715.375 7  91188869.607 8  22269251.724    22269251.806    22269255.362
  22269255.757          46.500          50.250
 122597509.111 7  95530375.05144  23329491.572    23329490.856
  23329491.871          42.250          29.2504
 111152493.525 8  86612191.314 8  21151579.973    21151580.227    21151581.527
  21151581.003          50.500          50.750
 107200848.594 8  83533132.34747  20399641.562    20399640.812
  20399642.035          49.250          45.5004
 20  1  3  0 51  0.0000000  0  8G16G29G27G21G10G13G15G20
 130617902.095 6 101780185.29943  24855760.823    24855760.178
  24855762.040          37.250          20.2504
 124370179.738 7  96911696.626 7  23666823.433    23666823.300    23666825.354
  23666826.113          42.250          42.750
 121256410.218 7  94485518.482 7  23074328.256    23074327.854    23074331.121
  23074331.408          43.750          46.250
 109585804.172 7  85391536.95247  20853481.742    20853481.158
  20853482.209          46.750          46.0004
 116958399.711 7  91136415.895 8  22256441.922    22256441.854    22256445.911
  22256446.129          46.750          50.250
 122682470.661 7  95596578.86344  23345659.076    23345658.677
  23345660.023          42.000          29.2504
 111204645.555 8  86652829.266 8  21161504.135    21161504.333    21161505.704
  21161505.326          50.500          50.500
 107170155.401 8  83509215.56847  20393800.490    20393800.071
  20393801.539          48.500          45.5004
 20  1  3  0 51 30.0000000  0  9G16G29G24G27G21G10G13G15G20
 130684848.276 6 101832351.13143  24868499.784    24868499.676
  24868501.757          38.000          20.0004
 124484449.879 6  97000738.303 6  23688567.863    23688568.355    23688569.879
  23688569.695          41.250          41.750
 127292659.441 6                  24222987.659
                        38.000
 121187810.999 6  94432064.553 7  23061273.724    23061273.797    23061277.132
  23061277.370          41.750          46.250
 109579161.648 7  85386360.95547  20852218.011    20852217.091
  20852218.204          46.500          45.7504
 116891306.444 7  91084135.442 8  22243674.561    22243674.381    22243678.171
  22243678.686          46.000          50.250
 122767812.522 6  95663079.00644  23361899.208    23361898.283
  23361899.465          41.750          29.5004
 111257339.893 8  86693889.790 8  21171531.371    21171531.560    21171532.816
  21171532.673          50.500          50.000
 107139774.049 8  83485541.78747  20388019.420    20388018.555
  20388020.103          49.000          45.7504
 20  1  3  0 52  0.0000000  0  9G16G29G24G27G21G10G13G15G20
 130752093.328 6 101884749.86943  24881296.088    24881296.114
  24881297.837          37.500          19.5004
 124598849.456 6  97089880.854 6  23710338.126    23710338.095    23710339.015
  23710339.716          41.750          41.500
 127205079.627 6                  24206321.913
                        36.750
 121119675.128 7  94378971.660 7  23048307.883    23048307.631    23048311.850
  23048311.380          42.750          46.000
 109572825.105 7  85381423.38447  20851011.705    20851011.360
  20851012.382          46.250          45.7504
 116824436.956 7  91032029.402 8  22230949.617    22230949.793    22230953.370
  22230953.832          46.750          50.500
 122853533.174 6  95729874.30644  23378210.747    23378210.941
  23378212.236          41.000          28.7504
 111310575.249 8  86735371.895 8  21181661.826    21181662.022    21181662.973
  21181662.838          50.500          50.000
 107109705.687 8  83462111.89647  20382297.570    20382296.929
  20382298.288          49.250          45.5004
 20  1  3  0 52 30.0000000  0  9G16G29G24G27G21G10G13G15G20
 130819633.711 6 101937378.71842  24894149.017    24894148.821
  24894150.903          37.750          17.5004
 124713374.886 7  97179121.452 6  23732131.803    23732131.403    23732132.713
  23732133.252          42.250          41.750
 127117638.411 6  99052706.611 7  24189682.392    24189683.167    24189686.619
  24189688.100          37.250          43.500
 121052004.189 7  94326241.040 7  23035430.898    23035430.245    23035434.012
  23035434.021          43.500          46.000
 109566794.779 7  85376724.42247  20849864.597    20849863.817
  20849864.825          47.000          46.0004
 116757790.940 7  90980097.487 8  22218267.312    22218267.376    22218271.002
  22218271.330          46.750          50.500
 122939629.007 6  95796961.98244  23394594.023    23394593.958
  23394595.351          40.750          28.0004
 111364349.010 8  86777273.526 8  21191894.455    21191895.012    21191896.180
  21191895.818          50.500          50.250
 107079949.607 8  83438925.34847  20376635.007    20376634.328
  20376635.845          48.750          45.5004
 20  1  3  0 53  0.0000000  0  9G16G29G24G27G21G10G13G15G20
 130887466.638 6 101990235.56542  24907055.644    24907056.165
  24907058.147          36.500          17.0004
 124828023.744 6  97268458.216 7  23753948.201    23753948.165    23753950.221
  23753950.079          41.500          42.000
 127030335.078 6  98984678.077 7  24173068.831    24173069.997    24173073.465
  24173073.661          37.500          42.000
 120984800.568 7  94273874.577 7  23022642.183    23022641.970    23022645.748
  23022645.817          43.250          46.000
 109561071.808 7  85372264.95547  20848775.521    20848774.668
  20848775.841          47.000          45.7504
 116691368.663 7  90928339.904 8  22205627.368    22205627.482    22205631.115
  22205631.706          47.000          50.250
 123026097.569 6  95864340.07644  23411048.562    23411047.865
  23411050.502          39.750          27.0004
 111418658.971 8  86819592.984 8  21202229.356    21202229.721    21202230.748
  21202230.639          50.250          50.000
 107050506.281 8  83415982.50147  20371032.095    20371031.527
  20371032.977          49.000          45.7504
 20  1  3  0 53 30.0000000  0  9G16G29G24G27G21G10G13G15G20
 130955590.654 6 102043319.24242  24920021.286    24920020.924
  24920022.317          38.500          17.0004
 124942794.953 7  97357890.333 7  23775789.022    23775788.804    23775790.834
  23775790.873          42.250          42.250
 126943174.468 6  98916760.695 7  24156483.620    24156483.069    24156488.138
  24156488.383          36.250          43.000
 120918068.173 7  94221875.295 7  23009943.603    23009943.332    23009947.272
  23009946.953          43.000          46.500
 109555658.978 7  85368047.15447  20847745.671    20847744.698
  20847745.771          46.500          45.7504
 116625172.061 7  90876758.174 8  22193030.680    22193030.904    22193034.087
  22193034.901          47.250          50.500
 123112937.778 6  95932007.77344  23427573.279    23427573.530
  23427574.741          39.750          27.2504
 111473504.506 8  86862329.762 8  21212666.305    21212666.516    21212667.192
  21212667.586          49.750          50.250
 107021376.982 8  83393284.34647  20365489.157    20365488.287
  20365489.781          49.000          45.7504
 20  1  3  0 54  0.0000000  0  9G16G29G24G27G21G10G13G15G20
 131023999.692 6 102096625.00142  24933038.436    24933038.154
  24933040.184          36.500          14.7504
 125057682.665 7  97447413.244 7  23797651.005    23797650.717    23797653.189
  23797652.879          42.000          42.500
 126856156.577 6  98848954.571 6  24139925.109    24139925.274    24139928.775
  24139928.824          38.250          41.000
 120851806.213 7  94170242.601 7  22997334.360    22997334.113    22997337.796
  22997337.294          42.750          46.500
 109550554.049 7  85364069.28047  20846774.033    20846773.274
  20846774.283          46.500          46.0004
 116559198.367 7  90825350.126 8  22180476.323    22180476.293    22180480.114
  22180480.380          47.500          50.750
 123200143.812 6  95999960.52644  23444168.312    23444168.457
  23444169.910          39.750          27.2504
 111528880.469 8  86905479.868 8  21223204.168    21223204.320    21223205.430
  21223205.243          49.750          50.250
 106992558.631 8  83370828.49947  20360004.687    20360004.431
  20360005.826          49.000          45.5004
 20  1  3  0 54 30.0000000  0  8G29G24G27G21G10G13G15G20
 125172687.158 6  97537027.131 7  23819535.810    23819535.171    23819537.807
  23819537.238          41.750          42.250
 126769291.467 6                  24123394.262
                        38.000
 120786019.763 7  94118980.439 7  22984815.249    22984815.356    22984818.825
  22984819.310          43.500          46.750
 109545761.313 7  85360334.67547  20845861.870    20845861.178
  20845862.311          46.250          45.7504
 116493450.646 7  90774118.170 8  22167964.820    22167964.691    22167968.670
  22167968.889          47.500          50.500
 123287715.726 6  96068198.37044  23460832.980    23460833.283
  23460833.988          39.750          27.5004
 111584787.555 8  86949043.833 8  21233842.683    21233842.689    21233844.138
  21233843.879          50.000          50.250
 106964054.749 8  83348617.69147  20354581.084    20354580.375
  20354581.785          49.250          45.5004
 20  1  3  0 55  0.0000000  0  7G29G27G21G10G13G15G20
 125287805.026 6  97626729.369 7  23841441.677    23841441.372    23841443.654
  23841443.597          40.500          42.750
 120720710.511 7  94068090.111 7  22972388.150    22972387.500    22972391.258
  22972390.547          43.750          46.750
 109541280.651 7  85356843.24147  20845009.516    20845008.593
  20845009.627          46.750          45.7504
 116427928.671 8  90723062.106 8  22155496.261    22155496.306    22155500.156
  22155500.510          48.000          50.750
 123375650.228 6  96136718.76644  23477566.250    23477565.820
  23477567.173          40.000          28.5004
 111641222.906 8  86993019.436 8  21244582.015    21244582.125    21244583.602
  21244583.150          50.250          50.250
 106935864.045 8  83326650.90447  20349216.366    20349215.713
  20349217.247          49.250          46.0004
 20  1  3  0 55 30.0000000  0  7G29G27G21G10G13G15G20
 125403031.381 6  97716516.112 7  23863368.526    23863368.700    23863371.059
  23863371.030          40.250          42.750
 120655878.578 7  94017571.717 7  22960050.882    22960050.271    22960054.018
  22960054.490          43.750          47.000
 109537111.010 7  85353594.15647  20844215.975    20844215.143
  20844216.292          46.500          45.7504
 116362630.514 7  90672180.466 8  22143070.344    22143070.541    22143074.132
  22143074.574          47.250          50.750
 123463942.333 6  96205517.84544  23494367.673    23494367.206
  23494368.811          40.250          28.0004
 111698181.905 8  87037403.078 8  21255421.234    21255421.108    21255422.200
  21255421.998          50.000          49.750
 106907984.833 8  83304926.84947  20343911.089    20343910.569
  20343912.011          49.000          45.7504
 20  1  3  0 56  0.0000000  0  7G29G27G21G10G13G15G20
 125518365.592 6  97806386.913 7  23885315.620    23885316.227    23885318.086
  23885318.145          41.000          42.500
 120591528.096 7  93967428.477 7  22947805.273    22947804.536    22947808.510
  22947808.647          43.500          46.750
 109533255.716 7  85350590.02547  20843482.151    20843481.579
  20843482.717          46.500          46.0004
 116297558.446 7  90621474.985 8  22130687.879    22130687.763    22130691.042
  22130691.886          47.750          50.500
 123552591.656 6  96274595.21544  23511236.727    23511236.674
  23511238.450          39.750          27.2504
 111755664.322 8  87082194.578 8  21266359.622    21266359.674    21266360.639
  21266360.475          49.500          49.750
 106880418.795 8  83283446.82247  20338665.697    20338664.912
  20338666.487          49.250          45.7504
 20  1  3  0 56 30.0000000  0  7G29G27G21G10G13G15G20
 125633804.808 6  97896339.543 6  23907283.095    23907282.963    23907285.464
  23907284.873          41.250          41.750
 120527660.829 7  93917661.773 7  22935651.571    22935651.544    22935654.621
  22935654.284          44.000          46.500
 109529715.078 7  85347831.07647  20842808.193    20842807.688
  20842808.905          46.250          46.0004
 116232712.229 8  90570945.496 8  22118347.780    22118348.120    22118351.681
  22118351.999          48.000          50.750
 123641594.399 6  96343948.00844  23528172.970    23528173.476
  23528174.203          38.500          27.2504
 111813667.316 8  87127391.720 8  21277397.102    21277397.185    21277398.493
  21277398.142          49.500          49.750
 106853165.900 8  83262210.80047  20333479.390    20333478.710
  20333480.277          49.250          45.7504
 20  1  3  0 57  0.0000000  0  7G29G27G21G10G13G15G20
 125749346.172 6  97986371.778 6  23929270.199    23929270.402    23929272.489
  23929272.470          41.750          41.500
 120464279.122 7  93868273.422 7  22923590.618    22923590.278    22923593.137
  22923593.390          43.000          46.250
 109526490.370 7  85345318.31147  20842194.732    20842194.165
  20842195.193          46.750          45.7504
 116168092.352 7  90520592.375 8  22106050.690    22106051.032    22106054.799
  22106055.022          47.500          50.750
 123730948.296 6  96413574.40644  23545177.216    23545177.611
  23545178.369          39.000          25.7504
 111872188.974 8  87172993.009 8  21288533.424    21288533.524    21288534.714
  21288534.494          49.500          50.000
 106826226.293 8  83241218.90347  20328352.808    20328352.256
  20328353.867          49.250          45.5004
 20  1  3  0 57 30.0000000  0  7G29G27G21G10G13G15G20
 125864986.947 6  98076481.480 6  23951275.879    23951275.711    23951277.668
  23951278.036          41.500          41.250
 120401385.173 7  93819265.162 7  22911621.981    22911622.001    22911625.232
  22911625.367          42.750          46.500
 109523582.544 7  85343052.46647  20841641.271    20841640.860
  20841641.887          46.750          46.0004
 116103699.033 7  90470415.794 8  22093797.161    22093797.548    22093800.866
  22093801.335          47.750          50.500
 123820650.627 6  96483472.32344  23562247.102    23562246.724
  23562248.206          39.500          26.2504
 111931226.972 8  87218996.646 8  21299767.972    21299767.965    21299769.190
  21299769.124          49.500          49.750
 106799599.918 8  83220471.09247  20323286.555    20323285.689
  20323286.977          49.250          45.7504
 20  1  3  0 58  0.0000000  0  7G29G27G21G10G13G15G20
 125980724.188 7  98166666.369 6  23973300.208    23973299.983    23973301.264
  23973300.962          42.250          40.500
 120338980.780 7  93770638.364 7  22899747.054    22899746.566    22899750.209
  22899749.795          43.500          46.750
 109520991.936 7  85341033.79647  20841148.484    20841147.730
  20841148.769          47.000          46.0004
 116039532.154 8  90420415.669 8  22081586.818    22081587.061    22081590.264
  22081590.934          48.250          50.750
 123910698.061 6  96553639.15044  23579382.784    23579381.949
  23579382.867          40.000          25.7504
 111990778.569 8  87265400.493 8  21311099.950    21311100.481    21311101.667
  21311101.383          49.750          49.500
 106773285.997 8  83199966.73747  20318278.809    20318278.254
  20318279.643          49.000          45.7504
 20  1  3  0 58 30.0000000  0  7G29G27G21G10G13G15G20
 126096554.874 7  98256924.050 6  23995342.258    23995342.238    23995343.442
  23995343.301          42.750          40.000
 120277067.710 7  93722394.407 7  22887965.408    22887964.929    22887969.103
  22887968.364          42.500          47.250
 109518719.335 7  85339262.93147  20840715.909    20840715.376
  20840716.434          47.000          45.7504
 115975591.582 7  90370591.878 8  22069419.506    22069419.418    22069422.919
  22069423.247          47.500          51.000
 124001087.661 6  96624072.63744  23596582.652    23596583.199
  23596583.390          39.250          26.2504
 112050841.156 8  87312202.509 8  21322529.750    21322529.841    21322531.278
  21322531.094          49.500          50.000
 106747284.503 8  83179705.84347  20313330.955    20313330.381
  20313331.670          49.000          45.7504
 20  1  3  0 59  0.0000000  0  7G29G27G21G10G13G15G20
 126212477.484 6  98347253.374 6  24017401.101    24017401.074    24017402.027
  24017401.759          41.750          39.750
 120215649.592 7  93674536.130 7  22876277.861    22876277.375    22876280.984
  22876281.288          43.750          47.500
 109516767.046 7  85337741.65847  20840344.272    20840343.819
  20840344.953          46.500          45.7504
 115911879.131 8  90320945.824 8  22057295.172    22057295.129    22057298.837
  22057299.208          48.250          51.000
 124091818.039 6  96694771.64244  23613848.302    23613849.046
  23613849.192          38.250          26.2504
 112111413.619 8  87359401.836 8  21334056.363    21334056.251    21334057.958
  21334057.389          49.750          49.750
 106721597.345 8  83159689.88347  20308442.933    20308442.219
  20308443.729          49.500          46.0004
 20  1  3  0 59 30.0000000  0  7G29G27G21G10G13G15G20
 126328487.489 7  98437650.769 6  24039476.984    24039477.117    24039478.339
  24039478.624          42.000          39.750
 120154726.326 7  93627063.449 7  22864684.859    22864684.505    22864687.832
  22864687.706          42.750          47.250
 109515133.814 7  85336468.99947  20840033.563    20840033.132
  20840034.174          46.750          45.7504
 115848392.782 7  90271475.987 8  22045214.186    22045214.297    22045217.693
  22045218.487          47.750          51.250
 124182884.290 6  96765732.36644  23631178.245    23631177.599
  23631178.878          39.000          26.2504
 112172491.152 8  87406994.722 8  21345679.073    21345679.052    21345680.196
  21345679.981          49.500          49.500
 106696221.748 8  83139916.69247  20303613.904    20303613.238
  20303614.745          49.250          45.7504
 20  1  3  1  0  0.0000000  0  7G29G27G21G10G13G15G20
 126444584.304 7  98528115.832 6  24061569.426    24061569.759    24061571.043
  24061571.364          42.000          40.250
 120094302.276 7  93579979.765 7  22853186.426    22853186.112    22853189.332
  22853189.569          44.000          47.250
 109513823.404 7  85335447.89347  20839783.906    20839783.711
  20839784.863          46.000          46.0004
 115785135.045 8  90222184.275 8  22033176.315    22033176.581    22033180.071
  22033180.571          48.250          51.000
 124274285.835 6  96836954.34744  23648570.328    23648570.776
  23648571.425          38.250          25.7504
 112234074.397 8  87454981.667 8  21357397.929    21357398.042    21357399.295
  21357399.138          49.750          49.500
 106671160.376 8  83120388.35447  20298845.027    20298844.413
  20298845.747          49.500          45.7504
 20  1  3  1  0 30.0000000  0  8G29G24G27G21G10G13G15G20
 126560765.069 7  98618646.289 6  24083677.712    24083678.344    24083680.385
  24083679.690          42.000          41.250
 125739555.065 6                  23927441.860
                        37.250
 120034379.138 7  93533286.412 7  22841783.457    22841782.922    22841786.256
  22841786.370          43.750          47.000
 109512836.055 7  85334678.52247  20839596.305    20839595.891
  20839596.914          46.000          45.5004
 115722105.747 8  90173070.569 8  22021182.472    22021182.485    22021185.884
  22021186.427          48.250          51.000
 124366019.505 6  96908435.10844  23666027.254    23666027.201
  23666028.594          39.000          25.7504
 112296160.064 8  87503360.117 8  21369212.032    21369212.408    21369213.894
  21369213.617          49.750          49.750
 106646412.791 8  83101104.53647  20294135.694    20294135.020
  20294136.408          49.000          45.7504
 20  1  3  1  1  0.0000000  0  8G29G24G27G21G10G13G15G20
 126677026.283 7  98709239.448 6  24105801.456    24105802.592    24105803.954
  24105803.967          42.000          41.250
 125654900.885 6  97912914.907 6  23911332.711    23911333.574    23911336.157
  23911335.283          37.500          41.750
 119974958.400 7  93486984.528 7  22830475.914    22830475.705    22830479.026
  22830479.426          43.500          47.250
 109512171.963 7  85334161.04147  20839469.869    20839469.397
  20839470.593          46.750          45.7504
 115659304.580 8  90124134.622 8  22009231.768    22009231.938    22009235.586
  22009235.978          48.250          51.500
 124458081.834 6  96980171.99944  23683546.087    23683546.645
  23683546.847          39.250          27.2504
 112358745.222 8  87552127.778 8  21381122.082    21381122.242    21381123.086
  21381123.027          50.000          49.250
 106621978.298 8  83082064.67347  20289486.104    20289485.279
  20289486.701          49.500          45.7504
 20  1  3  1  1 30.0000000  0  8G29G24G27G21G10G13G15G20
 126793366.155 7  98799893.870 6  24127940.727    24127940.920    24127942.096
  24127942.255          42.500          40.750
 125570440.992 6  97847101.985 7  23895260.944    23895260.730    23895265.034
  23895264.801          38.250          42.500
 119916043.153 7  93441076.540 7  22819264.674    22819264.710    22819268.223
  22819268.173          43.750          47.250
 109511833.117 7  85333896.99347  20839405.457    20839404.987
  20839406.152          47.000          46.0004
 115596732.788 8  90075377.420 8  21997324.363    21997324.841    21997328.432
  21997328.879          48.000          51.250
 124550471.356 6  97052163.84644  23701127.478    23701126.911
  23701128.447          39.250          26.5004
 112421828.670 8  87601283.705 8  21393126.299    21393126.391    21393127.302
  21393127.548          50.000          49.250
 106597858.063 8  83063269.69247  20284895.752    20284895.339
  20284896.838          48.750          46.0004
 20  1  3  1  2  0.0000000  0  8G29G24G27G21G10G13G15G20
 126909779.859 7  98890605.849 6  24150093.747    24150094.209    24150095.239
  24150095.273          42.750          41.000
 125486175.871 6  97781440.818 6  23879225.416    23879225.518    23879228.593
  23879229.577          38.000          41.500
 119857633.115 7  93395562.222 7  22808149.596    22808149.597    22808152.849
  22808152.605          43.750          47.000
 109511818.270 7  85333885.41447  20839402.665    20839402.046
  20839403.267          46.750          45.7504
 115534388.293 8  90026797.336 8  21985461.006    21985461.137    21985464.507
  21985465.107          48.500          51.250
 124643182.658 6  97124406.39644  23718769.409    23718770.014
  23718770.276          39.250          25.7504
 112485405.398 8  87650824.016 8  21405224.351    21405224.670    21405225.652
  21405225.649          49.750          49.250
 106574049.749 8  83044717.76547  20280365.399    20280364.804
  20280366.321          49.250          46.0004
 20  1  3  1  2 30.0000000  0  8G29G24G27G21G10G13G15G20
 127026266.341 7  98981374.543 6  24172260.022    24172259.344    24172261.660
  24172261.384          42.500          39.750
 125402110.423 6  97715935.305 6  23863228.849    23863228.209    23863232.097
  23863232.465          38.250          41.750
 119799731.793 7  93350444.303 7  22797131.625    22797131.142    22797134.605
  22797134.180          44.250          47.000
 109512129.760 7  85334128.12847  20839462.167    20839461.363
  20839462.644          47.250          45.7504
 115472272.742 8  89978395.642 8  21973640.607    21973640.669    21973644.201
  21973644.614          48.500          51.500
 124736214.840 6  97196898.99144  23736472.354    23736472.331
  23736474.191          38.750          25.7504
 112549474.564 8  87700748.046 8  21417416.440    21417416.868    21417417.779
  21417417.638          49.750          49.500
 106550554.473 8  83026409.76447  20275894.463    20275893.912
  20275895.240          49.250          46.0004
 20  1  3  1  3  0.0000000  0  7G29G27G21G10G13G15G20
 127142822.868 7  99072197.788 6  24194439.770    24194440.194    24194441.785
  24194441.865          42.250          40.250
 119742341.165 7  93305724.319 7  22786210.258    22786209.942    22786213.734
  22786213.388          44.500          47.500
 109512768.818 7  85334626.08347  20839583.838    20839582.988
  20839584.320          46.500          45.7504
 115410386.440 8  89930172.578 8  21961864.188    21961864.249    21961867.692
  21961868.235          48.750          51.250
 124829564.707 6  97269639.16744  23754237.251    23754237.220
  23754237.562          39.750          25.2504
 112614033.565 8  87751053.762 8  21429701.767    21429701.734    21429703.062
  21429702.561          50.250          49.250
 106527372.713 8  83008346.06147  20271483.310    20271482.644
  20271483.910          49.000          46.0004
 20  1  3  1  3 30.0000000  0  7G29G27G21G10G13G15G20
 127259446.923 7  99163073.694 6  24216633.024    24216633.231    24216633.905
  24216633.823          43.000          40.000
 119685463.591 7  93261404.130 7  22775386.762    22775386.608    22775390.219
  22775390.035          44.000          47.250
 109513736.123 7  85335379.81747  20839767.956    20839767.077
  20839768.325          46.750          45.7504
 115348729.874 8  89882128.535 8  21950130.887    21950131.044    21950134.866
  21950135.209          48.000          51.000
 124923229.991 6  97342625.10144  23772061.202    23772060.574
  23772061.282          39.750          25.0004
 112679080.354 8  87801739.580 8  21442079.834    21442079.776    21442080.932
  21442080.746          50.000          49.250
 106504504.219 8  82990526.46347  20267131.568    20267130.823
  20267132.150          49.000          46.0004
 20  1  3  1  4  0.0000000  0  9G32G29G24G27G21G10G13G15G20
 129866570.820 6 101194737.397 6  24712787.941    24712788.496    24712792.104
  24712791.613          38.750          41.750
 127376134.367 7  99253998.969 6  24238837.801    24238837.995    24238839.397
  24238839.119          42.500          40.500
 125151143.827 6  97520373.691 6  23815472.067    23815471.948    23815474.896
  23815475.199          38.250          39.000
 119629099.502 7  93217484.050 7  22764660.871    22764661.160    22764664.559
  22764664.259          44.250          47.250
 109515031.511 7  85336389.19847  20840014.524    20840013.739
  20840014.860          47.500          46.0004
 115287301.717 8  89834262.458 8  21938441.827    21938442.067    21938445.155
  21938445.814          48.750          51.000
 125017206.213 6  97415853.31044  23789944.622    23789943.090
  23789943.996          40.000          25.0004
 112744610.987 8  87852802.415 8  21454549.984    21454550.133    21454550.794
  21454550.863          50.250          49.250
 106481948.138 8  82972950.30147  20262839.037    20262838.513
  20262839.955          49.250          46.0004
 20  1  3  1  4 30.0000000  0  8G32G29G27G21G10G13G15G20
 129754474.871 6 101107389.886 6  24691457.375    24691456.587    24691460.855
  24691460.450          38.000          40.000
 127492884.481 6  99344973.081 6  24261054.645    24261053.952    24261055.235
  24261055.547          41.750          39.500
 119573252.783 7  93173967.113 7  22754033.767    22754033.379    22754036.809
  22754036.942          44.500          47.250
 109516657.711 7  85337656.35447  20840323.665    20840323.071
  20840324.248          47.750          46.0004
 115226104.179 8  89786576.095 8  21926796.209    21926796.180    21926799.994
  21926800.538          48.250          51.250
 125111492.715 6  97489323.33344  23807886.883    23807886.572
  23807887.331          39.750          25.2504
 112810624.672 8  87904241.659 8  21467111.898    21467112.105    21467113.010
  21467112.913          50.250          49.250
 106459706.043 8  82955618.79747  20258606.532    20258606.014
  20258607.331          48.750          46.0004
 20  1  3  1  5  0.0000000  0  8G32G29G27G21G10G13G15G20
 129642436.611 6 101020087.359 6  24670136.884    24670137.276    24670139.893
  24670139.742          37.000          39.000
 127609694.285 6  99435993.698 6  24283282.954    24283282.511    24283283.454
  24283283.219          41.750          39.250
 119517924.985 7  93130854.536 7  22743505.324    22743505.148    22743508.906
  22743508.577          44.500          47.750
 109518615.037 8  85339181.54547  20840696.206    20840695.656
  20840696.688          48.500          46.0004
 115165137.038 8  89739069.260 8  21915194.579    21915194.701    21915198.140
  21915198.644          48.750          51.250
 125206086.235 6  97563032.54844  23825886.253    23825886.202
  23825887.672          40.000          25.0004
 112877118.769 8  87956055.240 8  21479764.989    21479765.251    21479766.496
  21479766.130          50.000          48.750
 106437777.616 8  82938531.71847  20254433.551    20254433.146
  20254434.570          48.500          45.7504
 20  1  3  1  5 30.0000000  0  7G29G27G21G10G13G15G20
 127726560.637 6  99527058.403 6  24305521.796    24305522.503    24305523.431
  24305522.978          41.250          39.000
 119463117.591 7  93088147.464 8  22733075.894    22733075.977    22733079.427
  22733079.480          45.000          48.000
 109520904.333 7  85340965.39947  20841132.056    20841131.236
  20841132.522          47.750          46.0004
 115104400.123 8  89691741.831 8  21903636.336    21903636.722    21903640.566
  21903640.735          48.500          51.500
 125300983.517 6  97636978.48544  23843944.794    23843944.413
  23843945.706          39.250          24.7504
 112944090.299 8  88008240.845 8  21492509.497    21492509.577    21492510.563
  21492510.479          50.250          49.000
 106416162.361 8  82921688.67047  20250320.411    20250319.763
  20250321.179          48.500          45.7504
 20  1  3  1  6  0.0000000  0  8G32G29G27G21G10G13G15G20
 129418551.089 6 100845621.549 6  24627531.001    24627531.511    24627533.818
  24627534.194          37.250          41.250
 127843480.380 6  99618164.667 6  24327770.552    24327771.097    24327771.082
  24327771.313          40.000          38.750
 119408831.981 7  93045846.984 8  22722745.851    22722745.596    22722749.232
  22722749.098          45.250          48.250
 109523525.918 7  85343008.18547  20841630.937    20841630.224
  20841631.329          47.750          46.2504
 115043893.034 8  89644593.473 8  21892122.835    21892122.889    21892125.809
  21892126.235          49.250          51.250
 125396181.199 6  97711158.50343  23862060.449    23862059.705
  23862061.014          39.250          23.2504
 113011535.920 8  88060795.875 8  21505343.912    21505344.126    21505345.221
  21505345.048          50.250          49.000
 106394859.745 8  82905089.23547  20246266.955    20246266.066
  20246267.440          49.000          46.0004
 20  1  3  1  6 30.0000000  0  8G32G29G27G21G10G13G15G20
 129306697.356 6 100758462.795 6  24606245.179    24606245.353    24606249.730
  24606249.343          36.500          40.750
 127960451.459 6  99709310.958 6  24350028.789    24350028.853    24350030.270
  24350030.179          40.500          37.000
 119355070.867 7  93003955.199 8  22712515.114    22712515.092    22712518.669
  22712518.769          45.250          48.000
 109526481.396 8  85345311.15347  20842193.352    20842192.536
  20842193.757          49.250          46.2504
 114983616.872 8  89597625.062 8  21880652.128    21880652.364    21880656.021
  21880656.545          49.000          51.750
 125491677.504 6  97785571.25043  23880232.765    23880232.290
  23880233.788          38.500          23.7504
 113079454.541 8  88113719.479 8  21518268.186    21518268.436    21518269.737
  21518269.612          50.000          49.000
 106373870.523 8  82888733.99847  20242272.648    20242271.881
  20242273.392          48.500          46.0004
 20  1  3  1  7  0.0000000  0  8G32G29G27G21G10G13G15G20
 129194909.436 6 100671355.321 6  24584972.477    24584973.186    24584977.727
  24584976.629          37.250          40.750
 128077471.096 6  99800495.105 6  24372297.639    24372297.605    24372297.346
  24372297.950          41.750          37.500
 119301835.861 7  92962473.376 7  22702384.650    22702384.547    22702387.931
  22702388.431          44.750          47.750
 109529771.203 8  85347874.63347  20842819.512    20842818.638
  20842819.752          48.750          46.0004
 114923571.518 8  89550836.504 8  21869226.295    21869226.409    21869229.654
  21869230.213          49.250          51.750
 125587468.966 6  97860213.92844  23898461.455    23898461.133
  23898462.408          39.250          24.0004
 113147842.900 8  88167009.110 8  21531282.152    21531282.149    21531283.619
  21531283.373          49.750          49.000
 106353194.252 8  82872622.61847  20238338.017    20238337.397
  20238338.829          48.750          46.0004
 20  1  3  1  7 30.0000000  0  8G32G29G27G21G10G13G15G20
 129083189.347 6 100584300.697 6  24563713.302    24563712.852    24563718.027
  24563717.522          36.750          41.250
 128194536.307 6  99891714.779 6  24394574.412    24394574.178    24394575.103
  24394574.932          41.750          38.250
 119249128.767 7  92921402.911 8  22692355.075    22692354.856    22692358.578
  22692358.447          44.500          48.000
 109533396.442 8  85350699.49347  20843509.301    20843508.580
  20843509.643          49.000          46.2504
 114863757.102 8  89504227.892 8  21857843.682    21857843.868    21857847.338
  21857847.877          49.000          51.250
 125683553.110 6  97935084.70044  23916745.670    23916745.169
  23916746.067          39.250          24.2504
 113216698.426 8  88220662.773 8  21544384.980    21544385.298    21544386.204
  21544386.239          49.750          48.500
 106332831.157 8  82856755.27447  20234463.057    20234462.404
  20234463.729          48.750          46.0004
 20  1  3  1  8  0.0000000  0  8G32G29G27G21G10G13G15G20
 128971539.222 6 100497300.592 6  24542467.274    24542466.698    24542471.429
  24542471.303          37.250          41.250
 128311644.830 6  99982968.178 6  24416859.377    24416859.715    24416860.889
  24416860.221          41.750          38.500
 119196951.413 7  92880745.219 8  22682426.043    22682425.817    22682429.543
  22682429.301          45.000          48.000
 109537357.758 8  85353786.22347  20844262.983    20844262.377
  20844263.367          48.750          46.2504
 114804173.852 8  89457799.391 8  21846505.626    21846505.796    21846509.285
  21846509.398          49.500          51.750
 125779927.181 6  98010181.37844  23935085.315    23935085.130
  23935085.904          39.250          24.0004
 113286018.798 8  88274678.647 8  21557576.194    21557576.272    21557577.572
  21557577.561          50.250          49.000
 106312781.603 8  82841132.24347  20230648.034    20230647.185
  20230648.642          49.000          46.0004
 20  1  3  1  8 30.0000000  0  9G32G29G27G21G10G24G13G15G20
 128859962.176 6 100410357.439 6  24521234.394    24521234.389    24521239.178
  24521238.625          36.250          41.500
 128428794.601 7 100074253.726 6  24439152.315    24439152.333    24439153.595
  24439153.445          42.000          37.250
 119145306.544 7  92840502.465 8  22672598.416    22672598.253    22672602.253
  22672601.889          45.000          48.250
 109541657.134 8  85357136.38547  20845081.314    20845080.396
  20845081.463          49.250          46.2504
 114744822.911 8  89411551.924 8  21835211.308    21835211.255    21835215.225
  21835215.561          49.000          52.000
 124410177.905 6  96942923.108 6  23674451.420    23674452.078    23674455.928
  23674455.898          38.750          38.500
 125876589.072 6  98085502.31144  23953479.141    23953478.754
  23953480.045          38.750          25.5004
 113355802.023 8  88329055.191 8  21570855.594    21570855.609    21570856.640
  21570856.851          49.500          48.750
 106293046.019 8  82825753.87147  20226892.175    20226891.583
  20226893.015          48.500          46.0004
 20  1  3  1  9  0.0000000  0  9G32G29G27G21G10G24G13G15G20
 128748459.680 6 100323472.407 6  24500016.067    24500017.138    24500021.340
  24500020.386          37.500          41.750
 128545982.499 7 100165568.992 6  24461452.938    24461452.921    24461452.480
  24461452.979          42.250          37.750
 119094195.423 7  92800675.605 8  22662872.607    22662872.097    22662875.819
  22662875.593          44.750          48.500
 109546294.600 8  85360749.99047  20845963.718    20845963.026
  20845964.111          48.750          46.0004
 114685703.893 8  89365485.178 8  21823961.663    21823961.614    21823965.023
  21823965.376          49.750          51.750
 124329004.339 6  96879670.977 7  23659004.818    23659004.316    23659009.113
  23659010.003          37.750          43.250
 125973535.527 6  98161045.02044  23971926.917    23971927.048
  23971927.550          38.500          24.2504
 113426045.329 8  88383790.243 8  21584222.505    21584222.606    21584223.331
  21584223.585          49.750          48.500
 106273623.774 8  82810619.65947  20223196.493    20223195.602
  20223196.964          48.250          46.0004
 20  1  3  1  9 30.0000000  0  9G32G29G27G21G10G24G13G15G20
 128637032.658 6 100236646.138 6  24478813.402    24478812.512    24478817.118
  24478816.448          39.000          41.500
 128663204.785 6 100256911.059 6  24483759.521    24483759.249    24483760.225
  24483760.483          41.500          38.500
 119043618.514 7  92761265.020 8  22653247.984    22653247.780    22653251.153
  22653251.425          45.000          48.250
 109551269.894 8  85364626.82847  20846910.514    20846909.609
  20846910.801          49.000          46.0004
 114626815.717 8  89319598.288 8  21812755.283    21812755.340    21812759.071
  21812759.185          49.250          51.750
 124248074.567 6  96816608.815 7  23643603.979    23643604.030    23643609.389
  23643608.998          38.500          43.000
 126070762.424 6  98236806.24443  23990428.981    23990428.528
  23990429.865          38.750          23.0004
 113496744.450 8  88438880.471 8  21597676.081    21597676.182    21597677.397
  21597677.188          49.750          48.500
 106254513.591 8  82795728.61447  20219559.700    20219559.101
  20219560.460          48.000          46.2504
 20  1  3  1 10  0.0000000  0  9G32G29G27G21G10G24G13G15G20
 128525684.895 6 100149881.652 6  24457623.769    24457624.405    24457628.105
  24457628.022          39.500          40.000
 128780460.526 6 100348279.138 6  24506071.453    24506071.269    24506073.037
  24506073.784          41.000          38.000
 118993579.401 7  92722273.494 8  22643725.713    22643725.594    22643728.987
  22643728.995          44.750          48.250
 109556585.480 8  85368768.83247  20847921.682    20847921.074
  20847922.383          49.000          46.2504
 114568160.330 8  89273892.815 8  21801593.904    21801593.915    21801597.222
  21801597.644          50.000          52.250
 124167393.546 6  96753740.467 7  23628251.720    23628251.116    23628255.290
  23628255.158          38.500          42.500
 126168268.854 6  98312785.27043  24008983.617    24008983.560
  24008983.854          38.000          23.0004
 113567898.929 8  88494325.515 8  21611216.117    21611216.356    21611217.327
  21611217.282          50.250          48.500
 106235717.249 8  82781082.12147  20215983.077    20215982.229
  20215983.571          49.000          46.0004
 20  1  3  1 10 30.0000000  0  9G32G29G27G21G10G24G13G15G20
 128414417.616 6 100063179.841 6  24436450.052    24436450.955    24436453.975
  24436453.631          38.750          39.750
 128897746.040 6 100439670.441 6  24528389.750    24528389.937    24528391.649
  24528391.431          38.750          39.000
 118944078.900 7  92683701.677 8  22634305.932    22634305.983    22634309.074
  22634309.251          45.500          48.000
 109562241.434 8  85373176.05847  20848998.124    20848997.520
  20848998.597          48.750          46.0004
 114509737.066 8  89228368.192 8  21790475.772    21790476.079    21790479.662
  21790479.990          49.750          52.000
 124086963.704 6  96691067.858 7  23612946.082    23612946.790    23612948.674
  23612950.317          39.000          42.250
 126266050.904 6  98388979.06943  24027590.791    24027590.976
  24027592.032          39.000          22.2504
 113639505.089 8  88550122.533 8  21624842.277    21624842.718    21624843.560
  21624843.385          50.250          48.250
 106217233.774 8  82766679.41447  20212465.555    20212465.002
  20212466.383          48.750          45.7504
 20  1  3  1 11  0.0000000  0  9G32G29G27G21G10G24G13G15G20
 128303233.566 6  99976542.895 6  24415292.094    24415292.078    24415297.017
  24415296.254          38.500          40.750
 129015059.350 6 100531083.407 6  24550715.234    24550714.940    24550716.090
  24550715.931          41.000          37.500
 118895119.322 7  92645551.351 8  22624989.398    22624989.193    22624992.780
  22624992.899          45.500          48.250
 109568239.106 8  85377849.56847  20850139.456    20850138.752
  20850139.841          48.500          46.0004
 114451546.635 8  89183025.028 8  21779402.837    21779402.923    21779406.235
  21779406.856          50.250          52.000
 124006789.189 6  96628594.214 7  23597689.512    23597689.636    23597692.885
  23597692.476          38.250          43.000
 126364106.692 6  98465386.21443  24046250.618    24046249.685
  24046251.611          38.750          22.5004
 113711561.038 8  88606270.021 8  21638554.386    21638554.407    21638555.424
  21638555.254          50.000          48.250
 106199063.856 8  82752521.04847  20209008.072    20209007.294
  20209008.681          48.500          46.2504
 20  1  3  1 11 30.0000000  0  9G32G29G27G21G10G24G13G15G20
 128192135.204 6  99889972.777 6  24394150.999    24394151.363    24394156.051
  24394155.057          38.500          41.500
 129132398.333 6 100622516.385 6  24573043.886    24573044.571    24573044.283
  24573044.385          39.250          37.500
 118846702.842 7  92607824.218 8  22615776.056    22615775.771    22615779.464
  22615779.611          45.500          48.500
 109574579.797 8  85382790.35447  20851345.988    20851345.369
  20851346.575          49.000          45.7504
 114393589.708 8  89137863.793 8  21768373.868    21768373.821    21768377.349
  21768377.857          50.000          52.000
                  96566322.499 7                                  23582485.195
                                        43.500
 126462433.382 6  98542004.41643  24064962.147    24064961.290
  24064962.074          38.250          23.0004
 113784064.457 8  88662766.194 8  21652351.597    21652351.347    21652352.228
  21652352.152          50.000          48.000
 106181208.046 8  82738607.44747  20205610.056    20205609.320
  20205610.823          48.000          46.0004
 20  1  3  1 12  0.0000000  0  9G32G29G24G27G21G10G13G15G20
 128081123.639 6  99803470.269 6  24373026.782    24373026.469    24373030.972
  24373031.591          38.750          41.750
 129249759.088 7 100713966.321 6  24595377.123    24595376.694    24595378.007
  24595377.719          42.250          38.250
 123847121.164 6  96504251.993 7  23567323.914    23567324.281    23567328.252
  23567328.015          37.750          45.750
 118798830.086 7  92570520.767 8  22606666.501    22606665.927    22606669.407
  22606669.516          45.500          48.250
 109581263.539 8  85387998.45347  20852617.710    20852617.330
  20852618.409          49.000          45.7504
 114335865.392 8  89092883.831 8  21757389.406    21757389.530    21757392.830
  21757393.236          50.750          52.000
 126561027.477 6  98618830.97943  24083722.983    24083723.368
  24083724.618          38.750          22.7504
 113857011.542 8  88719608.071 8  21666232.371    21666232.673    21666233.959
  21666233.597          49.750          48.500
 106163664.954 8  82724937.51547  20202271.454    20202271.174
  20202272.567          48.250          46.0004
 20  1  3  1 12 30.0000000  0  9G32G29G24G27G21G10G13G15G20
 127970200.733 6  99717036.844 6  24351919.108    24351918.877    24351922.963
  24351922.735          39.750          41.750
 129367139.064 7 100805431.240 6  24617713.233    24617713.716    24617713.147
  24617713.644          42.250          36.750
 123767730.320 6  96442389.005 7  23552216.242    23552216.412    23552220.215
  23552221.223          38.250          44.000
 118751502.458 7  92533642.084 8  22597659.846    22597659.840    22597663.238
  22597663.039          45.750          48.250
 109588290.527 8  85393474.02547  20853955.067    20853954.435
  20853955.559          49.000          45.7504
 114278373.657 8  89048085.085 8  21746448.827    21746449.139    21746452.558
  21746452.845          50.500          52.250
 126659885.992 6  98695863.58243  24102535.021    24102535.143
  24102536.805          38.500          23.5004
 113930399.886 8  88776793.791 8  21680197.924    21680198.090    21680199.191
  21680198.963          50.000          48.250
 106146434.105 8  82711510.88047  20198992.776    20198992.230
  20198993.662          48.250          46.0004
 20  1  3  1 13  0.0000000  0  9G32G29G24G27G21G10G13G15G20
 127859369.044 6  99630674.494 6  24330828.040    24330828.538    24330832.736
  24330832.812          39.750          41.250
 129484535.841 6 100896909.259 5  24640053.236    24640053.377    24640053.123
  24640054.041          39.500          34.000
 123688607.076 6  96380734.527 7  23537160.421    23537160.157    23537163.761
  23537164.433          39.000          44.500
 118704722.132 7  92497189.870 8  22588758.195    22588758.185    22588761.343
  22588761.441          46.250          48.250
 109595662.111 8  85399218.11347  20855357.958    20855357.267
  20855358.354          49.000          46.0004
 114221115.066 8  89003468.024 8  21735553.213    21735553.201    21735556.553
  21735556.967          50.750          52.000
 126759006.309 6  98773100.20843  24121397.285    24121397.191
  24121397.781          38.500          22.7504
 114004226.954 8  88834321.380 8  21694246.776    21694246.867    21694247.995
  21694247.828          50.000          48.500
 106129516.417 8  82698328.27247  20195773.677    20195772.830
  20195774.262          48.500          46.0004
 20  1  3  1 13 30.0000000  0  9G32G29G24G27G21G10G13G15G20
 127748631.502 6  99544385.483 6  24309755.379    24309755.317    24309760.161
  24309760.488          39.750          41.250
 129601947.614 6 100988398.974 5  24662395.802    24662395.634    24662397.862
  24662396.242          36.250          30.500
 123609754.978 6  96319291.354 7  23522153.216    23522153.910    23522159.060
  23522159.191          37.750          44.750
 118658491.440 7  92461165.965 8  22579960.554    22579960.689    22579963.951
  22579964.078          45.750          48.250
 109603379.643 8  85405231.76747  20856826.387    20856825.812
  20856827.038          49.250          46.0004
 114164090.675 8  88959033.427 8  21724701.544    21724701.515    21724705.020
  21724705.384          50.500          52.500
 126858386.573 6  98850539.36244  24140309.149    24140308.377
  24140310.015          38.750          24.0004
 114078490.754 8  88892189.272 8  21708378.639    21708378.777    21708379.950
  21708379.664          49.750          48.500
 106112912.465 8  82685390.13047  20192613.858    20192613.219
  20192614.564          48.750          46.0004
 20  1  3  1 14  0.0000000  0  8G32G24G27G21G10G13G15G20
 127637989.973 6  99458171.302 6  24288700.887    24288700.844    24288705.258
  24288705.885          39.000          41.500
 123531177.735 6  96258062.356 7  23507202.244    23507201.913    23507206.275
  23507206.255          39.250          44.500
 118612811.982 7  92425571.571 8  22571268.042    22571268.108    22571271.277
  22571271.249          46.000          48.250
 109611444.438 8  85411516.01847  20858361.015    20858360.739
  20858361.718          49.000          46.0004
 114107300.455 8  88914781.343 8  21713894.698    21713894.955    21713898.488
  21713898.898          50.750          52.250
 126958024.093 6  98928178.98243  24159268.725    24159269.372
  24159269.766          39.000          23.7504
 114153188.905 8  88950395.623 8  21722593.381    21722593.561    21722594.160
  21722594.149          50.000          48.000
 106096622.127 8  82672696.37047  20189513.808    20189513.225
  20189514.702          48.750          46.2504
 20  1  3  1 14 30.0000000  0  8G32G24G27G21G10G13G15G20
 127527446.219 6  99372033.329 7  24267664.829    24267665.451    24267669.723
  24267670.559          39.250          42.500
 123452877.614 6  96197049.280 7  23492301.505    23492301.678    23492306.324
  23492306.164          38.500          44.000
 118567684.824 7  92390407.543 8  22562680.724    22562680.705    22562684.119
  22562684.084          46.000          48.500
 109619856.498 8  85418070.86547  20859962.096    20859961.297
  20859962.588          49.250          46.0004
 114050744.196 8  88870711.519 8  21703132.298    21703132.540    21703135.913
  21703136.219          50.500          52.250
 127057915.264 6  99006016.26043  24178277.839    24178277.443
  24178280.212          39.500          22.5004
 114228318.085 8  89008937.850 8  21736889.956    21736889.894    21736890.929
  21736890.891          49.750          48.000
 106080644.848 8  82660246.54547  20186473.638    20186472.941
  20186474.340          48.500          46.0004
 20  1  3  1 15  0.0000000  0  8G32G24G27G21G10G13G15G20
 127417001.903 6  99285972.837 7  24246648.028    24246647.788    24246653.435
  24246653.230          39.250          42.750
 123374857.789 6  96136254.623 7  23477454.713    23477455.491    23477459.649
  23477459.360          39.250          43.250
 118523111.120 7  92355674.773 8  22554198.674    22554198.313    22554202.170
  22554202.148          46.000          48.750
 109628615.878 8  85424896.34947  20861628.720    20861628.164
  20861629.446          49.500          46.2504
 113994421.416 8  88826823.659 8  21692414.252    21692414.725    21692417.980
  21692418.429          50.500          52.250
 127158057.071 6  99084048.82843  24197335.056    24197334.778
  24197335.533          40.500          23.2504
 114303875.441 8  89067813.715 8  21751268.135    21751268.138    21751269.237
  21751269.014          50.000          48.000
 106064980.113 8  82648040.25547  20183492.780    20183492.083
  20183493.466          49.000          46.2504
 20  1  3  1 15 30.0000000  0  8G32G24G27G21G10G13G15G20
 127306659.493 6  99199991.747 6  24225650.937    24225651.063    24225655.534
  24225655.617          39.750          41.250
 123297122.080 6  96075681.338 7  23462662.308    23462662.400    23462666.543
  23462666.573          39.750          43.250
 118479092.904 7  92321374.852 8  22545822.057    22545822.121    22545825.540
  22545825.361          46.000          48.750
 109637724.135 8  85431993.68647  20863362.075    20863361.437
  20863362.659          49.500          46.2504
 113938333.162 8  88783118.516 8  21681741.450    21681741.548    21681745.021
  21681745.438          51.250          52.500
 127258447.410 6  99162275.07543  24216437.192    24216438.396
  24216438.411          39.500          23.0004
 114379858.208 8  89127021.059 8  21765727.123    21765727.364    21765728.407
  21765728.129          50.000          48.250
 106049628.394 8  82636077.87247  20180571.327    20180570.562
  20180572.027          48.500          46.0004
 20  1  3  1 16  0.0000000  0  8G32G24G27G21G10G13G15G20
 127196420.796 6  99114091.444 6  24204672.493    24204673.245    24204677.857
  24204677.953          40.000          41.000
 123219673.030 6  96015331.448 7  23447924.325    23447924.715    23447928.013
  23447928.404          39.750          42.500
 118435631.331 7  92287508.690 8  22537551.991    22537551.660    22537555.017
  22537555.039          46.500          48.500
 109647181.547 8  85439363.09547  20865161.590    20865161.157
  20865162.270          49.500          46.0004
 113882478.942 8  88739595.775 8  21671112.673    21671112.728    21671115.849
  21671116.460          51.000          52.000
 127359082.840 6  99240692.30443  24235587.846    24235587.606
  24235588.716          39.000          21.5004
 114456263.676 8  89186557.790 8  21780266.377    21780266.777    21780267.629
  21780267.587          50.000          48.000
 106034589.305 8  82624359.10047  20177709.397    20177708.823
  20177710.041          49.000          46.0004
 20  1  3  1 16 30.0000000  0  8G32G24G27G21G10G13G15G20
 127086289.107 6  99028274.545 6  24183715.208    24183715.633    24183719.716
  24183720.155          39.250          41.000
 123142514.377 6  95955207.777 7  23433241.489    23433242.265    23433244.962
  23433244.944          40.250          42.000
 118392729.157 7  92254078.409 8  22529387.918    22529387.821    22529390.932
  22529390.871          46.250          48.500
 109656990.252 8  85447006.22847  20867028.339    20867027.635
  20867028.768          49.500          46.0004
 113826860.324 8  88696256.588 8  21660528.723    21660528.714    21660532.445
  21660532.718          51.000          52.500
 127459961.756 6  99319299.26743  24254785.084    24254784.404
  24254784.812          39.000          20.2504
 114533090.635 8  89246422.950 7  21794886.342    21794886.310    21794887.201
  21794887.080          49.750          47.750
 106019864.218 8  82612885.01347  20174907.387    20174906.751
  20174908.140          49.250          46.0004
 20  1  3  1 17  0.0000000  0  8G32G24G27G21G10G13G15G20
 126976265.590 6  98942541.939 7  24162778.964    24162779.422    24162783.226
  24162783.202          40.500          42.000
 123065649.163 6  95895312.817 7  23418615.128    23418615.199    23418618.005
  23418618.645          40.250          42.000
 118350386.927 7  92221084.461 8  22521330.513    22521330.144    22521334.115
  22521333.851          46.500          48.500
 109667150.155 8  85454923.02847  20868961.740    20868960.940
  20868962.216          49.750          46.2504
 113771476.416 8  88653100.317 8  21649989.638    21649989.736    21649993.005
  21649993.357          51.250          52.500
 127561080.512 6  99398093.12543  24274027.059    24274026.827
  24274027.389          38.250          18.2504
 114610335.431 8  89306613.694 7  21809585.536    21809585.674    21809586.390
  21809586.445          50.000          47.750
 106005451.956 8  82601654.68447  20172164.646    20172164.061
  20172165.521          48.750          46.0004
 20  1  3  1 17 30.0000000  0  9G32G08G24G27G21G10G13G15G20
 126866352.761 6  98856895.583 7  24141863.269    24141864.043    24141868.186
  24141868.035          41.000          43.000
 130826574.514 6 101942783.020 5  24895468.326    24895468.740    24895472.614
  24895472.521          37.500          34.500
 122989080.657 6  95835649.027 7  23404044.580    23404044.497    23404048.196
  23404048.431          40.500          43.000
 118308606.502 7  92188528.282 8  22513379.924    22513379.522    22513383.305
  22513383.585          46.250          48.750
 109677662.155 8  85463114.19847  20870962.181    20870961.393
  20870962.745          50.250          46.2504
 113716327.810 8  88610127.374 8  21639495.189    21639495.448    21639498.702
  21639499.144          51.500          52.750
 127662436.747 6  99477072.00143  24293314.061    24293314.552
  24293315.963          37.250          20.0004
 114687995.486 8  89367128.030 8  21824363.763    21824363.775    21824364.849
  21824364.690          50.000          48.000
 105991352.802 8  82590668.33447  20169482.013    20169481.232
  20169482.580          48.750          46.0004
 20  1  3  1 18  0.0000000  0  8G32G24G27G21G10G13G15G20
 126756551.960 6  98771336.512 7  24120969.128    24120969.220    24120973.441
  24120973.651          40.750          43.250
 122912811.573 6  95776218.588 7  23389530.396    23389531.133    23389534.767
  23389534.778          40.500          43.500
 118267388.673 7  92156410.485 8  22505536.114    22505536.176    22505539.817
  22505539.809          46.250          48.500
 109688526.251 8  85471579.72147  20873029.547    20873028.919
  20873029.986          50.250          46.2504
 113661413.979 8  88567337.406 8  21629045.121    21629045.406    21629048.822
  21629049.263          51.000          52.250
 127764026.891 6  99556233.14543  24312646.432    24312646.254
  24312647.559          38.000          19.2504
 114766067.499 8  89427963.360 7  21839220.275    21839220.340    21839221.530
  21839221.238          49.500          47.750
 105977566.124 8  82579925.46547  20166858.353    20166857.563
  20166858.978          48.750          46.0004
 20  1  3  1 18 30.0000000  0  8G32G24G27G21G10G13G15G20
 126646866.487 6  98685867.329 7  24100096.241    24100096.509    24100101.273
  24100101.472          39.750          43.750
 122836845.905 6  95717024.564 7  23375074.487    23375075.540    23375079.238
  23375079.553          40.000          43.750
 118226736.028 7  92124733.089 8  22497800.199    22497800.313    22497803.518
  22497803.464          46.500          48.000
 109699744.491 8  85480321.20047  20875164.463    20875163.629
  20875164.648          49.750          46.2504
 113606736.241 8  88524731.365 8  21618640.542    21618640.812    21618643.600
  21618644.128          51.750          52.250
 127865849.816 6  99635575.68543  24332022.680    24332023.065
  24332023.320          38.500          21.2504
 114844550.029 8  89489118.574 7  21854155.373    21854155.066    21854156.234
  21854156.065          50.000          47.750
 105964092.984 8  82569426.91547  20164294.470    20164293.681
  20164295.171          49.000          46.0004
 20  1  3  1 19  0.0000000  0  8G32G24G27G21G10G13G15G20
 126537296.912 6  98600488.496 7  24079245.033    24079245.456    24079249.999
  24079250.356          39.000          43.250
 122761185.741 6  95658068.608 7  23360677.093    23360677.732    23360680.815
  23360680.883          41.000          42.750
 118186648.488 7  92093496.036 8  22490172.190    22490172.235    22490175.590
  22490175.446          47.250          48.250
 109711316.014 8  85489337.96447  20877366.356    20877365.540
  20877366.699          50.250          46.2504
 113552293.302 8  88482308.312 8  21608280.140    21608280.335    21608284.106
  21608284.487          51.500          52.750
 127967900.989 6  99715096.06843  24351443.058    24351442.948
  24351444.283          39.000          23.2504
 114923438.809 8  89550590.347 7  21869166.943    21869166.819    21869167.989
  21869168.046          49.500          47.500
 105950931.834 8  82559171.47747  20161789.945    20161789.410
  20161790.733          48.750          46.0004
 20  1  3  1 19 30.0000000  0  8G32G24G27G21G10G13G15G20
 126427846.976 6  98515202.841 7  24058417.684    24058417.915    24058421.808
  24058422.133          38.750          42.500
 122685835.753 6  95599354.303 7  23346338.343    23346339.460    23346342.890
  23346343.203          40.750          43.250
 118147129.104 7  92062701.700 8  22482651.699    22482651.498    22482655.200
  22482655.264          46.750          48.750
 109723243.272 8  85498631.92247  20879635.923    20879635.211
  20879636.388          50.500          46.5004
 113498086.977 8  88440069.615 8  21597965.301    21597965.500    21597968.611
  21597968.962          51.750          52.250
 128070179.363 6  99794793.50644  24370905.664    24370905.266
  24370906.720          39.250          24.0004
 115002732.737 8  89612377.819 7  21884256.059    21884256.271    21884256.897
  21884256.914          49.750          47.250
 105938084.265 8  82549160.38747  20159344.987    20159344.397
  20159345.949          49.000          46.0004
 20  1  3  1 20  0.0000000  0  8G32G24G27G21G10G13G15G20
 126318517.587 6  98430011.126 7  24037612.969    24037613.372    24037617.598
  24037617.974          40.500          42.250
 122610797.884 6  95540883.217 7  23332059.534    23332059.800    23332063.752
  23332063.212          40.500          43.250
 118108178.014 7  92032350.181 8  22475239.462    22475239.392    22475243.135
  22475242.679          47.250          48.750
 109735525.243 8  85508202.27947  20881973.106    20881972.387
  20881973.488          50.000          46.2504
 113444116.165 8  88398014.442 8  21587694.778    21587695.060    21587698.186
  21587698.763          51.750          52.500
 128172680.782 6  99874664.72444  24390410.997    24390410.877
  24390411.589          40.000          24.2504
 115082428.037 8  89674478.051 7  21899421.617    21899421.743    21899422.485
  21899422.638          49.250          47.250
 105925549.011 8  82539392.66447  20156959.685    20156959.105
  20156960.467          49.000          45.7504
 20  1  3  1 20 30.0000000  0  8G32G24G27G21G10G13G15G20
 126209311.670 6  98344915.590 7  24016832.467    24016832.410    24016837.186
  24016836.894          41.500          43.000
 122536076.446 6  95482658.728 7  23317840.686    23317840.645    23317844.880
  23317845.134          41.000          43.500
 118069797.409 7  92002443.212 8  22467935.872    22467935.667    22467939.493
  22467939.359          47.000          48.750
 109748163.956 8  85518050.62147  20884378.066    20884377.383
  20884378.635          50.000          46.2504
 113390381.930 8  88356143.605 8  21577469.574    21577469.861    21577473.162
  21577473.573          52.250          52.750
 128275403.327 6  99954708.25944  24409958.680    24409958.389
  24409959.607          40.500          24.0004
 115162522.584 8  89736889.391 7  21914662.835    21914663.222    21914664.084
  21914663.894          49.250          47.250
 105913327.071 8  82529869.07347  20154633.844    20154633.309
  20154634.632          49.000          46.0004
 20  1  3  1 21  0.0000000  0  9G32G24G08G27G21G10G13G15G20
 126100229.770 6  98259916.723 7  23996074.447    23996074.668    23996079.933
  23996079.564          41.250          43.500
 122461672.233 6  95424681.418 7  23303681.756    23303682.185    23303685.974
  23303686.491          40.750          44.000
 130228908.034 6 101477068.078 5  24781737.176    24781737.649    24781742.567
  24781740.762          36.750          35.750
 118031987.152 7  91972980.669 8  22460740.898    22460740.647    22460744.545
  22460744.138          47.000          48.500
 109761158.711 8  85528176.40047  20886851.115    20886850.277
  20886851.470          50.000          46.0004
 113336882.908 8  88314456.075 8  21567288.926    21567289.036    21567292.389
  21567292.747          51.500          52.500
 128378343.170 6 100034921.11543  24429547.543    24429547.434
  24429547.617          40.250          23.7504
 115243012.483 8  89799608.795 7  21929979.827    21929979.987    21929980.737
  21929980.733          49.250          47.000
 105901416.797 8  82520588.33747  20152367.433    20152366.868
  20152368.278          49.250          46.0004
 20  1  3  1 21 30.0000000  0  9G32G24G08G27G21G10G13G15G20
 125991275.656 6  98175017.440 7  23975342.040    23975341.799    23975346.560
  23975346.174          41.500          43.500
 122387590.287 6  95366955.228 7  23289584.070    23289584.474    23289588.257
  23289588.645          40.250          44.000
 130144849.105 6 101411567.600 6  24765741.921    24765742.106    24765746.518
  24765745.570          38.000          39.000
 117994750.205 7  91943964.851 8  22453654.734    22453654.583    22453658.245
  22453658.341          46.750          48.750
 109774511.683 8  85538581.31147  20889391.768    20889391.198
  20889392.405          49.750          46.0004
 113283620.985 8  88272953.270 8  21557153.723    21557153.876    21557157.306
  21557157.672          52.000          53.000
 128481498.946 6 100115302.24143  24449176.896    24449177.189
  24449178.051          39.750          22.7504
 115323896.505 8  89862635.311 7  21945371.596    21945371.905    21945372.804
  21945372.538          49.250          47.250
 105889819.632 8  82511551.58347  20150160.602    20150159.981
  20150161.457          49.250          46.0004
 20  1  3  1 22  0.0000000  0  9G32G24G08G27G21G10G13G15G20
 125882451.650 6  98090219.519 7  23954632.673    23954633.860    23954637.526
  23954637.046          41.750          43.000
 122313834.064 6  95309482.858 7  23275549.646    23275548.726    23275553.204
  23275552.502          41.250          43.750
 130061128.762 6 101346330.978 6  24749810.627    24749809.664    24749815.250
  24749813.520          38.750          38.250
 117958088.091 7  91915396.956 8  22446678.418    22446678.118    22446681.796
  22446681.673          47.500          48.500
 109788223.814 8  85549266.08347  20892000.977    20892000.631
  20892001.780          49.750          46.0004
 113230596.473 8  88231635.505 8  21547063.482    21547063.582    21547066.843
  21547067.341          51.750          52.750
 128584867.950 6 100195849.49543  24468848.199    24468847.558
  24468848.160          39.250          21.7504
 115405172.360 8  89925967.133 7  21960837.645    21960838.176    21960838.955
  21960839.014          49.500          47.500
 105878535.956 8  82502759.11147  20148013.589    20148012.837
  20148014.202          49.750          46.0004
 20  1  3  1 22 30.0000000  0  9G32G24G08G27G21G10G13G15G20
 125773758.408 7  98005523.489 7  23933948.964    23933950.263    23933953.650
  23933953.887          42.000          42.250
 122240405.747 6  95252265.997 7  23261575.803    23261576.446    23261580.201
  23261581.117          41.000          45.250
 129977747.747 6 101281358.739 6  24733943.072    24733943.038    24733948.704
  24733947.975          38.250          38.750
 117922000.653 7  91887276.869 8  22439811.259    22439811.039    22439814.390
  22439814.719          47.000          48.750
 109802294.258 8  85560230.06347  20894678.528    20894678.035
  20894679.221          49.750          46.0004
 113177808.145 8  88190501.730 8  21537018.043    21537018.227    21537021.403
  21537021.717          51.500          52.500
 128688446.279 6 100276559.87243  24488558.857    24488558.068
  24488558.697          39.000          19.7504
 115486835.557 8  89989600.786 7  21976377.786    21976377.997    21976378.886
  21976378.750          49.250          47.250
 105867564.371 8  82494209.82247  20145925.867    20145925.005
  20145926.313          49.250          45.7504
 20  1  3  1 23  0.0000000  0  9G32G24G08G27G21G10G13G15G20
 125665198.318 6  97920931.212 7  23913291.097    23913291.220    23913295.325
  23913294.967          41.750          42.500
 122167308.003 6  95195306.734 7  23247665.794    23247666.755    23247670.410
  23247671.173          41.500          45.750
 129894709.239 6 101216653.391 6  24718141.449    24718141.408    24718146.387
  24718146.768          38.500          39.500
 117886489.434 7  91859605.786 8  22433053.375    22433053.470    22433057.224
  22433057.028          47.250          48.750
 109816724.127 8  85571474.11147  20897424.630    20897424.072
  20897425.263          50.000          46.0004
 113125256.483 8  88149552.410 8  21527018.070    21527017.918    21527021.557
  21527021.786          51.750          53.250
 128792231.510 6 100357431.47143  24508308.428    24508308.028
  24508308.090          38.750          18.2504
 115568883.850 8  90053534.523 7  21991990.895    21991991.279    21991992.416
  21991992.145          49.500          47.250
 105856905.270 8  82485904.02947  20143897.308    20143896.702
  20143897.904          49.250          46.2504
 20  1  3  1 23 30.0000000  0  9G32G24G08G27G21G10G13G15G20
 125556774.452 6  97836445.102 7  23892658.209    23892658.734    23892663.407
  23892663.021          41.250          43.500
 122094545.595 7  95138608.764 7  23233820.456    23233820.640    23233823.828
  23233824.447          42.250          45.250
 129812016.799 6 101152217.685 6  24702406.564    24702405.792    24702410.965
  24702409.189          38.750          39.750
 117851556.701 7  91832385.461 8  22426406.231    22426406.189    22426409.984
  22426409.559          47.750          48.500
 109831514.941 8  85582999.41347  20900239.238    20900238.710
  20900239.802          50.250          45.7504
 113072942.685 8  88108788.414 8  21517062.814    21517063.095    21517066.244
  21517066.640          52.000          52.500
 128896221.760 6 100438462.84343  24528096.532    24528096.399
  24528096.571          38.000          18.2504
 115651315.675 8  90117767.109 7  22007677.076    22007677.513    22007678.700
  22007678.702          49.000          47.000
 105846559.187 8  82477842.14247  20141928.565    20141927.851
  20141929.209          49.500          46.0004
 20  1  3  1 24  0.0000000  0  9G32G24G08G27G21G10G13G15G20
 125448487.759 6  97752065.879 7  23872051.744    23872052.260    23872056.681
  23872057.591          41.250          43.500
 122022120.606 6  95082173.715 7  23220037.828    23220037.884    23220042.715
  23220042.771          41.750          45.250
 129729671.717 6 101088052.690 6  24686735.349    24686735.978    24686739.971
  24686739.955          37.750          39.000
 117817202.536 8  91805615.977 8  22419869.056    22419868.936    22419872.075
  22419872.329          48.000          48.500
 109846666.193 8  85594805.57447  20903122.400    20903121.765
  20903123.122          50.250          46.2504
 113020865.732 8  88068208.980 8  21507152.909    21507153.123    21507156.515
  21507156.940          51.750          53.000
 129000413.523 6 100519651.23043  24547924.108    24547924.649
  24547923.127          38.500          18.5004
 115734127.060 8  90182295.450 7  22023435.720    22023436.153    22023437.069
  22023436.917          49.000          46.750
 105836525.187 8  82470023.44247  20140019.163    20140018.388
  20140019.801          49.500          46.0004
 20  1  3  1 24 30.0000000  0  9G32G24G08G27G21G10G13G15G20
 125340341.225 6  97667795.868 7  23851472.621    23851472.773    23851476.958
  23851476.858          41.500          43.250
 121950036.309 6  95026004.124 7  23206320.541    23206321.000    23206325.561
  23206325.256          41.000          45.250
 129647676.966 6 101024160.676 6  24671132.476    24671131.722    24671137.386
  24671137.068          37.250          39.250
 117783428.971 7  91779298.897 8  22413441.735    22413442.014    22413445.441
  22413445.282          47.500          49.000
 109862179.656 8  85606893.97447  20906074.596    20906073.982
  20906075.202          50.000          46.0004
 112969026.738 8  88027814.976 8  21497288.169    21497288.361    21497291.675
  21497292.185          52.250          53.000
 129104804.790 6 100600995.05543  24567787.807    24567788.605
  24567788.873          38.500          18.2504
 115817316.112 8  90247118.100 7  22039266.432    22039266.379    22039267.598
  22039267.090          49.500          46.750
 105826804.148 8  82462448.60547  20138169.267    20138168.547
  20138169.926          49.500          46.0004
 20  1  3  1 25  0.0000000  0  9G32G24G08G27G21G10G13G15G20
 125232337.078 6  97583636.814 7  23830919.700    23830920.606    23830924.933
  23830925.264          41.750          43.750
 121878296.383 6  94970102.897 7  23192668.445    23192668.562    23192673.126
  23192673.185          39.750          44.250
 129566035.424 6 100960543.924 6  24655596.710    24655596.787    24655601.011
  24655601.421          36.750          39.250
 117750237.343 7  91753435.282 8  22407125.684    22407125.616    22407129.179
  22407129.328          47.500          48.750
 109878055.978 8  85619265.12647  20909095.688    20909095.081
  20909096.240          50.000          46.2504
 112917425.967 8  87987606.589 8  21487469.320    21487469.325    21487472.497
  21487472.801          52.750          53.000
 129209392.961 6 100682492.33543  24587691.219    24587690.701
  24587691.234          39.500          19.7504
 115900880.574 8  90312233.268 7  22055168.528    22055168.212    22055169.099
  22055169.103          49.750          46.750
 105817396.005 8  82455117.58847  20136379.007    20136378.318
  20136379.575          49.500          46.2504
 20  1  3  1 25 30.0000000  0  9G32G08G24G27G21G10G13G15G20
 125124475.362 7  97499588.754 7  23810394.998    23810395.034    23810399.112
  23810398.991          42.750          43.500
 129484742.384 6                  24640127.904
                        36.250
 121806901.649 6  94914470.632 7  23179083.755    23179082.717    23179086.524
  23179087.105          40.750          43.750
 117717626.780 7  91728024.443 8  22400920.412    22400920.076    22400923.573
  22400923.476          47.500          48.500
 109894294.002 8  85631918.12847  20912185.766    20912185.113
  20912186.304          50.500          46.2504
 112866061.578 8  87947582.407 8  21477694.545    21477694.668    21477698.216
  21477698.692          51.750          53.500
 129314173.466 6 100764139.48843  24607630.253    24607629.486
  24607630.976          39.750          20.5004
 115984815.405 8  90377637.024 7  22071140.215    22071140.441    22071141.186
  22071140.855          48.750          46.750
 105808298.818 8  82448028.87447  20134648.018    20134647.210
  20134648.420          49.750          46.0004
 20  1  3  1 26  0.0000000  0  9G32G08G24G27G21G10G13G15G20
 125016760.924 7  97415655.427 7  23789897.457    23789897.409    23789901.491
  23789901.118          43.000          42.750
 129403813.303 6 100834147.954 6  24624728.132    24624727.583    24624733.365
  24624732.821          38.250          40.750
 121735857.766 6  94859111.761 7  23165564.042    23165564.468    23165568.296
  23165567.988          41.500          44.000
 117685601.163 7  91703069.407 8  22394825.825    22394825.530    22394829.369
  22394829.491          47.250          48.750
 109910896.755 8  85644855.32647  20915345.413    20915344.676
  20915345.899          50.750          46.2504
 112814936.539 8  87907744.729 8  21467965.996    21467966.168    21467969.323
  21467969.655          52.750          53.000
 129419146.432 6 100845936.62243  24627606.208    24627604.961
  24627607.079          40.250          20.7504
 116069120.495 8  90443329.319 7  22087182.682    22087183.308    22087184.355
  22087183.735          49.000          46.750
 105799515.257 8  82441184.53847  20132976.205    20132975.669
  20132977.024          49.250          46.0004
 20  1  3  1 26 30.0000000  0  9G32G08G24G27G21G10G13G15G20
 124909194.109 7  97331837.121 7  23769428.092    23769428.328    23769432.897
  23769432.435          42.750          42.750
 129323244.248 6 100771366.833 6  24609396.859    24609396.336    24609400.440
  24609400.426          39.750          41.250
 121665166.424 6  94804027.594 7  23152112.029    23152112.148    23152115.424
  23152115.499          41.500          43.500
 117654159.889 7  91678569.700 8  22388842.761    22388842.554    22388845.928
  22388846.294          47.500          48.750
 109927863.326 8  85658076.02247  20918573.844    20918573.221
  20918574.472          50.500          46.2504
 112764049.283 8  87868092.327 8  21458282.157    21458282.449    21458285.813
  21458286.311          51.750          53.250
 129524307.198 6 100927880.05643  24647618.037    24647617.013
  24647617.987          40.000          21.2504
 116153791.622 8  90509306.821 7  22103295.071    22103295.586    22103296.370
  22103296.770          48.750          46.250
 105791043.623 8  82434583.26547  20131364.022    20131363.625
  20131364.906          49.500          46.0004
 20  1  3  1 27  0.0000000  0  9G32G08G24G27G21G10G13G15G20
 124801777.484 7  97248135.852 7  23748987.524    23748987.593    23748992.193
  23748991.741          42.000          43.250
 129243038.088 6 100708868.515 6  24594133.767    24594133.211    24594138.797
  24594138.448          39.500          41.250
 121594832.045 6  94749221.582 7  23138727.338    23138727.701    23138731.341
  23138731.484          40.750          44.500
 117623304.479 7  91654526.519 8  22382971.155    22382970.954    22382974.849
  22382974.486          47.500          49.000
 109945194.672 8  85671580.96147  20921871.950    20921871.361
  20921872.443          50.500          46.2504
 112713400.466 8  87828625.740 8  21448644.275    21448644.518    21448647.783
  21448647.955          52.500          53.250
 129629653.605 6 101009968.16343  24667664.323    24667663.682
  24667664.118          40.000          22.0004
 116238826.624 8  90575567.859 7  22119476.949    22119477.014    22119478.130
  22119478.150          49.000          46.250
 105782884.447 8  82428225.46547  20129811.829    20129810.983
  20129812.222          49.250          46.2504
 20  1  3  1 27 30.0000000  0  9G32G08G24G27G21G10G13G15G20
 124694513.166 7  97164553.289 7  23728575.504    23728576.071    23728579.722
  23728580.709          42.250          43.500
 129163196.831 6 100646654.557 6  24578940.554    24578940.021    24578945.515
  24578944.863          39.500          41.500
 121524856.789 6  94694695.424 7  23125410.299    23125411.439    23125415.466
  23125415.550          39.750          45.000
 117593036.092 7  91630940.760 8  22377211.364    22377211.303    22377214.602
  22377214.662          47.750          48.500
 109962891.660 8  85685370.81647  20925239.247    20925238.988
  20925240.189          50.500          46.2504
 112662990.288 8  87789345.088 8  21439051.439    21439051.288    21439054.835
  21439055.273          51.750          53.000
 129735183.110 6 101092198.94143  24687746.082    24687746.048
  24687746.675          39.750          21.7504
 116324222.689 8  90642110.246 7  22135727.252    22135727.430    22135728.455
  22135728.741          48.750          46.500
 105775037.733 8  82422111.14647  20128318.413    20128317.862
  20128319.113          49.500          46.0004
 20  1  3  1 28  0.0000000  0  9G32G08G24G27G21G10G13G15G20
 124587402.791 7  97081090.685 7  23708193.599    23708193.677    23708197.786
  23708197.564          42.250          43.750
 129083722.802 6 100584726.738 6  24563817.165    24563817.013    24563821.565
  24563821.094          39.500          40.500
 121455243.764 6  94640451.509 7  23112164.194    23112164.861    23112169.065
  23112168.798          40.750          45.250
 117563355.345 7  91607812.896 8  22371562.882    22371563.056    22371566.634
  22371566.741          47.750          48.750
 109980954.407 8  85699445.67847  20928676.883    20928676.019
  20928677.340          50.500          46.2504
 112612818.560 8  87750250.259 8  21429504.299    21429504.464    21429507.616
  21429507.955          52.750          53.000
 129840892.679 6 101174570.04043  24707861.492    24707862.192
  24707861.931          39.000          21.7504
 116409976.701 8  90708931.546 7  22152045.577    22152045.728    22152047.066
  22152046.706          48.500          46.500
 105767502.931 8  82416239.86847  20126884.800    20126883.984
  20126885.206          49.500          46.0004
 20  1  3  1 28 30.0000000  0  9G32G08G24G27G21G10G13G15G20
 124480449.041 7  96997750.123 7  23687840.850    23687841.076    23687845.410
  23687844.471          42.750          44.500
 129004619.001 6 100523087.410 6  24548764.249    24548763.779    24548767.763
  24548767.550          38.500          39.750
 121385995.869 6  94586492.128 7  23098987.043    23098987.229    23098991.544
  23098991.983          40.750          46.000
 117534263.791 8  91585144.153 8  22366027.597    22366027.380    22366030.750
  22366030.791          48.250          48.750
 109999384.005 8  85713806.39947  20932183.865    20932183.229
  20932184.387          50.500          46.5004
 112562885.976 8  87711341.756 8  21420002.259    21420002.265    21420005.478
  21420005.957          52.750          52.750
 129946780.405 6 101257079.93243  24728010.966    24728010.938
  24728012.172          39.500          21.5004
 116496086.503 8  90776030.087 7  22168431.772    22168432.011    22168433.256
  22168432.590          48.000          46.500
 105760280.584 8  82410612.06647  20125510.265    20125509.611
  20125510.843          49.000          46.0004
 20  1  3  1 29  0.0000000  0  9G32G08G24G27G21G10G13G15G20
 124373653.887 7  96914533.145 7  23667517.881    23667517.903    23667522.559
  23667522.846          42.500          43.500
 128925887.585 6 100461738.255 6  24533781.555    24533781.810    24533786.011
  24533785.357          38.000          39.250
 121317116.814 6  94532820.156 7  23085880.392    23085879.853    23085884.366
  23085884.916          41.000          45.500
 117505762.355 8  91562935.225 8  22360603.869    22360603.798    22360607.245
  22360606.998          48.250          48.500
 110018180.922 8  85728453.34647  20935760.963    20935760.141
  20935761.346          50.500          46.5004
 112513192.652 8  87672619.687 8  21410546.231    21410546.109    21410549.255
  21410549.800          52.750          53.500
 130052843.161 6 101339726.21343  24748194.220    24748193.837
  24748194.633          38.750          19.7504
 116582549.378 8  90843403.754 7  22184885.263    22184885.210    22184886.290
  22184886.377          48.500          46.250
 105753370.655 8  82405227.71247  20124195.149    20124194.682
  20124195.986          49.250          45.7504
 20  1  3  1 29 30.0000000  0  9G32G08G24G27G21G10G13G15G20
 124267019.563 7  96831441.473 7  23647226.251    23647226.384    23647230.782
  23647230.685          42.750          44.500
 128847531.214 6 100400681.336 6  24518871.169    24518870.512    24518875.743
  24518876.000          38.750          39.750
 121248609.174 6  94479437.561 7  23072843.683    23072843.905    23072847.920
  23072848.542          41.500          45.250
 117477852.175 8  91541187.032 8  22355292.958    22355292.731    22355296.009
  22355295.932          48.500          48.500
 110037345.804 8  85743387.01747  20939407.793    20939407.132
  20939408.213          50.500          46.2504
 112463738.954 8  87634084.356 8  21401135.018    21401135.224    21401138.584
  21401138.956          52.250          53.250
 130159078.803 6 101422507.25143  24768409.828    24768410.207
  24768410.853          37.750          19.2504
 116669362.818 8  90911050.591 7  22201405.015    22201405.174    22201406.828
  22201406.244          48.250          46.250
 105746773.545 8  82400087.10447  20122939.829    20122939.214
  20122940.706          49.250          45.7504
 20  1  3  1 30  0.0000000  0  9G32G08G24G27G21G10G13G15G20
 124160546.954 7  96748475.828 7  23626965.211    23626965.498    23626970.112
  23626969.722          43.000          44.750
 128769550.932 6 100339917.458 6  24504032.327    24504031.029    24504037.240
  24504036.446          39.000          41.000
 121180474.925 6  94426345.982 7  23059877.440    23059878.324    23059882.673
  23059882.614          40.500          45.000
 117450533.015 8  91519899.362 8  22350093.976    22350093.908    22350097.695
  22350097.187          48.250          49.000
 110056877.897 8  85758606.81947  20943124.668    20943124.000
  20943125.163          50.750          46.5004
 112414523.834 8  87595734.916 8  21391769.694    21391770.066    21391773.234
  21391773.833          52.500          53.250
 130265483.494 6 101505419.97643  24788658.676    24788658.159
  24788659.561          37.500          18.2504
 116756522.581 8  90978967.286 7  22217991.174    22217991.538    22217992.271
  22217992.256          48.250          46.000
 105740487.659 8  82395189.01347  20121743.880    20121743.210
  20121744.437          49.500          45.7504
 20  1  3  1 30 30.0000000  0  9G32G08G24G27G21G10G13G15G20
 124054238.784 7  96665638.305 7  23606735.880    23606735.942    23606740.426
  23606739.992          43.000          44.000
 128691950.456 6 100279449.532 6  24489265.178    24489265.772    24489270.055
  24489269.423          40.750          41.000
 121112718.377 7  94373548.635 7  23046984.477    23046984.453    23046988.473
  23046988.355          42.000          44.250
 117423806.486 8  91499073.492 8  22345008.031    22345008.004    22345011.516
  22345011.374          49.000          49.000
 110076778.745 8  85774113.97847  20946911.675    20946910.961
  20946912.149          50.500          46.2504
 112365548.164 8  87557572.067 8  21382450.111    21382450.214    21382453.333
  21382453.854          53.000          53.250
 130372055.164 6 101588462.81242  24808937.391    24808938.035
  24808938.450          37.500          17.5004
 116844027.252 8  91047152.745 7  22234642.762    22234643.156    22234643.750
  22234643.714          48.500          46.250
 105734513.437 8  82390533.77747  20120607.012    20120606.258
  20120607.586          48.750          46.0004
 20  1  3  1 31  0.0000000  0  9G32G08G24G27G21G10G13G15G20
 123948097.073 7  96582930.478 7  23586537.691    23586538.029    23586541.149
  23586541.524          42.750          43.250
 128614731.920 6 100219279.230 7  24474571.150    24474570.957    24474575.861
  24474575.327          39.250          42.000
 121045341.738 6  94321047.371 7  23034162.228    23034162.751    23034167.229
  23034167.425          40.250          45.000
 117397673.420 8  91478710.051 8  22340035.199    22340035.018    22340038.441
  22340038.840          49.000          49.000
 110097048.837 8  85789908.84847  20950768.704    20950768.144
  20950769.430          50.500          46.0004
 112316812.095 8  87519595.912 8  21373175.722    21373175.970    21373179.282
  21373179.823          52.500          53.250
 130478791.476 6 101671633.93743  24829248.734    24829248.932
  24829250.802          38.250          18.5004
 116931873.422 8  91115604.298 7  22251359.731    22251359.818    22251360.468
  22251360.121          48.750          46.000
 105728851.115 8  82386121.57647  20119529.389    20119528.779
  20119530.201          48.750          46.0004
 20  1  3  1 31 30.0000000  0  9G32G08G24G27G21G10G13G15G20
 123842125.337 7  96500355.112 7  23566371.593    23566371.698    23566375.950
  23566375.892          43.000          43.500
 128537898.964 6 100159409.384 6  24459949.734    24459949.925    24459954.327
  24459953.741          39.000          41.750
 120978349.824 6  94268845.865 7  23021415.610    23021414.915    23021418.922
  23021419.185          41.500          44.750
 117372136.176 8  91458810.889 8  22335175.663    22335175.433    22335179.093
  22335178.939          49.000          49.000
 110117690.010 8  85805992.88247  20954696.614    20954695.977
  20954697.340          50.250          46.0004
 112268317.252 8  87481807.740 8  21363947.454    21363947.665    21363951.182
  21363951.492          52.500          53.500
 130585690.807 6 101754932.11443  24849591.375    24849592.076
  24849592.873          38.750          18.2504
 117020059.789 8  91184320.947 7  22268140.831    22268140.751    22268142.273
  22268141.873          48.500          46.250
 105723501.940 8  82381953.38747  20118511.612    20118510.864
  20118512.044          48.750          46.0004
 20  1  3  1 32  0.0000000  0  9G32G08G24G27G21G10G13G15G20
 123736322.577 7  96417911.400 7  23546237.404    23546238.262    23546242.380
  23546241.729          42.250          43.500
 128461451.009 6 100099839.548 6  24445402.678    24445402.402    24445407.558
  24445406.717          40.250          41.500
 120911742.927 7  94216944.393 7  23008739.601    23008740.139    23008744.034
  23008744.435          42.000          45.500
 117347192.496 8  91439374.246 8  22330429.267    22330428.992    22330432.302
  22330432.394          49.250          49.000
 110138699.890 8  85822364.21047  20958694.842    20958694.085
  20958695.307          50.000          46.2504
 112220060.754 8  87444205.278 8  21354764.579    21354764.780    21354768.068
  21354768.414          52.500          53.250
 130692747.401 6 101838352.85642  24869964.521    24869963.861
  24869964.507          39.250          17.5004
 117108581.100 7  91253298.593 7  22284985.358    22284985.821    22284986.586
  22284986.494          47.500          45.750
 105718463.309 8  82378027.17647  20117552.715    20117552.077
  20117553.232          48.750          46.2504
 20  1  3  1 32 30.0000000  0  9G32G08G24G27G21G10G13G15G20
 123630693.050 7  96335602.705 7  23526136.620    23526137.216    23526142.088
  23526141.635          42.000          44.250
 128385392.890 6 100040573.493 6  24430929.364    24430929.216    24430933.341
  24430933.564          40.750          41.000
 120845525.969 6  94165346.767 7  22996139.225    22996139.704    22996143.413
  22996143.325          41.500          45.750
 117322845.549 8  91420402.578 8  22325795.759    22325795.942    22325799.683
  22325799.235          49.250          49.250
 110160081.269 8  85839025.01947  20962763.501    20962762.719
  20962764.186          50.000          46.2504
 112172045.042 8  87406790.451 8  21345627.834    21345627.869    21345631.089
  21345631.520          53.000          53.500
 130799961.067 6 101921895.98843  24890365.429    24890365.576
  24890366.905          39.250          19.2504
 117197436.729 7  91322536.754 7  22301894.054    22301894.688    22301895.684
  22301895.320          47.750          45.750
 105713737.133 8  82374344.44447  20116653.430    20116652.533
  20116653.914          48.500          46.0004
 20  1  3  1 33  0.0000000  0  9G32G08G24G27G21G10G13G15G20
 123525237.531 7  96253429.578 7  23506069.896    23506069.820    23506073.516
  23506074.110          43.250          44.250
 128309725.556 6  99981611.941 6  24416530.453    24416530.780    24416535.360
  24416534.333          41.000          41.500
 120779700.390 7  94114054.131 7  22983613.628    22983613.386    22983617.398
  22983617.565          42.000          46.000
 117299094.733 8  91401895.438 8  22321276.230    22321276.192    22321279.518
  22321279.569          49.250          49.000
 110181833.083 8  85855974.48047  20966902.482    20966902.029
  20966903.286          50.000          46.2504
 112124268.942 8  87369562.323 8  21336536.187    21336536.311    21336539.333
  21336539.846          52.750          53.250
 130907327.967 6 102005558.51742  24910796.529    24910797.973
  24910798.212          38.750          16.0004
 117286622.456 8  91392032.129 7  22318866.324    22318866.343    22318867.343
  22318866.908          48.500          46.000
 105709322.054 8  82370904.12547  20115813.083    20115812.488
  20115813.882          49.500          45.7504
 20  1  3  1 33 30.0000000  0  9G32G08G24G27G21G10G13G15G20
 123419959.463 7  96171394.745 7  23486035.357    23486036.185    23486040.291
  23486040.631          42.000          44.500
 128234452.671 6  99922957.723 7  24402206.449    24402206.015    24402211.609
  24402211.095          41.000          42.000
 120714270.443 6  94063069.743 7  22971161.942    22971162.535    22971167.003
  22971166.402          41.750          46.250
 117275942.334 8  91383854.597 8  22316870.471    22316870.395    22316873.939
  22316873.920          49.250          48.750
 110203957.455 8  85873214.24647  20971112.650    20971112.266
  20971113.389          50.000          46.2504
 112076734.085 8  87332522.183 8  21327490.403    21327490.608    21327493.801
  21327494.346          53.000          53.500
 131014847.092 6 102089339.69042  24931257.453    24931256.774
  24931258.336          38.500          17.7504
 117376137.200 8  91461783.872 7  22335900.187    22335900.109    22335901.279
  22335901.066          48.250          46.000
 105705219.471 8  82367707.30747  20115032.377    20115031.930
  20115033.119          48.750          46.0004
 20  1  3  1 34  0.0000000  0  9G32G08G24G27G21G10G13G15G20
 123314859.835 7  96089498.942 7  23466036.248    23466036.430    23466040.808
  23466040.526          42.500          44.500
 128159575.527 6  99864611.878 7  24387958.060    24387957.505    24387962.765
  24387962.529          40.500          42.250
 120649238.383 7  94012395.424 7  22958787.657    22958787.265    22958792.022
  22958791.808          42.500          46.250
 117253387.981 8  91366279.763 8  22312578.430    22312578.510    22312581.817
  22312581.992          49.250          49.250
 110226453.770 8  85890743.83947  20975393.877    20975393.098
  20975394.353          49.750          46.0004
 112029439.589 8  87295669.341 8  21318490.772    21318490.895    21318494.077
  21318494.500          52.750          53.750
 131122514.795 6 102173236.56243  24951745.944    24951744.912
  24951745.179          38.500          18.2504
 117465977.165 7  91531789.024 7  22352995.884    22352996.061    22352997.182
  22352997.147          47.500          46.000
 105701428.192 8  82364753.06647  20114310.994    20114310.313
  20114311.658          48.250          45.7504
 20  1  3  1 34 30.0000000  0  9G32G08G24G27G21G10G13G15G20
 123209941.396 7  96007744.340 7  23446070.794    23446071.041    23446075.498
  23446075.452          42.500          45.000
 128085097.424 6  99806576.963 7  24373785.165    24373784.810    24373788.716
  24373789.313          41.250          42.000
 120584607.158 6  93962033.435 7  22946488.594    22946488.337    22946492.448
  22946492.906          41.500          45.750
 117231433.142 8  91349172.095 8  22308400.488    22308400.649    22308403.895
  22308404.077          49.000          49.000
 110249323.208 8  85908564.17547  20979745.917    20979745.056
  20979746.204          50.000          46.0004
 111982386.326 8  87259004.457 8  21309536.841    21309536.925    21309540.104
  21309540.557          53.000          53.500
 131230328.936 6 102257247.61943  24972261.668    24972261.643
  24972262.846          38.250          18.7504
 117556140.287 7  91602045.996 7  22370152.996    22370153.345    22370154.900
  22370154.409          47.500          45.500
 105697949.081 8  82362042.07047  20113649.074    20113648.298
  20113649.531          48.500          45.7504
 20  1  3  1 35  0.0000000  0  9G32G08G24G27G21G10G13G15G20
 123105205.653 7  95926132.091 7  23426140.228    23426140.915    23426144.417
  23426144.776          43.250          44.000
 128011020.240 7  99748854.492 7  24359689.084    24359689.077    24359693.401
  24359693.239          42.000          42.500
 120520380.221 7  93911986.481 7  22934266.583    22934266.543    22934270.611
  22934270.433          42.000          46.000
 117210077.998 8  91332531.714 8  22304337.301    22304337.073    22304340.492
  22304340.481          49.750          49.000
 110272565.652 8  85926675.16347  20984168.496    20984167.946
  20984169.119          50.000          46.0004
 111935573.978 8  87222527.316 8  21300628.543    21300628.744    21300632.002
  21300632.441          52.750          53.750
 131338286.757 6 102341370.59343  24992806.166    24992805.882
  24992806.231          38.250          18.7504
 117646623.211 8  91672552.169 7  22387371.815    22387371.994    22387372.155
  22387372.485          48.000          45.250
 105694781.435 8  82359573.78047  20113046.283    20113045.545
  20113046.799          48.500          45.7504
 20  1  3  1 35 30.0000000  0  9G32G08G24G27G21G10G13G15G20
 123000654.449 7  95844663.614 7  23406244.912    23406245.292    23406249.332
  23406249.156          43.500          44.500
 127937345.672 7  99691445.723 6  24345669.325    24345669.408    24345672.878
  24345672.949          42.000          41.750
 120456560.372 6  93862256.721 7  22922121.583    22922122.030    22922125.996
  22922125.889          41.500          45.750
 117189323.046 8  91316359.016 8  22300387.434    22300387.082    22300390.791
  22300391.042          48.500          49.500
 110296181.396 8  85945077.03847  20988662.421    20988661.897
  20988663.129          50.000          46.2504
 111889002.560 8  87186237.909 8  21291766.469    21291766.480    21291769.690
  21291770.067          52.750          53.500
 131446385.232 6 102425603.13443  25013376.782    25013375.713
  25013376.919          38.000          18.7504
 117737423.101 8  91743305.322 7  22404650.564    22404650.701    22404652.296
  22404651.261          48.250          45.500
 105691925.155 8  82357348.10347  20112502.534    20112501.962
  20112503.261          48.750          46.0004
 20  1  3  1 36  0.0000000  0  9G32G08G24G27G21G10G13G15G20
 122896289.348 7  95763340.192 7  23386385.192    23386385.674    23386389.661
  23386389.055          43.250          45.000
 127864075.931 6  99634352.411 6  24331725.906    24331726.350    24331730.557
  24331730.022          41.000          41.750
 120393149.614 6  93812845.753 7  22910055.263    22910054.953    22910058.633
  22910058.907          41.750          44.250
 117169168.488 8  91300654.153 8  22296552.235    22296552.311    22296555.494
  22296555.625          49.250          49.500
 110320170.619 8  85963769.93447  20993227.595    20993226.892
  20993228.086          50.000          46.2504
 111842671.732 8  87150135.976 8  21282949.823    21282949.965    21282953.268
  21282953.809          52.750          53.750
 131554621.392 6 102509942.96842  25033973.458    25033973.160
  25033974.156          37.250          17.7504
 117828536.936 8  91814303.121 7  22421988.832    22421988.872    22421989.623
  22421989.512          48.000          45.000
 105689379.656 8  82355364.59747  20112018.369    20112017.591
  20112018.966          48.000          46.0004
 20  1  3  1 36 30.0000000  0  8G32G08G24G27G21G10G15G20
 122792113.174 7  95682163.948 7  23366561.235    23366560.935    23366564.915
  23366564.881          43.750          44.500
 127791213.836 6  99577576.749 6  24317861.084    24317860.051    24317865.498
  24317864.926          40.250          41.250
 120330151.628 6  93763756.388 7  22898066.856    22898066.901    22898070.669
  22898070.466          41.500          46.000
 117149615.744 8  91285418.239 8  22292831.561    22292831.297    22292834.747
  22292835.055          49.250          49.500
 110344534.360 8  85982754.66047  20997863.835    20997863.086
  20997864.290          50.250          46.0004
 111796582.527 8  87114222.311 9  21274179.368    21274179.587    21274182.802
  21274183.108          52.500          54.000
 117919962.622 7  91885543.914 7  22439386.363    22439386.926    22439387.982
  22439387.032          47.500          45.250
 105687145.695 8  82353623.84247  20111593.142    20111592.508
  20111593.794          48.250          45.7504
 20  1  3  1 37  0.0000000  0  8G32G08G24G27G21G10G15G20
 122688128.272 7  95601136.772 7  23346773.371    23346773.955    23346777.921
  23346777.461          44.000          44.500
 127718762.474 6  99521121.143 6  24304073.855    24304072.948    24304077.845
  24304078.298          40.250          41.000
 120267569.508 6  93714991.143 7  22886158.107    22886158.014    22886162.626
  22886162.287          41.250          46.500
 117130665.767 8  91270652.013 8  22289225.245    22289225.142    22289228.969
  22289228.939          48.500          49.750
 110369273.291 8  86002031.74347  21002571.537    21002570.855
  21002572.004          50.500          46.0004
 111750735.376 8  87078497.269 9  21265455.089    21265455.176    21265458.757
  21265458.873          52.500          54.000
 118011698.031 7  91957026.044 7  22456843.159    22456843.680    22456844.430
  22456844.257          47.500          45.250
 105685223.630 8  82352126.12647  20111227.182    20111226.739
  20111228.043          48.000          45.7504
 20  1  3  1 37 30.0000000  0  8G32G08G24G27G21G10G15G20
 122584336.352 7  95520259.971 7  23327022.296    23327022.773    23327026.462
  23327026.553          43.250          44.500
 127646723.556 6  99464986.904 7  24290364.503    24290364.571    24290370.117
  24290369.213          41.250          42.000
 120205405.909 6  93666551.997 7  22874328.370    22874328.238    22874332.325
  22874332.686          40.750          45.750
 117112318.834 8  91256355.700 8  22285734.225    22285734.019    22285737.931
  22285737.519          49.000          50.000
 110394388.100 8  86021601.71547  21007350.706    21007349.952
  21007351.222          50.000          46.0004
 111705130.278 8  87042960.828 8  21256776.667    21256776.748    21256780.026
  21256780.438          52.500          53.750
 118103739.869 8  92028746.964 7  22474358.521    22474358.486    22474359.798
  22474359.111          48.000          45.250
 105683613.175 7  82350871.21647  20110920.784    20110920.236
  20110921.676          46.750          45.7504
 20  1  3  1 38  0.0000000  0  8G32G08G24G27G21G10G15G20
 122480739.129 7  95439534.873 7  23307308.439    23307308.472    23307312.082
  23307312.376          42.500          44.250
 127575099.217 7  99409175.729 7  24276735.992    24276735.678    24276740.499
  24276740.560          42.750          42.500
 120143663.255 6  93618440.815 7  22862579.533    22862579.431    22862583.631
  22862583.641          41.000          45.500
 117094575.219 8  91242529.499 8  22282357.860    22282357.299    22282360.920
  22282360.935          48.500          49.250
 110419878.146 8  86041464.08447  21012201.223    21012200.526
  21012201.798          50.000          46.2504
 111659767.042 8  87007612.853 8  21248144.460    21248144.587    21248147.914
  21248148.183          52.500          53.750
 118196085.314 7  92100704.438 7  22491931.087    22491931.334    22491932.207
  22491932.130          47.500          45.500
 105682313.902 8  82349858.79547  20110673.707    20110672.976
  20110674.361          48.000          45.5004
 20  1  3  1 38 30.0000000  0  8G32G08G24G27G21G10G15G20
 122377338.919 7  95358963.305 7  23287631.615    23287632.021    23287636.299
  23287636.167          43.500          44.750
 127503891.777 7  99353689.396 7  24263185.487    24263185.615    24263189.996
  24263189.764          42.750          43.000
 120082345.079 6  93570660.418 7  22850910.278    22850910.924    22850914.880
  22850915.182          40.750          45.500
 117077435.716 8  91229174.039 8  22279096.232    22279096.009    22279099.689
  22279099.596          48.500          49.750
 110445744.248 8  86061619.48847  21017123.383    21017122.717
  21017123.970          50.000          46.0004
 111614646.126 8  86972453.716 8  21239558.077    21239558.214    21239561.439
  21239561.886          52.500          53.500
 118288731.999 7  92172896.646 7  22509561.206    22509561.098    22509562.683
  22509562.058          47.500          45.750
 105681326.170 8  82349089.13147  20110485.474    20110484.921
  20110486.370          48.250          45.7504
 20  1  3  1 39  0.0000000  0  9G32G08G24G13G27G21G10G15G20
 122274137.301 7  95278546.465 7  23267993.369    23267993.710    23267997.114
  23267997.110          43.750          44.750
 127433103.293 7  99298529.544 7  24249715.223    24249714.546    24249719.510
  24249719.014          42.500          42.500
 120021453.638 6  93523212.577 7  22839323.162    22839323.283    22839329.118
  22839327.584          40.000          46.750
 132206597.689 6 103018131.39742  25158079.971    25158079.288
  25158079.825          38.500          17.7504
 117060900.472 8  91216289.433 8  22275949.581    22275949.187    22275952.975
  22275952.898          48.250          49.250
 110471987.041 8  86082068.41447  21022117.127    21022116.488
  21022117.934          49.750          45.7504
 111569767.389 8  86937483.281 8  21231017.904    21231018.155    21231021.176
  21231021.617          52.500          53.500
 118381676.525 7  92245320.951 7  22527247.948    22527247.751    22527249.048
  22527248.899          47.750          45.250
 105680649.245 8  82348561.65347  20110356.824    20110356.185
  20110357.654          48.500          45.7504
 20  1  3  1 39 30.0000000  0  9G32G08G24G13G27G21G10G15G20
 122171136.680 7  95198286.250 7  23248393.056    23248393.293    23248396.852
  23248396.874          43.750          45.000
 127362736.551 7  99243698.318 7  24236325.234    24236324.479    24236328.751
  24236328.857          43.500          42.500
 119960991.945 6  93476099.574 7  22827817.715    22827817.901    22827820.994
  22827821.826          41.000          43.750
 132315732.280 6 103103171.30942  25178847.596    25178846.979
  25178848.403          38.000          16.0004
 117044970.349 8  91203876.338 8  22272917.858    22272917.923    22272921.745
  22272921.956          48.250          49.750
 110498606.684 8  86102810.98347  21027182.714    21027182.100
  21027183.408          49.750          46.0004
 111525131.351 8  86902701.957 9  21222523.990    21222524.072    21222527.433
  21222527.739          52.500          54.000
 118474917.018 7  92317975.876 7  22544990.775    22544990.974    22544992.173
  22544992.120          47.750          44.750
 105680283.749 8  82348276.84447  20110287.163    20110286.675
  20110288.081          48.000          45.7504
 20  1  3  1 40  0.0000000  0  9G32G08G24G13G27G21G10G15G20
 122068338.952 7  95118184.138 7  23228831.361    23228831.294    23228835.405
  23228835.631          43.500          45.750
 127292793.385 7  99189197.165 7  24223014.803    24223014.288    24223019.261
  24223019.342          42.500          43.250
 119900962.863 6  93429323.644 7  22816394.858    22816394.779    22816399.392
  22816399.213          40.500          46.250
 132424985.312 6 103188303.52742  25199637.915    25199637.980
  25199638.389          38.500          16.7504
 117029645.627 7  91191934.979 8  22270002.130    22270001.536    22270005.418
  22270005.552          47.500          50.000
 110525603.390 8  86123847.36547  21032320.047    21032319.317
  21032320.822          49.500          46.0004
 111480738.085 8  86868109.808 8  21214076.366    21214076.297    21214079.466
  21214079.989          52.000          53.750
 118568450.331 7  92390858.965 7  22562789.768    22562790.261    22562791.183
  22562790.768          47.750          44.250
 105680229.863 7  82348234.84547  20110277.040    20110276.404
  20110277.832          47.750          45.7504
 20  1  3  1 40 30.0000000  0  9G32G08G24G13G27G21G10G15G20
 121965745.881 7  95038241.498 7  23209308.394    23209309.024    23209312.188
  23209312.836          43.750          45.500
 127223275.859 6  99135027.650 7  24209784.960    24209785.102    24209790.013
  24209790.504          40.750          43.500
 119841369.336 6  93382887.144 7  22805053.952    22805054.617    22805058.677
  22805058.657          41.000          45.750
 132534354.020 6 103273525.90042  25220449.993    25220449.696
  25220450.445          39.000          15.5004
 117014926.670 7  91180465.650 8  22267200.730    22267200.764    22267204.621
  22267204.452          47.750          49.500
 110552977.585 8  86145177.90347  21037529.226    21037528.484
  21037529.999          49.750          46.0004
 111436587.612 8  86833706.847 8  21205674.634    21205674.636    21205677.953
  21205678.394          52.500          53.750
 118662273.656 7  92463968.046 7  22580643.743    22580643.985    22580644.893
  22580644.793          47.500          44.500
 105680487.079 8  82348435.26947  20110326.104    20110325.370
  20110326.881          48.000          45.7504
 20  1  3  1 41  0.0000000  0  9G32G08G24G13G27G21G10G15G20
 121863358.946 7  94958459.506 7  23189824.781    23189824.871    23189829.339
  23189829.161          43.750          45.750
 127154185.901 7  99081191.307 7  24196638.007    24196637.857    24196643.477
  24196642.613          42.500          43.250
 119782213.440 7  93336791.657 7  22793797.566    22793797.865    22793801.781
  22793802.015          42.250          46.000
 132643835.248 6 103358835.92142  25241283.905    25241283.337
  25241283.082          37.750          16.0004
 117000813.285 8  91169468.209 8  22264515.121    22264515.173    22264519.244
  22264519.162          48.000          50.000
 110580729.211 8  86166802.54547  21042810.153    21042809.517
  21042810.817          49.750          46.0004
 111392679.574 8  86799492.796 8  21197319.264    21197319.323    21197322.424
  21197322.945          52.750          53.750
 118756384.016 7  92537300.781 7  22598551.916    22598552.298    22598553.600
  22598553.545          47.000          45.000
 105681054.820 8  82348877.65947  20110434.302    20110433.287
  20110434.768          48.500          45.5004
 20  1  3  1 41 30.0000000  0  9G32G08G24G13G27G21G10G15G20
 121761180.734 7  94878840.134 7  23170380.592    23170380.836    23170384.889
  23170384.974          42.750          45.750
 127085526.003 7  99027690.073 7  24183572.774    24183572.497    24183577.381
  24183576.652          42.250          43.250
 119723498.088 6  93291039.425 7  22782623.478    22782624.542    22782628.581
  22782628.603          41.250          46.750
 132753427.243 6 103444232.28642  25262138.544    25262137.695
  25262138.366          36.500          13.2504
 116987306.472 7  91158943.408 8  22261944.917    22261944.767    22261948.646
  22261948.693          47.500          50.000
 110608858.808 8  86188721.70547  21048162.825    21048162.222
  21048163.707          49.750          46.0004
 111349014.778 8  86765468.279 9  21189010.062    21189010.280    21189013.323
  21189013.853          52.250          54.000
 118850779.052 7  92610855.353 7  22616514.945    22616514.947    22616516.521
  22616516.200          46.750          45.000
 105681933.511 8  82349562.34447  20110601.407    20110600.657
  20110602.008          49.000          45.7504
 20  1  3  1 42  0.0000000  0  9G32G08G24G13G27G21G10G15G20
 121659213.819 7  94799385.430 7  23150976.507    23150977.121    23150981.438
  23150981.545          42.750          45.500
 127017299.228 6  98974526.331 7  24170589.363    24170589.213    24170595.017
  24170594.791          41.750          43.250
 119665227.198 7  93245633.558 7  22771536.515    22771536.437    22771539.891
  22771540.394          42.250          46.000
 132863128.170 6 103529713.54142  25283013.724    25283012.626
  25283014.752          36.250          16.0004
 116974407.242 8  91148892.051 8  22259490.617    22259490.445    22259493.716
  22259494.014          48.000          49.500
 110637367.639 8  86210936.37047  21053588.078    21053587.383
  21053588.747          49.500          45.7504
 111305594.058 8  86731633.959 8  21180747.448    21180747.507    21180750.366
  21180751.129          52.500          53.750
 118945456.727 7  92684630.147 7  22634531.563    22634531.641    22634532.909
  22634532.497          47.250          44.750
 105683123.870 7  82350489.88947  20110827.773    20110827.141
  20110828.519          47.500          45.5004
 20  1  3  1 42 30.0000000  0  8G32G08G24G27G21G10G15G20
 121557458.377 7  94720095.496 7  23131613.554    23131614.062    23131618.051
  23131618.173          43.500          45.250
 126949505.889 7  98921700.345 7  24157689.082    24157688.992    24157694.275
  24157692.945          42.500          43.000
 119607401.888 6  93200574.877 7  22760532.144    22760532.404    22760535.562
  22760536.280          41.500          45.500
 116962113.987 7  91139312.883 8  22257150.895    22257151.102    22257154.231
  22257154.782          47.750          49.500
 110666253.982 8  86233445.20347  21059085.105    21059084.244
  21059085.541          50.000          46.0004
 111262415.670 8  86697988.470 8  21172530.782    21172530.972    21172534.305
  21172534.561          52.750          53.750
 119040412.679 7  92758621.815 7  22652601.314    22652601.642    22652602.740
  22652602.000          47.750          44.500
 105684623.894 7  82351658.73647  20111113.332    20111112.569
  20111114.013          47.000          46.0004
 20  1  3  1 43  0.0000000  0  8G32G08G24G27G21G10G15G20
 121455917.880 7  94640973.026 7  23112291.354    23112291.688    23112294.886
  23112294.885          44.000          44.750
 126882149.416 7  98869214.799 7  24144872.119    24144872.065    24144876.050
  24144875.335          43.250          42.750
 119550025.991 6  93155866.394 7  22749613.885    22749613.824    22749618.312
  22749618.383          41.750          47.000
 116950428.670 7  91130207.437 8  22254927.369    22254927.263    22254930.812
  22254930.996          47.750          49.500
 110695520.083 8  86256249.95547  21064654.067    21064653.418
  21064654.885          49.750          46.0004
 111219481.461 8  86664533.240 8  21164360.738    21164360.781    21164364.112
  21164364.418          52.500          53.750
 119135645.700 7  92832829.359 7  22670723.243    22670723.602    22670724.535
  22670724.129          47.500          44.250
 105686435.368 8  82353070.27847  20111457.865    20111457.335
  20111458.744          48.250          45.7504
 20  1  3  1 43 30.0000000  0  8G32G08G24G27G21G10G15G20
 121354593.275 7  94562018.803 7  23093009.775    23093010.418    23093013.636
  23093013.839          43.750          44.750
 126815231.462 7  98817070.952 7  24132137.808    24132137.272    24132141.897
  24132141.858          43.000          42.750
 119493101.286 6  93111509.474 7  22738781.251    22738781.545    22738785.199
  22738785.668          41.750          45.250
 116939350.486 8  91121575.077 8  22252819.057    22252819.312    22252823.064
  22252822.916          48.250          50.000
 110725164.458 8  86279349.46247  21070295.254    21070294.589
  21070296.006          49.750          45.7504
 111176790.504 8  86631267.560 8  21156236.923    21156236.931    21156240.311
  21156240.630          52.750          53.750
 119231152.201 7  92907250.002 7  22688897.605    22688897.790    22688899.094
  22688898.529          47.500          44.500
 105688556.914 8  82354723.42747  20111861.842    20111860.941
  20111862.445          48.250          45.7504
 20  1  3  1 44  0.0000000  0  8G32G08G24G27G21G10G15G20
 121253487.161 7  94483234.822 7  23073770.319    23073770.255    23073773.514
  23073773.669          44.500          45.250
 126748754.783 7  98765270.931 7  24119487.495    24119487.047    24119491.818
  24119491.338          42.500          43.000
 119436630.948 7  93067506.610 7  22728035.524    22728035.459    22728039.085
  22728039.654          42.500          45.500
 116928880.311 8  91113416.484 8  22250826.577    22250826.686    22250830.106
  22250830.326          48.000          49.500
 110755188.636 8  86302744.92147  21076008.682    21076008.084
  21076009.421          49.750          46.0004
 111134343.668 8  86598192.118 9  21148159.535    21148159.696    21148162.874
  21148163.280          52.750          54.000
 119326929.807 7  92981881.908 7  22707123.757    22707123.925    22707124.940
  22707124.633          47.750          44.500
 105690989.422 8  82356618.88447  20112324.582    20112323.889
  20112325.290          48.750          45.7504
 20  1  3  1 44 30.0000000  0  8G32G08G24G27G21G10G15G20
 121152601.554 7  94404622.673 7  23054571.830    23054572.360    23054576.426
  23054575.900          43.750          45.500
 126682721.066 7  98713816.101 7  24106921.806    24106921.804    24106926.080
  24106925.788          42.500          43.250
 119380617.973 6  93023860.141 7  22717376.122    22717377.319    22717380.602
  22717381.002          41.500          45.750
 116919018.477 7  91105731.930 8  22248950.351    22248950.126    22248953.849
  22248953.455          47.750          49.750
 110785592.829 8  86326436.50147  21081794.482    21081793.838
  21081795.203          50.000          46.0004
 111092141.221 8  86565307.104 9  21140128.575    21140128.706    21140132.098
  21140132.335          52.750          54.000
 119422976.582 7  93056723.551 7  22725400.539    22725400.638    22725401.994
  22725402.030          47.250          44.500
 105693733.014 8  82358756.74447  20112846.583    20112846.070
  20112847.382          48.500          45.7504
 20  1  3  1 45  0.0000000  0  8G32G08G24G27G21G10G15G20
 121051938.351 7  94326183.829 7  23035416.584    23035416.866    23035420.672
  23035420.485          43.500          46.000
 126617132.799 7  98662708.348 7  24094440.245    24094440.159    24094445.235
  24094444.780          42.500          43.750
 119325064.841 6  92980572.000 7  22706804.304    22706805.053    22706809.325
  22706809.414          41.500          45.750
 116909765.103 8  91098521.505 8  22247189.586    22247189.076    22247192.653
  22247192.778          48.250          49.250
 110816377.298 8  86350424.39647  21087652.604    21087651.982
  21087653.173          49.500          46.0004
 111050183.270 8  86532612.600 9  21132144.260    21132144.352    21132147.463
  21132148.010          52.500          54.000
 119519289.344 7  93131772.435 7  22743728.361    22743728.345    22743729.509
  22743729.579          47.500          44.250
 105696787.287 8  82361136.68147  20113427.652    20113427.065
  20113428.577          48.750          45.7504
 20  1  3  1 45 30.0000000  0  8G32G08G24G27G21G10G15G20
 120951498.549 7  94247919.062 7  23016303.027    23016303.249    23016307.397
  23016307.476          43.500          46.000
 126551991.274 7  98611948.698 7  24082044.812    24082044.208    24082049.174
  24082048.903          42.500          42.750
 119269973.128 7  92937643.395 7  22696322.012    22696322.005    22696326.533
  22696326.079          43.000          47.500
 116901119.417 7  91091784.600 8  22245543.887    22245543.675    22245547.605
  22245547.501          47.500          49.250
 110847541.286 8  86374708.02147  21093583.153    21093582.278
  21093583.525          49.500          46.0004
 111008469.050 8  86500108.015 9  21124206.337    21124206.409    21124209.745
  21124210.051          52.750          54.000
 119615864.627 7  93207025.875 7  22762105.848    22762106.095    22762107.233
  22762107.622          47.000          44.250
 105700151.530 8  82363758.16547  20114068.255    20114067.396
  20114068.876          48.750          45.7504
 20  1  3  1 46  0.0000000  0  8G32G08G24G27G21G10G15G20
 120851284.569 7  94169830.271 7  22997233.368    22997233.477    22997237.500
  22997237.147          44.000          46.000
 126487298.926 7  98561539.071 7  24069734.168    24069733.553    24069738.673
  24069738.944          43.250          43.250
 119215346.704 7  92895077.345 7  22685926.932    22685926.311    22685931.335
  22685930.817          43.250          47.500
 116893082.133 8  91085521.767 8  22244014.795    22244014.593    22244017.943
  22244018.052          49.000          49.250
 110879085.868 8  86399288.20947  21099585.523    21099585.087
  21099586.247          50.000          46.0004
 110966999.295 8  86467793.922 9  21116314.839    21116314.992    21116317.994
  21116318.694          53.000          54.250
 119712700.323 7  93282482.251 7  22780533.554    22780533.517    22780534.416
  22780534.748          47.500          43.750
 105703826.143 8  82366621.49647  20114767.539    20114766.545
  20114768.104          48.250          45.7504
 20  1  3  1 46 30.0000000  0  8G32G08G24G27G21G10G15G20
 120751299.131 7  94091919.555 7  22978206.399    22978206.381    22978210.612
  22978210.984          44.000          45.500
 126423058.666 7  98511481.736 7  24057509.561    24057509.202    24057514.241
  24057513.539          43.250          43.250
 119161188.106 7  92852875.861 7  22675620.191    22675619.894    22675624.757
  22675625.013          43.000          47.000
 116885654.011 8  91079733.621 8  22242601.481    22242601.319    22242604.955
  22242604.785          49.000          49.250
 110911011.176 8  86424165.06947  21105660.775    21105660.213
  21105661.520          49.750          46.0004
 110925774.957 8  86435671.075 9  21108470.132    21108470.229    21108473.631
  21108474.055          53.250          54.500
 119809794.291 7  93358139.886 7  22799009.738    22799009.780    22799010.702
  22799010.485          46.750          43.750
 105707811.584 8  82369727.02847  20115525.862    20115525.009
  20115526.536          48.250          45.7504
 20  1  3  1 47  0.0000000  0  8G32G08G24G27G21G10G15G20
 120651543.457 7  94014187.860 7  22959223.298    22959223.917    22959227.313
  22959227.482          44.000          45.500
 126359271.538 7  98461777.475 7  24045371.612    24045370.888    24045375.839
  24045375.819          43.000          43.250
 119107499.802 7  92811040.843 7  22665403.429    22665403.850    22665408.520
  22665408.023          43.250          47.000
 116878834.577 8  91074419.765 8  22241303.779    22241303.517    22241307.306
  22241307.369          49.000          49.750
 110943317.170 8  86449338.56447  21111808.489    21111807.845
  21111809.134          50.250          46.0004
 110884795.510 8  86403739.041 9  21100671.941    21100672.140    21100675.158
  21100675.827          53.250          54.000
 119907143.392 7  93433996.333 7  22817534.692    22817534.952    22817535.807
  22817535.375          47.750          43.750
 105712107.281 8  82373074.32847  20116343.111    20116342.548
  20116344.014          48.250          45.5004
 20  1  3  1 47 30.0000000  0  8G32G08G24G27G21G10G15G20
 120552019.107 7  93936636.416 7  22940284.724    22940285.145    22940288.359
  22940288.965          44.000          45.250
 126295939.641 7  98412427.925 7  24033319.694    24033319.646    24033323.800
  24033324.371          43.000          43.250
 119054283.792 7  92769573.803 7  22655276.705    22655277.226    22655281.928
  22655281.630          42.500          47.000
 116872623.503 8  91069579.949 8  22240121.536    22240121.513    22240125.259
  22240125.481          49.250          50.250
 110976003.752 8  86474808.62347  21118028.613    21118027.858
  21118029.040          50.000          45.7504
 110844060.805 8  86371997.723 9  21092920.280    21092920.432    21092923.822
  21092924.166          52.750          54.250
 120004744.716 7  93510049.311 7  22836107.424    22836107.258    22836108.759
  22836108.736          47.000          43.500
 105716713.084 8  82376663.26547  20117219.435    20117219.053
  20117220.410          48.000          45.7504
 20  1  3  1 48  0.0000000  0  8G32G08G24G27G21G10G15G20
 120452728.289 7  93859266.974 7  22921390.244    22921390.831    22921394.514
  22921394.393          44.250          46.250
 126233065.033 7  98363434.718 7  24021355.340    24021355.141    24021359.525
  24021358.437          43.250          43.500
 119001542.922 6  92728477.032 7  22645239.938    22645240.977    22645244.695
  22645244.936          41.750          45.750
 116867021.091 8  91065214.439 8  22239055.526    22239055.423    22239058.933
  22239059.016          49.000          49.500
 111009071.532 8  86500575.71747  21124321.214    21124320.576
  21124321.694          50.500          46.0004
 110803571.330 8  86340447.486 9  21085215.508    21085215.664    21085218.974
  21085219.285          53.250          54.250
 120102595.691 7  93586296.817 7  22854728.184    22854728.188    22854729.361
  22854728.814          46.750          43.750
 105721629.060 8  82380493.89147  20118155.134    20118154.315
  20118155.786          48.000          45.7504
 20  1  3  1 48 30.0000000  0  8G32G08G24G27G21G10G15G20
 120353673.326 7  93782081.278 7  22902540.838    22902541.247    22902544.846
  22902544.966          44.750          46.250
 126170650.256 7  98314799.808 7  24009478.184    24009477.614    24009482.058
  24009481.899          43.000          43.000
 118949280.354 7  92687752.975 7  22635296.223    22635295.822    22635299.371
  22635299.610          44.500          45.500
 116862027.822 8  91061323.568 8  22238105.239    22238105.037    22238109.127
  22238108.922          48.250          49.500
 111042521.116 8  86526640.31947  21130686.438    21130685.704
  21130687.063          50.250          45.7504
 110763327.707 8  86309088.828 9  21077557.525    21077557.513    21077560.549
  21077561.173          53.250          54.000
 120200694.260 7  93662737.229 7  22873395.484    22873395.267    22873396.457
  22873396.760          46.500          44.000
 105726855.579 8  82384566.50147  20119149.896    20119149.005
  20119150.420          48.000          46.0004
 20  1  3  1 49  0.0000000  0  8G32G08G24G27G21G10G15G20
 120254855.946 7  93705080.744 7  22883736.498    22883736.793    22883741.096
  22883740.971          44.000          46.750
 126108697.322 7  98266524.800 7  23997688.597    23997688.629    23997692.500
  23997693.159          42.250          43.000
 118897498.390 7  92647403.378 7  22625441.505    22625441.792    22625446.017
  22625445.867          42.500          46.000
 116857643.505 8  91057907.204 8  22237271.353    22237270.946    22237274.604
  22237274.732          48.750          49.750
 111076352.238 8  86553002.22747  21137124.220    21137123.600
  21137124.781          50.500          45.7504
 110723329.944 8  86277921.742 9  21069946.150    21069946.229    21069949.448
  21069949.934          53.250          54.500
 120299037.667 7  93739368.431 7  22892109.875    22892109.772    22892110.930
  22892110.638          47.000          44.000
 105732392.555 8  82388881.03347  20120203.420    20120202.730
  20120204.156          48.750          46.0004
 20  1  3  1 49 30.0000000  0  8G32G08G24G27G21G10G15G20
 120156277.283 7  93628266.226 7  22864978.125    22864978.227    22864982.127
  22864982.261          44.500          47.000
 126047207.456 7  98218610.612 7  23985987.545    23985987.420    23985991.825
  23985991.389          42.250          43.500
 118846198.692 7  92607429.592 7  22615680.352    22615680.179    22615684.003
  22615684.321          44.250          46.250
 116853867.279 8  91054964.693 8  22236552.423    22236552.304    22236555.832
  22236555.924          49.000          49.500
 111110564.484 8  86579661.11347  21143634.500    21143634.038
  21143635.319          50.500          45.7504
 110683577.444 8  86246945.769 9  21062381.334    21062381.528    21062384.900
  21062385.260          53.250          54.250
 120397622.455 7  93816187.749 7  22910869.625    22910869.985    22910870.977
  22910870.797          46.750          43.750
 105738239.158 8  82393436.82247  20121315.767    20121315.339
  20121316.613          48.750          45.7504
 20  1  3  1 50  0.0000000  0  8G32G08G24G27G21G10G15G20
 120057940.392 7  93551640.091 7  22846264.521    22846264.961    22846269.259
  22846269.152          45.000          46.750
 125986183.548 7  98171059.509 7  23974374.881    23974374.280    23974379.319
  23974379.291          42.000          43.750
 118795384.699 7  92567834.270 7  22606009.863    22606010.527    22606014.672
  22606015.158          44.000          47.000
 116850700.319 8  91052496.913 8  22235949.827    22235949.582    22235953.688
  22235953.394          49.750          49.500
 111145159.131 8  86606617.97747  21150217.719    21150216.915
  21150218.412          50.500          45.7504
 110644071.623 8  86216162.020 9  21054863.755    21054863.809    21054867.036
  21054867.462          53.250          54.250
 120496447.108 7  93893193.954 7  22929675.368    22929675.752    22929676.519
  22929676.379          46.750          43.000
 105744396.452 8  82398234.71147  20122487.684    20122486.886
  20122488.476          49.000          45.7504
 20  1  3  1 50 30.0000000  0  8G32G08G24G27G21G10G15G20
 119959846.222 7  93475203.083 7  22827598.013    22827598.221    22827602.013
  22827602.188          44.750          46.500
 125925626.779 6  98123872.407 7  23962851.365    23962851.349    23962856.014
  23962855.747          41.750          43.500
 118745058.875 7  92528619.321 7  22596432.844    22596433.807    22596438.273
  22596438.010          43.750          47.750
 116848141.518 8  91050503.035 8  22235463.260    22235462.861    22235466.431
  22235466.727          49.750          50.000
 111180135.229 8  86633872.07247  21156873.207    21156872.767
  21156874.086          49.750          46.0004
 110604811.709 8  86185569.885 9  21047392.888    21047392.834    21047396.068
  21047396.571          53.250          54.000
 120595508.139 7  93970384.353 7  22948526.171    22948526.567    22948527.412
  22948527.472          46.000          43.500
 105750863.531 8  82403273.99047  20123718.419    20123717.576
  20123718.936          48.000          45.7504
 20  1  3  1 51  0.0000000  0  8G32G08G24G27G21G10G15G20
 119861996.553 7  93398956.602 7  22808977.880    22808978.037    22808982.159
  22808982.157          44.750          46.500
 125865538.895 6  98077050.699 7  23951416.724    23951416.656    23951421.980
  23951421.121          41.250          43.500
 118695222.891 7  92489786.105 7  22586949.630    22586950.409    22586954.145
  22586954.667          43.750          46.750
 116846190.764 8  91048982.955 8  22235091.587    22235091.390    22235095.476
  22235095.485          48.250          49.750
 111215492.862 8  86661423.46847  21163601.775    21163601.079
  21163602.385          50.500          45.7504
 110565797.821 8  86155169.448 9  21039968.680    21039968.921    21039972.060
  21039972.550          53.000          54.500
 120694802.773 7  94047756.792 7  22967421.027    22967421.691    22967422.363
  22967422.608          45.750          43.000
 105757640.006 8  82408554.35847  20125007.684    20125007.090
  20125008.466          49.250          45.7504
 20  1  3  1 51 30.0000000  0  8G32G08G24G27G21G10G15G20
 119764393.892 7  93322902.581 7  22790404.615    22790404.950    22790408.915
  22790408.846          44.500          46.500
 125805922.747 7  98030596.543 7  23940072.797    23940072.256    23940076.808
  23940076.664          42.500          44.000
 118645879.541 7  92451336.759 7  22577561.025    22577560.717    22577564.055
  22577564.213          44.250          46.250
 116844848.482 8  91047937.004 8  22234836.259    22234836.284    22234840.113
  22234839.988          48.750          50.000
 111251232.720 8  86689272.70147  21170402.866    21170402.223
  21170403.680          50.500          45.7504
 110527030.787 8  86124961.367 9  21032591.532    21032591.726    21032594.742
  21032595.299          53.000          54.250
 120794329.292 7  94125309.890 7  22986360.305    22986360.642    22986362.025
  22986361.550          45.750          43.500
 105764726.739 8  82414076.48647  20126356.557    20126355.702
  20126356.982          49.000          45.5004
 20  1  3  1 52  0.0000000  0  8G32G08G24G27G21G10G15G20
 119667039.284 7  93247041.867 7  22771878.781    22771878.576    22771883.343
  22771883.165          45.000          47.000
 125746779.457 7  97984510.859 7  23928818.155    23928817.602    23928822.605
  23928822.965          42.500          44.000
 118597031.236 7  92413273.141 8  22568263.510    22568264.865    22568270.858
  22568268.922          42.750          48.000
 116844113.667 8  91047364.416 8  22234696.297    22234696.370    22234700.116
  22234700.185          48.500          50.000
 111287354.085 8  86717419.21547  21177276.782    21177275.978
  21177277.237          50.000          45.5004
 110488510.005 8  86094945.177 9  21025261.216    21025261.450    21025264.578
  21025265.034          52.500          54.250
 120894084.272 7  94203041.045 7  23005343.762    23005343.535    23005344.868
  23005344.283          46.250          43.750
 105772122.699 7  82419839.56547  20127763.776    20127763.098
  20127764.518          47.500          45.7504
 20  1  3  1 52 30.0000000  0  8G32G08G24G27G21G10G15G20
 119569935.306 7  93171376.452 7  22753400.336    22753400.480    22753404.475
  22753404.652          44.750          46.500
 125688111.751 7  97938795.754 7  23917653.480    23917653.905    23917658.499
  23917657.852          42.000          43.750
 118548680.775 7  92375597.418 7  22559064.457    22559064.567    22559068.664
  22559068.358          45.000          46.750
 116843986.952 8  91047265.656 8  22234672.419    22234672.268    22234675.833
  22234675.934          48.500          49.750
 111323857.964 8  86745863.78847  21184222.917    21184222.307
  21184223.726          50.500          45.5004
 110450236.380 8  86065121.572 9  21017977.951    21017978.250    21017981.404
  21017981.856          52.750          54.000
 120994065.659 7  94280948.599 7  23024369.357    23024370.012    23024370.039
  23024370.539          46.750          43.250
 105779828.688 8  82425844.23147  20129230.267    20129229.546
  20129230.883          48.500          45.5004
 20  1  3  1 53  0.0000000  0  8G32G08G24G27G21G10G15G20
 119473083.343 7  93095907.381 7  22734970.110    22734970.096    22734974.134
  22734973.839          44.500          46.500
 125629920.823 7  97893452.164 7  23906580.693    23906580.231    23906585.395
  23906584.710          42.500          43.750
 118500830.270 7  92338311.344 7  22549958.505    22549958.725    22549963.165
  22549962.926          44.250          47.500
 116844467.576 8  91047640.160 8  22234764.246    22234764.057    22234767.526
  22234767.574          49.250          49.750
 111360743.957 8  86774606.12247  21191242.064    21191241.372
  21191242.858          50.250          45.5004
 110412209.679 8  86035490.380 9  21010741.716    21010741.847    21010745.009
  21010745.623          52.750          54.250
 121094270.528 7  94359030.302 7  23043437.750    23043437.898    23043438.401
  23043438.813          46.750          43.250
 105787844.308 8  82432090.16747  20130755.462    20130754.852
  20130756.259          48.500          45.7504
 20  1  3  1 53 30.0000000  0  8G32G08G24G27G21G10G15G20
 119376485.405 7  93020636.276 7  22716587.881    22716588.653    22716592.449
  22716592.267          44.250          47.000
 125572208.751 7  97848481.693 7  23895598.249    23895598.411    23895602.728
  23895602.496          42.750          44.000
 118453481.828 7  92301416.458 7  22540947.973    22540948.378    22540952.826
  22540952.759          43.500          47.000
 116845555.402 8  91048487.821 8  22234971.045    22234970.841    22234974.331
  22234974.405          49.250          49.500
 111398012.388 8  86803646.44847  21198334.086    21198333.445
  21198334.800          50.250          45.2504
 110374430.191 8  86006051.821 9  21003552.585    21003552.735    21003556.004
  21003556.457          52.750          54.500
 121194696.360 7  94437284.185 7  23062548.196    23062547.993    23062549.072
  23062549.124          46.000          43.000
 105796169.418 8  82438577.26447  20132339.705    20132339.020
  20132340.483          48.500          45.7504
 20  1  3  1 54  0.0000000  0  8G32G08G24G27G21G10G15G20
 119280143.698 7  92945564.831 7  22698254.678    22698255.194    22698259.222
  22698259.438          44.750          47.000
 125514977.787 7  97803886.126 7  23884707.428    23884707.184    23884711.694
  23884711.707          42.250          43.250
 118406638.305 7  92264915.025 7  22532033.869    22532034.332    22532038.847
  22532038.547          44.500          47.750
 116847250.615 8  91049808.750 8  22235293.221    22235293.090    22235297.308
  22235297.174          48.500          49.750
 111435663.290 8  86832984.80747  21205498.945    21205498.205
  21205499.556          50.250          45.5004
 110336898.547 8  85976806.385 9  20996410.567    20996410.668    20996414.037
  20996414.460          52.750          54.500
 121295340.880 7  94515708.475 7  23081700.347    23081700.404    23081701.915
  23081701.148          45.750          43.000
 105804804.466 8  82445305.87447  20133983.121    20133982.280
  20133983.648          48.750          46.0004
 20  1  3  1 54 30.0000000  0  8G32G08G24G27G21G10G15G20
 119184059.357 7  92870693.949 7  22679970.734    22679971.227    22679975.080
  22679975.187          45.000          47.750
 125458229.221 7  97759666.456 7  23873908.754    23873908.479    23873913.279
  23873912.833          42.750          43.750
 118360301.457 7  92228808.372 8  22523217.299    22523216.500    22523221.584
  22523221.267          45.000          48.250
 116849552.145 8  91051602.143 8  22235731.808    22235731.223    22235734.984
  22235735.020          49.500          49.250
 111473695.961 8  86862620.65247  21212736.228    21212735.518
  21212736.776          50.500          45.5004
 110299614.228 8  85947753.673 9  20989315.624    20989315.794    20989318.838
  20989319.465          53.000          54.000
 121396200.859 7  94594300.649 7  23100893.030    23100893.097    23100894.431
  23100893.907          45.250          42.750
 105813748.759 8  82452275.45047  20135684.777    20135684.440
  20135685.705          49.000          45.7504
 20  1  3  1 55  0.0000000  0  8G32G08G24G27G21G10G15G20
 119088234.970 7  92796025.608 7  22661735.867    22661736.107    22661740.507
  22661740.250          44.500          47.250
 125401965.165 7  97715824.329 7  23863201.598    23863201.735    23863207.233
  23863206.409          42.750          44.000
 118314474.790 7  92193099.304 7  22514496.414    22514496.150    22514500.586
  22514500.281          44.750          47.750
 116852460.473 8  91053868.361 8  22236284.777    22236284.826    22236288.545
  22236288.361          49.250          49.250
 111512111.482 8  86892554.82347  21220046.391    21220045.637
  21220047.193          50.000          45.5004
 110262578.240 8  85918894.465 9  20982267.842    20982267.978    20982271.293
  20982271.634          53.000          54.250
 121497274.545 7  94673059.319 7  23120126.723    23120126.733    23120128.054
  23120127.974          45.000          43.000
 105823002.948 8  82459486.50147  20137446.046    20137445.338
  20137446.737          48.750          45.7504
 20  1  3  1 55 30.0000000  0  8G32G08G24G27G21G10G15G20
 118992671.272 7  92721560.405 7  22643550.435    22643551.011    22643554.961
  22643555.103          45.750          47.250
 125346187.172 7  97672360.942 7  23852587.289    23852587.482    23852592.584
  23852592.319          43.000          43.750
 118269159.355 7  92157788.563 8  22505871.878    22505873.247    22505877.694
  22505877.392          43.750          48.000
 116855974.146 8  91056606.276 8  22236953.565    22236953.178    22236957.152
  22236957.249          48.750          49.500
 111550908.559 8  86922786.30547  21227429.342    21227428.703
  21227429.945          50.500          45.5004
 110225789.712 8  85890228.083 9  20975267.355    20975267.466    20975270.515
  20975271.177          53.500          54.500
 121598558.408 7  94751981.805 7  23139400.712    23139400.935    23139401.088
  23139400.869          45.750          42.250
 105832566.110 8  82466938.31447  20139265.837    20139265.265
  20139266.556          48.500          45.7504
 20  1  3  1 56  0.0000000  0  8G32G08G24G27G21G10G15G20
 118897371.281 7  92647300.675 7  22625415.597    22625416.215    22625419.859
  22625419.851          45.750          46.750
 125290897.505 7  97629278.065 7  23842066.454    23842066.678    23842071.285
  23842070.631          43.250          43.500
 118224358.362 7  92122878.717 8  22497346.820    22497347.971    22497352.350
  22497351.949          44.250          48.000
 116860093.963 8  91059816.513 8  22237737.418    22237737.279    22237741.321
  22237741.348          49.500          49.500
 111590088.870 8  86953316.41547  21234885.094    21234884.324
  21234885.725          50.250          45.7504
 110189250.016 8  85861755.604 9  20968314.125    20968314.131    20968317.317
  20968317.827          53.250          54.250
 121700051.189 7  94831067.074 7  23158714.002    23158713.724    23158715.192
  23158714.465          45.500          42.500
 105842439.146 8  82474631.58947  20141144.417    20141143.927
  20141145.349          48.500          45.5004
 20  1  3  1 56 30.0000000  0  8G32G08G24G27G21G10G15G20
 118802335.314 7  92573246.688 7  22607330.958    22607331.151    22607334.857
  22607335.053          45.500          46.750
 125236096.796 7  97586576.192 7  23831637.976    23831637.902    23831642.639
  23831642.772          43.000          43.750
 118180073.002 7  92088370.624 8  22488920.461    22488920.128    22488924.824
  22488925.281          45.250          48.000
 116864818.058 8  91063497.614 8  22238636.329    22238636.190    22238640.033
  22238639.978          49.250          49.500
 111629651.048 8  86984144.07547  21242413.653    21242412.841
  21242414.259          50.250          45.2504
 110152957.872 8  85833476.013 9  20961407.778    20961408.131    20961411.150
  20961411.738          53.000          54.750
 121801748.684 7  94910311.875 7  23178066.389    23178066.448    23178067.752
  23178067.055          45.250          42.500
 105852620.858 8  82482565.39347  20143082.217    20143081.468
  20143082.875          48.250          45.5004
 20  1  3  1 57  0.0000000  0  8G32G08G24G27G21G10G15G20
 118707566.505 7  92499400.863 7  22589296.924    22589297.397    22589300.794
  22589300.881          46.000          47.000
 125181788.217 7  97544257.823 7  23821303.956    23821303.526    23821307.826
  23821308.227          44.000          43.500
 118136306.037 7  92054266.494 7  22480591.050    22480591.829    22480595.482
  22480596.399          44.000          47.000
 116870147.321 8  91067650.280 8  22239650.629    22239650.397    22239653.803
  22239654.154          48.250          49.500
 111669595.485 8  87015269.60747  21250014.619    21250014.092
  21250015.461          50.750          45.2504
 110116914.851 8  85805390.536 9  20954549.242    20954549.205    20954552.394
  20954552.913          53.250          54.500
 121903649.702 7  94989715.224 7  23197457.475    23197457.353    23197458.853
  23197458.561          44.500          43.000
 105863112.388 8  82490740.60447  20145078.385    20145077.892
  20145079.251          48.750          45.7504
 20  1  3  1 57 30.0000000  0  8G32G08G24G27G21G10G15G20
 118613065.208 7  92425763.491 7  22571313.735    22571314.276    22571318.260
  22571318.388          45.500          47.500
 125127972.287 7  97502323.307 7  23811063.427    23811062.565    23811067.593
  23811067.579          43.500          44.250
 118093059.112 7  92020567.615 7  22472362.186    22472362.375    22472366.095
  22472366.817          45.500          47.500
 116876079.873 8  91072273.037 8  22240779.253    22240779.462    22240783.227
  22240783.179          48.750          49.750
 111709921.091 8  87046692.14447  21257688.355    21257687.669
  21257689.192          50.250          45.0004
 110081119.728 8  85777498.242 9  20947737.670    20947737.711    20947740.738
  20947741.363          53.250          54.750
 122005750.312 7  95069274.134 7  23216886.824    23216886.847    23216887.769
  23216887.519          45.500          42.000
 105873912.247 8  82499156.07447  20147133.957    20147133.097
  20147134.407          48.750          45.5004
 20  1  3  1 58  0.0000000  0  8G32G08G24G27G21G10G15G20
 118518834.781 7  92352337.220 7  22553382.450    22553382.531    22553386.836
  22553386.789          45.500          47.500
 125074652.120 7  97460775.109 7  23800916.173    23800915.399    23800920.881
  23800921.070          42.000          43.750
 118050335.711 7  91987276.660 7  22464232.238    22464232.022    22464236.273
  22464236.601          45.250          47.500
 116882616.781 8  91077366.721 8  22242023.295    22242023.412    22242027.014
  22242027.198          49.000          49.500
 111750629.960 8  87078413.33647  21265435.013    21265434.314
  21265435.668          50.000          45.2504
 110045574.276 8  85749800.496 9  20940973.529    20940973.602    20940976.761
  20940977.099          53.250          54.750
 122108049.769 7  95148987.968 7  23236353.998    23236354.154    23236354.780
  23236354.080          45.750          42.250
 105885021.825 8  82507812.88747  20149247.835    20149247.092
  20149248.500          48.500          45.7504
 20  1  3  1 58 30.0000000  0  8G32G08G24G27G21G10G15G20
 118424876.396 7  92279122.903 7  22535502.771    22535503.364    22535506.801
  22535506.669          45.750          47.250
 125021828.448 7  97419613.809 7  23790864.587    23790863.887    23790868.723
  23790868.995          42.500          43.750
 118008137.764 7  91954395.141 8  22456202.462    22456202.246    22456207.159
  22456206.767          45.750          48.000
 116889756.895 8  91082930.447 8  22243382.328    22243382.166    22243385.658
  22243385.729          49.250          49.500
 111791720.507 8  87110431.93847  21273254.076    21273253.557
  21273255.019          50.750          44.7504
 110010278.053 8  85722296.943 9  20934256.660    20934256.970    20934260.149
  20934260.643          53.250          54.750
 122210544.542 7  95228854.020 6  23255857.632    23255857.602    23255858.263
  23255858.619          45.500          41.750
 105896440.589 8  82516710.62447  20151420.779    20151420.125
  20151421.476          49.250          45.7504
 20  1  3  1 59  0.0000000  0  8G32G08G24G27G21G10G15G20
 118331191.617 7  92206121.784 7  22517674.869    22517675.391    22517679.634
  22517679.690          45.500          47.750
 124969503.049 7  97378840.762 7  23780907.492    23780906.872    23780910.865
  23780911.250          43.000          42.750
 117966466.657 7  91921924.152 7  22448272.494    22448273.010    22448276.246
  22448276.285          45.500          47.000
 116897499.560 8  91088963.667 8  22244855.528    22244855.495    22244859.055
  22244859.320          48.750          49.500
 111833192.921 8  87142748.10047  21281146.082    21281145.588
  21281146.968          50.250          45.0004
 109975231.186 8  85694987.698 9  20927587.702    20927587.701    20927591.095
  20927591.341          53.000          54.750
 122313232.084 7  95308870.258 7  23275398.851    23275399.021    23275399.314
  23275399.237          45.250          42.250
 105908168.276 8  82525849.07447  20153652.514    20153651.875
  20153653.149          49.000          45.7504
 20  1  3  1 59 30.0000000  0  8G32G08G24G27G21G10G15G20
 118237781.522 7  92133334.714 7  22499900.006    22499900.236    22499904.142
  22499903.974          45.750          47.750
 124917677.365 7  97338457.101 7  23771045.554    23771045.108    23771049.432
  23771049.368          43.000          43.250
 117925324.558 7  91889865.364 7  22440442.916    22440443.821    22440448.297
  22440447.487          45.500          47.750
 116905843.447 8  91095465.398 8  22246443.508    22246443.326    22246446.719
  22246447.039          49.500          49.500
 111875046.412 8  87175361.20247  21289110.595    21289110.036
  21289111.468          49.500          45.2504
 109940433.087 8  85667872.296 9  20920965.756    20920965.848    20920969.166
  20920969.589          53.250          54.750
 122416109.181 7  95389034.219 6  23294974.946    23294975.493    23294975.515
  23294976.340          44.500          41.750
 105920204.081 8  82535227.61947  20155942.676    20155942.026
  20155943.483          48.250          45.7504
 20  1  3  2  0  0.0000000  0  8G32G08G24G27G21G10G15G20
 118144649.396 7  92060764.241 7  22482177.379    22482177.811    22482181.594
  22482181.338          46.500          47.250
 124866353.763 7  97298464.687 7  23761278.708    23761278.870    23761282.809
  23761283.099          43.250          43.500
 117884714.302 7  91858221.004 7  22432715.405    22432715.520    22432719.330
  22432719.992          45.750          46.750
 116914789.513 8  91102436.346 8  22248146.024    22248145.868    22248149.206
  22248149.287          49.500          49.500
 111917282.329 8  87208272.29847  21297148.101    21297147.344
  21297148.652          49.750          45.0004
 109905885.591 8  85640952.175 9  20914391.520    20914391.705    20914394.747
  20914395.304          53.000          54.500
 122519175.101 7  95469345.308 7  23314588.032    23314588.261    23314589.206
  23314589.029          44.250          42.250
 105932549.571 8  82544847.47647  20158291.983    20158291.366
  20158292.673          48.500          45.5004
 20  1  3  2  0 30.0000000  0  8G32G08G24G27G21G10G15G20
 118051795.930 7  91988410.904 7  22464508.032    22464508.370    22464512.430
  22464512.357          46.000          47.250
 124815533.496 7  97258864.461 7  23751608.227    23751607.304    23751612.757
  23751612.531          43.500          44.250
 117844637.194 7  91826992.084 7  22425088.586    22425089.196    22425093.184
  22425093.343          45.500          47.250
 116924336.113 8  91109875.250 8  22249962.223    22249962.178    22249965.847
  22249965.929          49.000          49.500
 111959899.479 8  87241480.45847  21305257.694    21305257.052
  21305258.596          50.000          45.0004
 109871587.840 8  85614226.661 9  20907865.061    20907865.039    20907868.421
  20907868.713          53.000          54.750
 122622426.005 7  95549800.529 7  23334236.106    23334236.061    23334237.479
  23334237.162          44.000          42.000
 105945203.570 8  82554707.73147  20160700.076    20160699.300
  20160700.788          48.750          45.5004
 20  1  3  2  1  0.0000000  0  8G32G08G24G27G21G10G15G20
 117959223.060 7  91916276.215 8  22446891.865    22446892.160    22446896.360
  22446896.448          45.500          48.000
 124765218.322 7  97219657.826 7  23742033.329    23742033.204    23742037.780
  23742037.188          42.750          43.750
 117805095.703 7  91796180.531 7  22417564.853    22417564.471    22417568.335
  22417568.534          45.500          46.500
 116934482.751 8  91117781.706 8  22251893.547    22251893.212    22251897.248
  22251897.120          49.250          49.750
 112002898.246 8  87274985.98647  21313439.895    21313439.458
  21313440.681          49.750          44.7504
 109837540.230 8  85587696.063 9  20901385.938    20901385.929    20901389.142
  20901389.611          53.250          54.500
 122725859.485 7  95630398.031 6  23353918.674    23353918.978    23353919.689
  23353920.445          44.000          41.500
 105958166.398 8  82564808.63247  20163166.910    20163166.158
  20163167.439          49.250          45.7504
 20  1  3  2  1 30.0000000  0  8G32G08G24G27G21G10G15G20
 117866932.770 7  91844361.724 7  22429329.342    22429329.900    22429333.946
  22429333.920          46.000          47.750
 124715410.350 7  97180846.405 7  23732555.628    23732554.763    23732560.172
  23732559.432          42.750          44.000
 117766092.389 7  91765788.369 7  22410142.744    22410142.479    22410147.253
  22410146.914          45.250          47.750
 116945229.027 8  91126155.419 8  22253938.069    22253938.047    22253941.809
  22253941.947          48.500          49.500
 112046278.621 8  87308788.86847  21321695.067    21321694.469
  21321695.845          49.250          45.0004
 109803743.259 8  85561360.766 9  20894954.440    20894954.641    20894957.935
  20894958.271          53.000          54.750
 122829473.596 7  95711136.272 7  23373635.742    23373635.525    23373637.215
  23373637.782          43.500          42.000
 105971437.985 8  82575150.12447  20165692.294    20165691.627
  20165693.085          48.250          45.7504
 20  1  3  2  2  0.0000000  0  8G32G08G24G27G21G10G15G20
 117774927.011 7  91772668.937 7  22411821.633    22411822.015    22411825.410
  22411825.341          46.500          47.750
 124666111.081 7  97142431.386 7  23723174.205    23723173.251    23723178.284
  23723177.806          43.000          44.000
 117727629.436 7  91735817.216 7  22402824.132    22402823.511    22402827.368
  22402827.155          46.500          46.750
 116956574.517 7  91134996.054 8  22256097.556    22256097.220    22256101.101
  22256100.912          47.500          50.000
 112090040.314 8  87342888.88647  21330022.608    21330022.193
  21330023.371          49.250          44.7504
 109770197.372 8  85535221.124 9  20888571.004    20888571.022    20888574.260
  20888574.767          52.750          54.750
 122933266.261 7  95792013.654 6  23393386.545    23393387.275    23393387.955
  23393388.110          43.500          41.500
 105985018.881 7  82585732.63647  20168276.761    20168276.042
  20168277.356          47.250          45.7504
 20  1  3  2  2 30.0000000  0  8G32G08G24G27G21G10G15G20
 117683205.598 7  91701197.709 8  22394367.688    22394367.863    22394371.711
  22394371.956          46.750          48.000
 124617320.359 7  97104412.620 7  23713889.079    23713889.181    23713893.884
  23713893.230          42.250          43.750
 117689706.256 7  91706266.662 7  22395607.067    22395607.008    22395610.244
  22395610.672          45.750          46.000
 116968516.554 8  91144301.514 8  22258369.591    22258369.336    22258373.649
  22258373.501          48.250          50.000
 112134181.526 8  87377284.62947  21338422.648    21338421.723
  21338423.097          49.250          44.5004
 109736900.863 8  85509275.797 9  20882234.895    20882234.896    20882238.069
  20882238.506          53.000          54.750
 123037232.813 7  95873026.536 6  23413171.090    23413171.728    23413172.611
  23413172.166          43.250          41.000
 105998907.064 7  82596554.58847  20170919.547    20170918.790
  20170920.206          47.750          45.5004
 20  1  3  2  3  0.0000000  0  8G32G08G24G27G21G10G15G20
 117591772.723 7  91629951.319 8  22376968.491    22376968.822    22376972.602
  22376972.855          46.500          48.000
 124569041.452 7  97066792.675 7  23704702.175    23704702.062    23704707.129
  23704706.179          43.000          44.250
 117652328.327 7  91677141.023 7  22388493.578    22388493.920    22388498.038
  22388498.334          44.500          47.000
 116981056.869 8  91154073.179 8  22260756.001    22260755.925    22260760.050
  22260759.886          48.500          49.750
 112178704.633 8  87411977.95247  21346894.745    21346894.354
  21346895.692          50.000          44.7504
 109703856.463 8  85483526.921 9  20875946.692    20875946.735    20875950.075
  20875950.540          53.000          55.000
 123141373.530 7  95954175.139 6  23432988.666    23432989.142    23432989.231
  23432989.808          43.750          41.000
 106013104.873 8  82607617.80747  20173621.262    20173620.455
  20173622.030          48.750          45.7504
 20  1  3  2  3 30.0000000  0  8G32G08G24G27G21G10G15G20
 117500627.981 7  91558929.455 7  22359624.122    22359624.530    22359628.115
  22359628.241          46.500          47.750
 124521274.817 7  97029571.928 7  23695613.003    23695612.509    23695617.175
  23695616.185          42.500          43.750
 117615494.799 7  91648439.558 7  22381484.182    22381484.501    22381488.427
  22381488.920          45.750          46.750
 116994192.600 7  91164308.806 8  22263255.777    22263255.541    22263259.279
  22263259.367          47.250          49.500
 112223607.366 8  87446967.08447  21355439.811    21355438.984
  21355440.601          49.750          45.0004
 109671062.290 8  85457973.024 9  20869706.005    20869706.316    20869709.379
  20869709.902          52.750          54.750
 123245683.619 7  96035455.704 6  23452838.307    23452838.334    23452838.730
  23452839.559          43.500          41.250
 106027610.183 7  82618920.63947  20176381.634    20176380.816
  20176382.303          47.250          45.5004
 20  1  3  2  4  0.0000000  0  8G32G08G24G27G21G10G15G20
 117409774.092 7  91488134.228 8  22342335.143    22342335.556    22342339.304
  22342339.594          45.750          48.250
 124474022.635 7  96992752.028 7  23686620.178    23686620.460    23686624.756
  23686624.447          42.000          44.000
 117579209.389 8  91620165.192 7  22374579.877    22374579.727    22374584.051
  22374584.168          48.000          47.500
 117007923.964 7  91175008.564 8  22265868.952    22265868.628    22265872.510
  22265872.502          45.250          49.500
 112268890.217 8  87482252.42247  21364056.699    21364056.116
  21364057.638          49.250          45.0004
 109638519.589 8  85432615.085 9  20863513.469    20863513.608    20863516.599
  20863517.169          52.750          54.500
 123350161.653 7  96116867.125 6  23472719.427    23472719.976    23472721.261
  23472721.154          43.250          41.500
 106042423.947 7  82630463.82347  20179200.466    20179199.890
  20179201.319          45.500          45.5004
 20  1  3  2  4 30.0000000  0  8G32G08G24G27G21G10G15G20
 117319212.654 7  91417566.889 8  22325102.018    22325102.312    22325105.942
  22325106.181          46.000          48.250
 124427286.441 7  96956334.209 7  23677726.484    23677726.459    23677731.698
  23677731.211          42.000          44.250
 117543473.218 7  91592318.827 7  22367779.113    22367779.366    22367783.518
  22367783.646          47.250          47.750
 117022250.075 7  91186171.743 8  22268594.886    22268594.690    22268598.749
  22268598.518          44.750          49.750
 112314553.157 8  87517833.91847  21372746.349    21372745.496
  21372747.043          49.750          44.7504
 109606228.533 8  85407453.219 9  20857368.694    20857368.849    20857371.836
  20857372.426          52.750          54.750
 123454805.306 7  96198407.606 6  23492633.030    23492632.965    23492633.682
  23492633.402          43.500          41.500
 106057545.998 7  82642247.23747  20182078.227    20182077.284
  20182078.842          46.000          45.2504
 20  1  3  2  5  0.0000000  0  8G32G08G24G27G21G10G15G20
 117228946.254 7  91347229.448 8  22307924.510    22307924.693    22307929.097
  22307928.957          46.000          48.250
 124381068.182 7  96920319.965 7  23668932.075    23668931.965    23668936.014
  23668936.229          42.000          44.000
 117508289.703 7  91564903.112 7  22361083.639    22361084.249    22361088.336
  22361088.544          45.500          47.500
 117037170.923 7  91197798.368 8  22271434.235    22271434.231    22271437.830
  22271437.621          45.750          49.000
 112360596.925 8  87553712.17247  21381508.099    21381507.313
  21381508.711          49.250          44.7504
 109574190.234 8  85382488.315 9  20851272.172    20851272.066    20851275.306
  20851275.738          52.750          54.750
 123559612.860 7  96280075.815 6  23512577.054    23512577.078    23512579.031
  23512577.542          43.500          41.750
 106072977.270 7  82654271.60247  20185014.233    20185013.874
  20185015.296          46.250          45.7504
 20  1  3  2  5 30.0000000  0  9G32G08G24G27G21G10G14G15G20
 117138975.085 7  91277122.060 8  22290803.796    22290804.246    22290807.989
  22290807.826          46.750          48.250
 124335368.277 7  96884709.647 7  23660235.124    23660235.521    23660240.015
  23660239.323          42.500          44.000
 117473658.686 7  91537917.882 7  22354493.968    22354493.835    22354498.520
  22354498.711          47.250          47.500
 117052684.237 7  91209886.656 8  22274386.480    22274386.509    22274390.010
  22274390.165          47.000          49.250
 112407019.821 8  87589885.85147  21390341.947    21390341.307
  21390342.838          50.250          44.7504
 109542403.468 8  85357719.406 9  20845223.170    20845223.265    20845226.479
  20845226.859          53.250          55.000
 129232111.178 6 100700345.43143  24592053.505    24592052.599
  24592054.457          36.500          20.7504
 123664580.588 7  96361868.824 6  23532552.106    23532551.763    23532552.683
  23532552.776          43.750          41.500
 106088716.069 8  82666535.58947  20188009.820    20188008.814
  20188010.352          48.000          45.5004
 20  1  3  2  6  0.0000000  0  8G32G08G24G27G21G10G15G20
 117049301.187 7  91207246.310 8  22273739.723    22273739.962    22273743.535
  22273743.684          47.000          48.250
 124290188.555 7  96849504.669 7  23651637.914    23651638.000    23651643.162
  23651642.015          42.500          44.250
 117439582.765 7  91511365.220 7  22348009.491    22348009.378    22348013.708
  22348013.807          47.250          47.500
 117068789.406 7  91222436.121 8  22277451.157    22277450.750    22277454.970
  22277454.841          46.500          49.500
 112453821.922 8  87626355.01147  21399248.094    21399247.446
  21399248.906          49.500          44.7504
 109510868.801 8  85333146.943 9  20839222.442    20839222.533    20839225.528
  20839225.880          53.000          55.000
 123769706.331 7  96443784.958 6  23552556.655    23552556.798    23552557.787
  23552557.955          43.500          41.500
 106104762.979 7  82679039.67747  20191063.321    20191062.494
  20191063.883          47.750          45.7504
 20  1  3  2  6 30.0000000  0  8G32G08G24G27G21G10G15G20
 116959926.280 7  91137603.530 8  22256732.110    22256732.558    22256735.799
  22256735.850          46.750          48.250
 124245530.118 7  96814705.868 7  23643140.001    23643140.001    23643144.744
  23643144.061          43.000          43.750
 117406064.035 7  91485246.738 7  22341631.331    22341630.943    22341635.896
  22341635.812          46.750          47.750
 117085485.659 7  91235446.176 8  22280628.125    22280628.304    22280632.008
  22280632.036          46.500          49.500
 112501002.858 8  87663119.36847  21408226.149    21408225.802
  21408227.257          49.500          45.0004
 109479586.584 8  85308771.190 9  20833269.655    20833269.664    20833272.824
  20833273.293          52.500          55.000
 123874987.761 7  96525822.421 6  23572591.106    23572591.572    23572591.436
  23572592.027          43.250          41.000
 106121117.676 7  82691783.59147  20194175.317    20194174.681
  20194176.232          47.500          45.7504
 20  1  3  2  7  0.0000000  0  8G32G08G24G27G21G10G15G20
 116870851.942 7  91068194.964 8  22239781.843    22239782.081    22239786.059
  22239786.004          47.000          48.500
 124201395.019 7  96780314.875 7  23634741.424    23634740.801    23634745.660
  23634745.709          42.250          44.250
 117373104.222 7  91459563.756 7  22335358.829    22335359.331    22335363.340
  22335363.533          46.750          47.750
 117102771.924 7  91248915.982 8  22283917.663    22283917.705    22283921.489
  22283921.626          45.000          49.500
 112548562.488 8  87700178.81347  21417276.804    21417276.069
  21417277.454          49.500          44.7504
 109448557.004 8  85284592.303 9  20827364.591    20827364.871    20827367.980
  20827368.496          52.500          54.750
 123980422.594 7  96607979.385 7  23592654.545    23592654.396    23592656.223
  23592656.021          42.250          42.000
 106137780.231 7  82704767.39647  20197345.883    20197345.513
  20197347.064          45.750          45.7504
 20  1  3  2  7 30.0000000  0  8G32G08G24G27G21G10G15G20
 116782079.986 7  90999022.024 8  22222889.176    22222889.536    22222892.601
  22222892.771          47.000          48.500
 124157784.422 7  96746332.570 7  23626442.807    23626442.404    23626446.990
  23626446.810          42.750          44.000
 117340704.909 7  91434317.553 7  22329193.247    22329193.618    22329197.864
  22329197.747          46.500          47.250
 117120647.424 7  91262844.921 8  22287319.171    22287319.071    22287322.897
  22287323.025          45.000          49.500
 112596500.736 8  87737533.28347  21426399.290    21426398.685
  21426399.896          50.250          44.7504
 109417780.424 8  85260610.554 9  20821508.185    20821508.316    20821511.464
  20821511.868          52.750          54.750
 124086008.443 7  96690254.044 6  23612747.119    23612746.956    23612748.008
  23612748.636          42.750          41.500
 106154750.930 7  82717991.31547  20200575.481    20200574.751
  20200576.508          46.000          45.5004
 20  1  3  2  8  0.0000000  0  8G32G08G24G27G21G10G15G20
 116693611.452 7  90930085.521 8  22206054.087    22206054.353    22206058.278
  22206058.074          47.250          48.750
 124114699.124 7  96712759.601 7  23618244.072    23618244.057    23618248.067
  23618248.262          43.000          44.000
 117308867.454 7  91409509.121 8  22323135.360    22323135.514    22323140.043
  22323139.853          46.750          48.250
 117139110.558 7  91277231.761 8  22290832.683    22290832.437    22290836.689
  22290836.374          46.250          49.250
 112644816.571 8  87775181.98147  21435593.182    21435592.757
  21435593.917          49.750          44.5004
 109387256.523 8  85236825.698 9  20815699.639    20815699.766    20815702.997
  20815703.416          52.750          55.000
 124191742.422 7  96772644.119 6  23632867.248    23632867.165    23632868.353
  23632868.781          43.250          41.000
 106172028.944 7  82731454.69647  20203863.506    20203862.873
  20203864.430          47.250          45.7504
 20  1  3  2  8 30.0000000  0  8G32G08G24G27G21G10G15G20
 116605448.327 7  90861386.990 8  22189277.252    22189277.479    22189281.117
  22189280.838          47.000          48.750
 124072141.038 7  96679597.440 7  23610145.350    23610145.410    23610149.792
  23610149.595          42.000          44.500
 117277594.045 7  91385140.252 8  22317184.028    22317184.096    22317188.413
  22317188.868          46.250          48.000
 117158160.686 8  91292075.992 8  22294457.867    22294457.693    22294461.530
  22294461.482          48.000          49.000
 112693510.180 8  87813125.04947  21444859.326    21444858.706
  21444860.154          49.500          44.5004
 109356985.938 8  85213238.220 9  20809939.377    20809939.519    20809942.640
  20809943.117          52.500          54.750
 124297622.422 7  96855147.991 6  23653016.450    23653016.006    23653017.512
  23653016.938          44.000          41.000
 106189614.522 8  82745157.74247  20207209.767    20207209.133
  20207210.846          48.500          45.5004
 20  1  3  2  9  0.0000000  0  8G32G08G24G27G21G10G15G20
 116517593.234 7  90792928.488 8  22172558.663    22172558.996    22172562.766
  22172563.061          47.000          48.750
 124030112.646 7  96646848.026 7  23602147.492    23602147.680    23602152.473
  23602151.646          42.000          44.500
 117246887.579 7  91361213.129 8  22311340.689    22311340.647    22311345.631
  22311345.147          46.000          48.000
 117177797.709 8  91307377.565 8  22298194.958    22298194.691    22298198.325
  22298198.276          48.250          49.250
 112742582.106 8  87851362.90247  21454197.361    21454196.806
  21454198.306          49.750          44.5004
 109326969.856 8  85189849.059 9  20804227.578    20804227.789    20804230.674
  20804231.240          53.250          54.750
 124403647.166 7  96937764.634 6  23673191.489    23673192.265    23673192.636
  23673193.029          43.500          40.500
 106207508.880 8  82759101.38347  20210615.032    20210614.315
  20210616.040          49.000          45.7504
 20  1  3  2  9 30.0000000  0  8G32G08G24G27G21G10G15G20
 116430046.376 7  90724710.172 8  22155898.767    22155899.167    22155903.507
  22155903.152          46.750          48.750
 123988613.070 7  96614510.692 7  23594250.176    23594249.862    23594255.124
  23594254.591          42.000          44.000
 117216748.115 7  91337727.845 8  22305605.870    22305605.462    22305609.964
  22305609.803          45.250          48.000
 117198019.226 7  91323134.575 8  22302042.985    22302042.638    22302046.707
  22302046.588          47.750          49.250
 112792030.530 8  87889894.13647  21463607.111    21463606.480
  21463607.828          49.500          44.2504
 109297207.188 8  85166657.372 9  20798563.847    20798564.060    20798567.097
  20798567.617          52.250          55.000
 124509813.031 7  97020491.273 6  23693394.397    23693394.383    23693395.467
  23693395.333          44.250          40.000
 106225710.618 8  82773284.55747  20214078.706    20214078.111
  20214079.681          48.000          45.5004
 20  1  3  2 10  0.0000000  0  8G32G08G24G27G21G10G15G20
 116342808.887 7  90656732.929 8  22139298.488    22139298.740    22139302.430
  22139302.676          47.250          48.750
 123947643.709 7  96582586.514 7  23586454.892    23586454.076    23586458.307
  23586458.196          42.750          44.250
 117187177.326 7  91314685.667 7  22299978.096    22299978.435    22299982.623
  22299982.812          44.250          47.500
 117218823.613 7  91339345.762 8  22306001.699    22306001.589    22306005.093
  22306005.269          47.750          49.000
 112841854.788 8  87928718.21947  21473088.431    21473087.684
  21473089.173          49.750          43.7504
 109267697.722 8  85143662.979 9  20792948.553    20792948.457    20792951.715
  20792952.189          52.250          55.250
 124616117.007 7  97103325.509 6  23713623.419    23713623.639    23713624.313
  23713624.203          44.250          40.000
 106244219.010 8  82787706.66847  20217600.924    20217600.014
  20217601.712          49.000          45.5004
 20  1  3  2 10 30.0000000  0  9G14G32G08G24G27G21G10G15G20
 128188042.249 6  99886788.22743  24393374.131    24393373.745
  24393375.727          37.500          21.2504
 116255883.999 7  90588999.261 8  22122757.379    22122757.555    22122761.076
  22122761.507          47.750          49.000
 123907207.472 7  96551077.752 7  23578759.453    23578758.990    23578763.833
  23578763.509          42.750          44.250
 117158177.721 7  91292088.584 8  22294459.763    22294460.122    22294464.871
  22294464.272          45.500          48.250
 117240211.407 7  91356011.555 8  22310071.832    22310071.621    22310075.379
  22310075.432          47.750          49.000
 112892056.215 8  87967836.20447  21482641.244    21482640.927
  21482642.395          49.250          44.0004
 109238443.311 8  85120867.332 9  20787381.499    20787381.555    20787384.876
  20787385.237          52.250          55.250
 124722558.575 7  97186266.969 6  23733878.681    23733878.950    23733880.043
  23733879.780          44.750          40.250
 106263035.658 8  82802368.98147  20221181.302    20221180.773
  20221182.439          48.500          45.5004
 20  1  3  2 11  0.0000000  0  9G14G32G08G24G27G21G10G15G20
 128084319.915 6  99805965.63643  24373637.105    24373635.867
  24373637.658          37.750          21.7504
 116169272.429 7  90521509.741 8  22106275.622    22106275.892    22106279.808
  22106279.711          47.750          49.000
 123867304.787 7  96519984.738 7  23571166.341    23571165.965    23571170.753
  23571170.022          42.500          44.000
 117129750.774 7  91269937.722 7  22289050.923    22289050.401    22289054.586
  22289055.040          46.750          47.000
 117262180.617 7  91373130.410 8  22314252.309    22314252.198    22314256.368
  22314256.260          47.750          49.250
 112942633.486 8  88007247.04847  21492265.964    21492265.269
  21492266.682          49.000          43.7504
 109209443.423 8  85098270.003 9  20781862.934    20781863.135    20781866.265
  20781866.729          52.500          54.750
 124829134.420 7  97269313.066 6  23754158.502    23754159.763    23754160.522
  23754159.859          43.750          40.750
 106282159.620 8  82817270.76347  20224820.772    20224820.174
  20224821.693          48.750          45.7504
 20  1  3  2 11 30.0000000  0  9G14G32G08G24G27G21G10G15G20
 127980729.030 6  99725245.44343  24353923.061    24353922.695
  24353925.312          37.750          21.7504
 116082975.835 7  90454265.663 8  22089853.726    22089854.031    22089857.719
  22089858.128          47.500          49.250
 123827937.042 7  96489308.555 7  23563674.645    23563674.344    23563678.920
  23563679.481          42.250          43.500
 117101897.811 7  91248234.115 8  22283750.400    22283750.459    22283755.185
  22283754.811          47.000          48.750
 117284730.133 8  91390701.433 8  22318543.230    22318543.331    22318546.985
  22318546.995          48.500          48.750
 112993586.373 8  88046950.58347  21501961.548    21501961.271
  21501962.785          48.750          43.7504
 109180698.291 8  85075871.202 9  20776392.984    20776393.130    20776396.313
  20776396.705          53.000          55.000
 124935842.512 7  97352462.162 6  23774464.543    23774465.462    23774467.265
  23774465.826          43.250          40.750
 106301590.819 8  82832411.94247  20228518.170    20228517.670
  20228519.138          48.500          45.7504
 20  1  3  2 12  0.0000000  0  9G14G32G08G24G27G21G10G15G20
 127877271.032 6  99644628.82243  24334235.652    24334235.689
  24334237.801          38.250          21.7504
 115996995.151 7  90387267.737 8  22073491.940    22073492.396    22073496.324
  22073496.270          47.750          49.250
 123789104.540 7  96459049.455 7  23556284.633    23556285.082    23556289.124
  23556289.167          42.250          43.750
 117074619.896 7  91226978.607 8  22278559.108    22278559.403    22278563.577
  22278563.856          46.000          48.000
 117307858.176 8  91408723.267 8  22322944.650    22322944.330    22322948.063
  22322948.012          48.750          49.000
 113044913.782 8  88086945.95647  21511729.124    21511728.576
  21511729.964          49.250          43.5004
 109152207.642 8  85053670.697 9  20770971.405    20770971.483    20770974.574
  20770975.106          53.000          55.000
 125042679.683 7  97435711.862 6  23794795.824    23794795.587    23794796.697
  23794796.445          43.500          40.750
 106321328.827 8  82847792.20447  20232274.551    20232273.661
  20232275.357          49.500          45.7504
 20  1  3  2 12 30.0000000  0  9G14G32G08G24G27G21G10G15G20
 127773948.875 6  99564118.04543  24314574.301    24314572.954
  24314576.564          37.500          22.5004
 115911333.472 8  90320518.375 8  22057191.224    22057191.675    22057195.176
  22057195.177          48.000          48.750
 123750810.237 7  96429209.733 7  23548998.428    23548997.630    23549002.665
  23549002.134          42.750          44.000
 117047920.823 7  91206174.144 7  22273478.241    22273478.589    22273483.003
  22273482.930          46.250          47.750
 117331564.963 8  91427196.080 8  22327455.921    22327455.783    22327459.218
  22327459.059          48.500          48.750
 113096616.986 8  88127234.14947  21521568.089    21521567.509
  21521568.666          49.500          43.7504
 109123973.178 8  85031669.806 9  20765598.679    20765598.665    20765601.781
  20765602.297          53.000          55.250
 125149645.162 7  97519061.559 6  23815150.503    23815151.440    23815151.301
  23815151.392          43.750          40.000
 106341375.076 8  82863412.64447  20236089.171    20236088.404
  20236089.917          49.250          45.7504
 20  1  3  2 13  0.0000000  0  9G14G32G08G24G27G21G10G15G20
 127670763.231 6  99483713.64343  24294938.545    24294937.644
  24294939.736          38.000          21.5004
 115825990.832 8  90254017.644 8  22040951.017    22040951.293    22040955.139
  22040955.221          48.000          49.250
 123713053.947 7  96399789.237 7  23541813.796    23541813.332    23541818.060
  23541817.327          42.750          44.000
 117021799.829 7  91185820.119 8  22268508.042    22268508.106    22268512.553
  22268512.748          47.000          48.250
 117355847.847 7  91446117.778 8  22332076.797    22332076.549    22332080.417
  22332080.427          47.750          49.250
 113148693.856 8  88167813.51647  21531477.722    21531477.489
  21531478.604          49.500          43.7504
 109095993.747 8  85009867.650 9  20760274.125    20760274.383    20760277.567
  20760278.007          53.250          55.250
 125256735.417 7  97602508.478 6  23835529.865    23835529.534    23835530.216
  23835530.354          44.500          40.000
 106361728.013 8  82879272.07347  20239961.908    20239961.532
  20239962.984          49.000          45.7504
 20  1  3  2 13 30.0000000  0  9G14G32G08G24G27G21G10G15G20
 127567716.733 6  99403417.67643  24275329.679    24275329.496
  24275332.198          38.250          23.2504
 115740969.816 8  90187767.491 8  22024772.120    22024772.427    22024776.093
  22024776.167          48.250          49.500
 123675837.538 7  96370789.422 7  23534731.210    23534730.995    23534735.860
  23534735.960          42.250          44.000
 116996259.475 7  91165918.550 7  22263648.155    22263647.751    22263651.953
  22263652.436          47.250          47.500
 117380706.542 8  91465488.184 8  22336806.698    22336806.974    22336810.783
  22336810.833          48.000          49.000
 113201145.220 8  88208684.69347  21541459.337    21541458.735
  21541459.971          49.750          43.7504
 109068270.605 8  84988265.200 9  20754998.760    20754998.800    20755001.931
  20755002.416          53.250          55.250
 125363949.121 7  97686051.571 6  23855931.391    23855931.885    23855932.345
  23855932.580          44.500          40.250
 106382388.423 8  82895371.07747  20243893.831    20243892.938
  20243894.664          49.000          45.7504
 20  1  3  2 14  0.0000000  0  9G14G32G08G24G27G21G10G15G20
 127464809.395 6  99323230.16143  24255746.112    24255745.852
  24255749.211          37.750          22.0004
 115656269.889 8  90121767.577 8  22008654.024    22008654.490    22008658.501
  22008658.694          48.250          49.500
 123639160.603 7  96342209.981 7  23527752.078    23527751.363    23527756.843
  23527755.934          42.500          44.250
 116971299.399 7  91146469.142 7  22258897.977    22258898.451    22258902.629
  22258902.595          47.250          47.750
 117406137.719 8  91485304.653 8  22341646.526    22341646.424    22341650.430
  22341650.628          48.000          49.250
 113253968.376 8  88249845.58347  21551510.973    21551510.503
  21551511.860          49.750          43.7504
 109040801.999 8  84966861.093 9  20749771.686    20749771.746    20749774.944
  20749775.374          53.250          55.000
 125471281.773 7  97769687.364 6  23876355.232    23876355.516    23876357.782
  23876357.181          44.250          40.750
 106403354.811 8  82911708.51647  20247883.414    20247882.614
  20247884.395          48.750          45.7504
 20  1  3  2 14 30.0000000  0  9G14G32G08G24G27G21G10G15G20
 127362044.758 6  99243153.80343  24236191.596    24236191.140
  24236193.348          37.750          21.5004
 115571894.598 8  90056020.613 8  21992598.048    21992598.342    21992602.038
  21992602.178          48.250          49.500
 123603025.763 7  96314052.941 7  23520875.824    23520875.622    23520879.700
  23520880.042          43.000          43.750
 116946923.338 8  91127474.797 7  22254259.829    22254259.739    22254264.003
  22254264.094          48.000          47.750
 117432142.111 8  91505567.803 8  22346595.117    22346594.849    22346598.796
  22346598.792          48.000          48.750
 113307164.915 8  88291297.42047  21561634.029    21561633.288
  21561634.574          49.250          43.5004
 109013590.221 8  84945657.110 9  20744593.423    20744593.512    20744596.803
  20744597.055          53.500          55.250
 125578733.249 7  97853415.748 6  23896802.788    23896803.833    23896804.885
  23896804.490          44.250          40.250
 106424628.514 8  82928285.41747  20251931.679    20251931.000
  20251932.692          49.000          45.7504
 20  1  3  2 15  0.0000000  0  9G14G32G08G24G27G21G10G15G20
 127259424.201 6  99163189.72943  24216663.580    24216663.222
  24216665.119          38.250          20.7504
 115487844.842 8  89990527.311 8  21976603.809    21976604.272    21976608.066
  21976607.938          48.250          49.750
 123567433.839 7  96286318.966 7  23514102.952    23514102.736    23514107.153
  23514106.364          43.500          43.750
 116923132.169 7  91108936.214 8  22249732.151    22249732.433    22249736.614
  22249736.561          45.250          48.250
 117458717.699 8  91526276.032 8  22351652.412    22351652.188    22351655.489
  22351656.094          48.750          48.750
 113360734.191 8  88333039.68647  21571828.092    21571827.210
  21571828.824          49.500          43.5004
 108986634.891 8  84924652.959 9  20739464.061    20739464.133    20739467.270
  20739467.712          52.750          55.250
 125686300.711 7  97937234.505 6  23917272.420    23917273.104    23917275.318
  23917274.807          44.250          40.250
 106446209.222 8  82945101.54647  20256037.955    20256037.699
  20256039.293          49.000          45.7504
 20  1  3  2 15 30.0000000  0  9G14G32G08G24G27G21G10G15G20
 127156948.819 6  99083338.75843  24197162.823    24197162.845
  24197164.424          38.250          20.7504
 115404121.780 8  89925288.568 8  21960671.819    21960672.271    21960676.510
  21960676.064          48.500          49.750
 123532385.559 7  96259008.612 7  23507433.067    23507432.726    23507437.488
  23507437.592          43.250          43.250
 116899926.277 7  91090853.708 8  22245316.164    22245316.400    22245320.777
  22245320.950          47.250          48.250
 117485862.863 8  91547428.086 8  22356818.126    22356817.948    22356821.259
  22356821.327          48.750          48.750
 113414674.643 8  88375071.18947  21582092.389    21582091.757
  21582093.350          49.500          43.5004
 108959935.994 8  84903848.623 9  20734383.378    20734383.443    20734386.621
  20734387.021          53.500          54.750
 125793981.331 7  98021141.461 6  23937764.346    23937764.170    23937766.722
  23937764.440          45.000          40.250
 106468096.397 8  82962156.48547  20260203.313    20260202.805
  20260204.317          50.000          45.7504
 20  1  3  2 16  0.0000000  0  9G14G32G08G24G27G21G10G15G20
 127054620.583 6  99003602.45743  24177690.425    24177690.279
  24177692.586          38.500          21.5004
 115320727.022 8  89860305.651 8  21944802.690    21944802.928    21944806.429
  21944806.346          48.750          49.250
 123497882.075 7  96232122.755 7  23500867.310    23500867.579    23500871.625
  23500871.148          42.750          43.500
 116877307.498 7  91073228.687 8  22241012.269    22241012.187    22241016.578
  22241017.062          47.500          48.250
 117513576.256 8  91569022.912 8  22362091.524    22362091.329    22362095.188
  22362095.257          48.250          48.750
 113468986.163 8  88417391.84047  21592427.987    21592426.982
  21592428.492          49.500          43.5004
 108933493.887 8  84883244.384 9  20729351.615    20729351.764    20729354.751
  20729355.283          53.500          55.250
 125901773.175 7  98105135.077 6  23958276.334    23958276.051    23958276.447
  23958275.709          45.250          38.750
 106490289.910 8  82979450.12647  20264426.717    20264425.923
  20264427.566          50.000          45.7504
 20  1  3  2 16 30.0000000  0  9G14G32G08G24G27G21G10G15G20
 126952442.487 6  98923983.17343  24158246.491    24158246.969
  24158247.852          39.250          23.2504
 115237663.025 8  89795580.470 8  21928995.825    21928996.292    21929000.190
  21928999.789          48.750          49.750
 123463925.134 7  96205662.791 7  23494405.397    23494404.908    23494410.509
  23494410.196          42.500          44.000
 116855278.561 7  91056063.283 8  22236820.289    22236820.332    22236824.596
  22236824.582          47.000          48.250
 117541857.509 7  91591060.223 8  22367473.218    22367473.386    22367476.934
  22367476.905          47.750          49.000
 113523669.341 8  88460002.09447  21602833.469    21602833.011
  21602834.211          49.500          43.5004
 108907309.869 8  84862841.251 9  20724368.908    20724368.969    20724372.174
  20724372.664          53.500          55.000
 126009674.876 7  98189214.277 6  23978809.267    23978809.383    23978809.149
  23978809.804          44.250          38.250
 106512790.812 8  82996983.29147  20268708.418    20268707.800
  20268709.385          49.500          45.7504
 20  1  3  2 17  0.0000000  0  9G14G32G08G24G27G21G10G15G20
 126850414.472 6  98844480.81243  24138830.969    24138831.694
  24138835.018          39.250          22.7504
 115154929.666 8  89731112.926 8  21913252.523    21913252.863    21913256.269
  21913256.529          49.500          49.750
 123430514.113 7  96179628.219 7  23488047.669    23488047.333    23488052.291
  23488052.067          42.750          44.000
 116833839.126 7  91039357.229 8  22232739.850    22232740.303    22232744.844
  22232744.923          46.750          48.000
 117570703.546 8  91613537.629 8  22372962.465    22372962.471    22372966.332
  22372966.186          48.250          48.750
 113578721.967 8  88502900.22147  21613309.749    21613309.193
  21613310.476          49.500          43.2504
 108881382.565 9  84842638.163 9  20719435.257    20719435.209    20719438.385
  20719438.802          54.000          55.250
 126117682.872 7  98273376.318 6  23999362.214    23999362.023    23999364.246
  23999363.510          43.750          39.750
 106535597.864 8  83014755.00947  20273048.782    20273047.823
  20273049.417          50.250          46.0004
 20  1  3  2 17 30.0000000  0  9G14G32G08G24G27G21G10G15G20
 126748539.867 6  98765097.97544  24119445.780    24119444.830
  24119447.743          39.500          24.7504
 115072529.717 8  89666905.185 8  21897571.969    21897572.412    21897576.280
  21897576.255          49.000          49.750
 123397651.711 7  96154021.137 7  23481794.222    23481793.814    23481798.636
  23481798.694          43.500          43.750
 116812991.709 7  91023112.492 7  22228773.148    22228773.352    22228777.772
  22228777.559          47.500          47.750
 117600114.253 8  91636455.040 8  22378559.300    22378559.035    22378562.714
  22378562.984          48.250          48.500
 113634145.166 8  88546087.12147  21623856.350    21623855.847
  21623857.061          49.750          43.2504
 108855713.575 8  84822636.349 9  20714550.361    20714550.534    20714553.771
  20714554.186          53.500          55.000
 126225796.246 7  98357620.507 6  24019935.910    24019935.742    24019936.674
  24019937.170          44.000          39.250
 106558711.877 8  83032765.91347  20277446.988    20277446.218
  20277447.859          50.250          45.7504
 20  1  3  2 18  0.0000000  0  9G14G32G08G24G27G21G10G15G20
 126646819.175 6  98685835.10544  24100088.561    24100088.543
  24100091.316          39.500          25.0004
 114990463.601 8  89602957.576 8  21881955.404    21881955.940    21881959.465
  21881959.827          49.500          50.250
 123365337.743 7  96128841.417 7  23475645.068    23475644.926    23475649.805
  23475648.888          43.250          43.750
 116792736.292 7  91007329.051 7  22224918.613    22224918.810    22224922.781
  22224922.969          47.250          47.750
 117630087.085 8  91659810.474 8  22384263.032    22384262.723    22384266.259
  22384266.361          48.000          48.500
 113689936.780 8  88589561.08747  21634473.355    21634472.559
  21634473.926          49.250          43.0004
 108830302.183 8  84802835.263 9  20709714.894    20709714.925    20709718.057
  20709718.589          53.500          55.250
 126334011.602 7  98441944.080 6  24040528.649    24040527.946    24040529.078
  24040529.189          43.750          39.500
 106582131.609 8  83051015.04847  20281903.489    20281902.887
  20281904.560          50.000          46.0004
