     2.11           OBSERVATION DATA    G (GPS)             RINEX VERSION / TYPE
teqc  2018Jun8                          20200102 01:12:02UTCPGM / RUN BY / DATE
Linux 2.4.20-8|x86|gcc -static|Linux 32|=+                  COMMENT
BIT 2 OF LLI FLAGS DATA COLLECTED UNDER A/S CONDITION       COMMENT
POL2                                                        MARKER NAME
GGN                 JPL                                     OBSERVER / AGENCY
02563                 Javad Delta-3             1s jps      REC # / TYPE / VERS
383-1030            TPSCR.G3                                ANT # / TYPE
  1239971.4511  4530790.0876  4302578.7950                  APPROX POSITION XYZ
        0.0780        0.0000        0.0000                  ANTENNA: DELTA H/E/N
     1     1                                                WAVELENGTH FACT L1/2
     8    L1    L2    C1    P1    C2    P2    S1    S2      # / TYPES OF OBSERV
    30.0000                                                 INTERVAL
Forced Modulo Decimation to 30 seconds                      COMMENT
 SNR is mapped to RINEX snr flag value [0-9]                COMMENT
  L1 & L2: min(max(int(snr_dBHz/6), 0), 9)                  COMMENT
teqc edited: all GLONASS satellites excluded                COMMENT
teqc edited: all SBAS satellites excluded                   COMMENT
teqc edited: all Galileo satellites excluded                COMMENT
teqc edited: all Beidou satellites excluded                 COMMENT
teqc edited: all QZSS satellites excluded                   COMMENT
teqc edited: all IRNSS satellites excluded                  COMMENT
pseudorange smoothing corrections not applied               COMMENT
  2020     1     2     0     0    0.0000000     GPS         TIME OF FIRST OBS
                                                            END OF HEADER
 20  1  2  0  0  0.0000000  0  9G15G16G10G05G20G21G13G26G29
 109080547.765 9  84997828.550 8  20757337.631    20757337.709    20757338.986
  20757338.723          54.500          52.000
 125684382.339 6  97935879.42644  23916942.275    23916941.585
  23916943.614          40.250          24.0004
 125630487.918 6  97893887.022 7  23906686.769    23906687.005    23906690.433
  23906690.989          41.750          44.250
 128509647.745 6 100137392.514 6  24454572.868    24454573.220    24454573.936
  24454573.677          40.000          39.250
 112411304.536 7  87593223.85946  21391159.047    21391158.237
  21391159.966          47.500          41.2504
 111954272.836 8  87237099.58247  21304188.521    21304187.808
  21304188.660          49.000          45.2504
 116160704.330 7  90514838.38346  22104645.765    22104646.019
  22104646.704          45.750          36.7504
 127347864.102 6  99232100.236 7  24233493.783    24233493.103    24233499.026
  24233499.227          37.250          42.250
 113173305.536 8  88186994.239 8  21536163.065    21536163.077    21536164.752
  21536164.724          51.000          49.750
 20  1  2  0  0 30.0000000  0  9G15G16G10G05G20G21G13G26G29
 109065006.856 9  84985718.755 8  20754380.229    20754380.406    20754381.777
  20754381.379          54.250          52.000
 125702760.694 6  97950200.22444  23920439.650    23920439.565
  23920441.380          40.000          25.0004
 125541390.851 6  97824460.739 7  23889732.173    23889732.190    23889735.371
  23889736.178          40.750          44.000
 128610654.957 6 100216099.454 6  24473794.638    24473794.478    24473794.891
  24473793.843          41.500          37.750
 112347434.707 7  87543455.16746  21379004.709    21379004.069
  21379005.818          46.500          41.0004
 111920388.992 8  87210696.58447  21297740.604    21297739.824
  21297740.812          48.500          45.2504
 116190006.288 7  90537671.08146  22110222.375    22110222.047
  22110222.942          46.750          36.7504
 127403278.346 6  99275280.144 6  24244039.516    24244038.614    24244043.408
  24244044.037          39.500          41.500
 113257320.811 8  88252460.678 8  21552150.867    21552150.798    21552152.498
  21552152.419          50.750          49.750
 20  1  2  0  1  0.0000000  0  9G15G16G10G05G20G21G13G26G29
 109050110.838 9  84974111.474 8  20751545.620    20751545.742    20751547.024
  20751546.904          54.250          52.250
 125721688.694 6  97964949.31143  23924041.938    23924042.087
  23924042.426          40.250          23.7504
 125452460.958 6  97755164.722 7  23872809.259    23872809.684    23872813.484
  23872813.321          41.500          44.250
 128711667.405 6 100294810.380 6  24493016.745    24493016.142    24493018.163
  24493018.055          41.250          39.000
 112283851.662 7  87493909.95446  21366905.181    21366904.848
  21366906.351          46.750          41.5004
 111886695.246 8  87184441.71447  21291328.779    21291328.123
  21291329.200          48.750          45.2504
 116219913.480 7  90560975.37646  22115913.736    22115913.088
  22115913.995          46.750          37.0004
 127459039.490 6  99318730.401 6  24254649.845    24254649.383    24254655.136
  24254655.715          38.000          41.750
 113341742.550 8  88318243.852 8  21568215.598    21568215.668    21568217.442
  21568217.312          51.000          50.000
 20  1  2  0  1 30.0000000  0  9G15G16G10G05G20G21G13G26G29
 109035859.460 9  84963006.508 8  20748833.689    20748833.797    20748835.139
  20748835.002          54.250          52.500
 125741164.122 6  97980124.93944  23927746.763    23927747.305
  23927748.088          39.750          25.2504
 125363698.130 6  97685998.868 7  23855918.254    23855918.477    23855922.118
  23855922.560          41.750          44.250
 128812682.838 6 100373523.642 6  24512237.545    24512237.247    24512239.317
  24512239.112          39.750          36.000
 112220554.889 7  87444587.79546  21354860.385    21354859.793
  21354861.431          46.500          41.2504
 111853192.258 8  87158335.49347  21284953.289    21284952.782
  21284953.837          48.500          45.0004
 116250424.120 7  90584749.90746  22121719.552    22121719.229
  22121720.053          46.500          36.7504
 127515144.032 6  99362448.192 6  24265326.741    24265325.706    24265330.351
  24265331.349          38.750          41.500
 113426568.037 8  88384341.622 8  21584357.003    21584357.266    21584359.143
  21584359.033          50.250          49.500
 20  1  2  0  2  0.0000000  0  9G15G16G10G05G20G21G13G26G29
 109022255.348 9  84952405.912 8  20746244.834    20746244.968    20746246.370
  20746246.266          54.000          52.250
 125761187.326 6  97995727.43544  23931557.909    23931557.722
  23931558.492          39.750          25.2504
 125275105.212 7  97616965.427 7  23839059.770    23839059.915    23839063.424
  23839063.738          42.500          44.500
 128913701.984 6 100452239.972 5  24531461.201    24531462.111    24531461.346
  24531461.592          41.250          34.750
 112157546.841 7  87395490.61546  21342870.649    21342869.910
  21342871.386          46.000          41.7504
 111819882.324 8  87132379.69847  21278614.584    21278614.044
  21278615.115          48.000          45.0004
 116281539.252 7  90608995.46546  22127640.278    22127640.011
  22127640.775          46.500          36.5004
 127571591.330 6  99406433.094 7  24276068.357    24276067.927    24276073.122
  24276072.899          39.000          42.000
 113511796.906 8  88450753.717 8  21600575.821    21600575.851    21600577.720
  21600577.529          50.250          49.750
 20  1  2  0  2 30.0000000  0  9G15G16G10G05G20G21G13G26G29
 109009299.449 9  84942310.408 8  20743779.281    20743779.593    20743781.033
  20743780.730          54.000          52.250
 125781758.191 6  98011756.67244  23935472.475    23935472.175
  23935472.875          40.000          25.0004
 125186683.467 6  97548065.364 7  23822233.460    23822233.636    23822237.480
  23822237.765          41.500          45.250
 129014724.510 7 100530958.780 6  24550686.227    24550686.429    24550688.178
  24550687.168          43.000          37.500
 112094828.335 7  87346619.07046  21330935.507    21330934.837
  21330936.447          46.250          41.2504
 111786767.509 8  87106575.94847  21272313.244    21272312.511
  21272313.589          48.000          45.2504
 116313258.176 7  90633711.52246  22133676.233    22133676.257
  22133677.195          46.250          36.7504
 127628379.441 6  99450683.553 6  24286874.544    24286874.064    24286878.770
  24286879.061          38.500          40.750
 113597427.465 8  88517478.820 8  21616870.959    21616870.964    21616872.603
  21616872.782          50.500          49.750
 20  1  2  0  3  0.0000000  0  9G15G16G10G05G20G21G13G26G29
 108996989.946 9  84932718.590 8  20741437.040    20741437.080    20741438.526
  20741438.269          54.500          52.000
 125802873.126 6  98028209.86944  23939491.611    23939490.858
  23939490.449          40.000          24.5004
 125098431.574 6  97479297.684 7  23805439.638    23805439.706    23805443.071
  23805443.892          41.250          45.000
 129115746.647 7 100609677.308 6  24569908.964    24569909.606    24569911.062
  24569910.448          42.000          38.000
 112032398.127 7  87297972.16046  21319055.630    21319054.737
  21319056.508          46.250          41.5004
 111753846.613 7  87080923.30747  21266048.685    21266047.793
  21266049.062          47.750          45.5004
 116345577.777 7  90658895.63246  22139826.220    22139826.463
  22139827.448          46.000          36.5004
 127685503.529 6  99495195.827 7  24297744.749    24297745.084    24297749.652
  24297750.223          38.500          42.000
 113683455.905 8  88584513.958 8  21633241.612    21633241.741    21633242.865
  21633243.134          50.250          49.250
 20  1  2  0  3 30.0000000  0  9G15G16G10G05G20G21G13G26G29
 108985327.945 9  84923631.317 8  20739217.530    20739217.911    20739219.091
  20739219.009          54.000          52.000
 125824530.905 6  98045086.03844  23943611.808    23943611.692
  23943612.967          39.000          25.0004
 125010350.774 7  97410663.312 7  23788678.734    23788678.697    23788681.764
  23788682.571          42.250          45.000
 129216767.819 7 100688395.163 5  24589133.802    24589133.380    24589133.554
  24589132.249          43.250          33.750
 111970256.994 7  87249550.49946  21307230.373    21307229.779
  21307231.652          46.750          41.7504
 111721120.395 8  87055422.36247  21259820.697    21259820.202
  21259821.315          48.000          45.5004
 116378497.284 7  90684547.21046  22146090.528    22146090.482
  22146091.911          46.500          36.5004
 127742961.455 6  99539968.212 6  24308678.062    24308678.153    24308683.018
  24308683.331          38.000          40.750
 113769880.416 8  88651857.720 8  21649687.895    21649687.555    21649689.386
  21649689.249          50.250          49.500
 20  1  2  0  4  0.0000000  0  9G15G16G10G05G20G21G13G26G29
 108974315.257 9  84915050.006 8  20737122.167    20737122.335    20737123.513
  20737123.454          54.000          52.250
 125846731.535 6  98062385.21644  23947836.758    23947836.532
  23947836.288          39.750          24.2504
 124922442.997 7  97342163.725 7  23771950.291    23771950.223    23771953.467
  23771953.791          42.250          44.250
 129317787.879 6 100767112.116 6  24608356.083    24608356.428    24608358.992
  24608357.151          41.250          38.500
 111908406.335 7  87201355.19546  21295460.467    21295459.795
  21295461.530          46.250          41.7504
 111688591.358 7  87030075.06147  21253631.079    21253630.131
  21253631.307          47.750          45.5004
 116412016.970 7  90710666.44046  22152469.470    22152469.089
  22152470.401          46.750          36.2504
 127800751.784 6  99584999.655 6  24319676.192    24319676.087    24319680.788
  24319681.056          39.000          40.750
 113856699.674 8  88719509.079 8  21666208.918    21666208.809    21666210.251
  21666210.491          50.000          49.000
 20  1  2  0  4 30.0000000  0  9G15G16G10G05G20G21G13G26G29
 108963950.938 9  84906973.915 8  20735149.940    20735150.046    20735151.158
  20735151.131          54.000          52.000
 125869472.628 6  98080105.53544  23952163.869    23952164.058
  23952163.870          40.000          24.5004
 124834708.194 7  97273798.945 7  23755254.888    23755255.000    23755258.188
  23755258.418          42.500          44.000
 129418805.304 7 100845826.954 6  24627580.718    24627581.151    24627581.676
  24627581.945          44.250          40.750
 111846846.186 7  87153386.25446  21283746.186    21283745.529
  21283746.841          46.250          41.7504
 111656260.336 7  87004882.06347  21247478.465    21247477.830
  21247479.014          47.750          45.5004
 116446134.508 7  90737251.55045  22158961.576    22158961.378
  22158963.120          46.750          35.7504
 127858871.059 6  99630287.382 6  24330735.746    24330735.624    24330739.700
  24330740.250          38.250          41.250
 113943911.040 8  88787465.973 8  21682804.366    21682804.542    21682806.082
  21682805.976          49.500          48.750
 20  1  2  0  5  0.0000000  0  9G15G16G10G05G20G21G13G26G29
 108954233.332 9  84899401.761 8  20733300.758    20733300.808    20733301.759
  20733301.963          54.000          52.250
 125892750.654 6  98098244.27244  23956593.669    23956593.715
  23956594.423          39.500          24.5004
 124747145.003 7  97205567.897 7  23738592.070    23738592.497    23738595.821
  23738596.245          42.750          44.500
 129519816.211 7 100924536.656 6  24646801.080    24646801.599    24646803.567
  24646803.188          42.250          41.000
 111785574.687 7  87105642.23047  21272086.649    21272085.870
  21272087.182          46.500          42.0004
 111624125.468 7  86979841.90347  21241363.151    21241362.714
  21241364.019          47.250          45.5004
 116480846.936 7  90764300.19146  22165566.893    22165566.867
  22165568.063          46.750          36.0004
 127917314.513 6  99675827.731 6  24341857.423    24341856.882    24341861.518
  24341862.461          39.500          40.500
 114031510.326 8  88855725.149 8  21699474.300    21699473.952    21699475.944
  21699475.807          49.500          49.000
 20  1  2  0  5 30.0000000  0 10G15G16G10G05G20G21G13G27G26G29
 108945166.246 8  84892336.509 8  20731575.048    20731575.357    20731576.745
  20731576.751          53.750          52.250
 125916567.726 6  98116803.03643  23961125.924    23961125.214
  23961126.861          38.750          23.7504
 124659757.656 7  97137473.853 7  23721962.373    23721962.525    23721965.914
  23721966.291          42.250          44.500
 129620822.805 7 101003243.077 6  24666023.260    24666022.776    24666023.140
  24666023.462          43.500          39.750
 111724595.567 7  87058126.04747  21260482.982    21260482.095
  21260483.292          46.500          42.5004
 111592191.557 8  86954958.34547  21235286.608    21235285.996
  21235287.051          48.000          45.5004
 116516156.310 7  90791813.99146  22172286.174    22172285.907
  22172287.531          47.000          36.0004
 129939507.137 6 101251565.183 5  24726666.823    24726666.094    24726669.714
  24726673.385          37.500          34.000
 127976082.984 6  99721621.339 6  24353040.339    24353040.097    24353044.982
  24353045.236          38.750          41.250
 114119498.666 8  88924287.472 8  21716217.816    21716218.087    21716219.758
  21716219.286          49.750          49.000
 20  1  2  0  6  0.0000000  0 10G15G16G10G05G20G21G13G27G26G29
 108936747.980 9  84885776.834 8  20729973.191    20729973.360    20729974.806
  20729974.571          54.000          52.250
 125940920.648 6  98135779.31343  23965760.066    23965760.286
  23965761.336          39.000          23.7504
 124572545.011 7  97069515.979 7  23705366.893    23705366.838    23705370.472
  23705370.913          42.500          45.000
 129721822.438 6 101081944.089 6  24685240.275    24685241.635    24685243.535
  24685242.970          38.750          39.750
 111663907.607 7  87010836.73047  21248933.970    21248933.473
  21248934.874          47.000          42.2504
 111560457.321 7  86930230.36247  21229247.622    21229247.107
  21229248.288          47.750          45.7504
 116552059.510 7  90819790.52146  22179118.573    22179118.324
  22179119.523          46.750          36.0004
 129837681.540 6 101172220.554 6  24707289.481    24707289.540    24707293.854
  24707292.800          38.500          40.250
 128035171.887 6  99767664.632 6  24364284.571    24364284.316    24364289.150
  24364289.995          38.250          41.250
 114207872.030 8  88993149.817 8  21733034.541    21733034.855    21733035.699
  21733036.273          49.750          48.500
 20  1  2  0  6 30.0000000  0 10G15G16G10G05G20G21G13G27G26G29
 108928980.553 8  84879724.302 8  20728495.098    20728495.317    20728496.865
  20728496.565          53.750          52.250
 125965809.147 6  98155172.93244  23970495.096    23970496.398
  23970497.152          38.500          24.5004
 124485509.074 7  97001695.773 7  23688804.283    23688804.515    23688808.135
  23688808.867          42.500          45.000
 129822815.228 6 101160639.770 6  24704460.546    24704460.861    24704461.312
  24704460.747          41.750          39.000
 111603512.697 7  86963775.75147  21237441.099    21237440.540
  21237442.229          46.250          42.2504
 111528925.673 7  86905660.24447  21223247.490    21223246.911
  21223247.985          47.500          45.5004
 116588556.682 7  90848229.87346  22186063.862    22186063.407
  22186064.167          47.500          36.2504
 129736061.157 6 101093035.836 6  24687953.149    24687951.815    24687954.531
  24687955.494          40.250          39.500
 128094579.847 6  99813956.529 6  24375589.317    24375589.632    24375593.215
  24375594.326          38.500          39.500
 114296629.455 8  89062311.438 8  21749924.911    21749924.861    21749926.485
  21749926.402          49.750          49.000
 20  1  2  0  7  0.0000000  0 10G15G16G10G05G20G21G13G27G26G29
 108921861.632 8  84874177.094 8  20727140.257    20727140.708    20727142.204
  20727142.002          53.750          52.500
 125991229.732 6  98174981.17444  23975334.066    23975332.839
  23975335.444          38.250          24.2504
 124398648.749 7  96934012.411 7  23672275.268    23672275.216    23672278.366
  23672279.336          42.500          44.500
 129923797.812 6 101239327.459 6  24723676.929    24723676.972    24723677.811
  24723677.048          40.500          39.000
 111543409.061 7  86916941.76547  21226003.823    21226003.190
  21226004.997          46.750          42.5004
 111497595.225 7  86881246.90047  21217285.474    21217284.781
  21217285.969          47.750          45.2504
 116625644.570 7  90877129.51946  22193121.605    22193121.269
  22193122.464          47.250          36.0004
 129634646.842 6 101014011.694 6  24668652.626    24668653.721    24668657.278
  24668657.508          39.750          39.500
 128154302.312 6  99860493.527 6  24386954.851    24386954.368    24386959.039
  24386959.431          38.000          40.500
 114385766.899 8  89131769.170 8  21766887.182    21766887.140    21766888.318
  21766888.673          49.500          48.500
 20  1  2  0  7 30.0000000  0 10G15G16G10G05G20G21G13G27G26G29
 108915392.355 8  84869136.115 8  20725909.629    20725909.674    20725910.833
  20725910.692          53.750          52.000
 126017181.491 6  98195203.30844  23980272.149    23980271.309
  23980272.836          38.500          24.7504
 124311965.407 7  96866466.956 7  23655780.185    23655780.293    23655783.220
  23655783.388          43.000          44.750
 130024769.900 6 101318006.960 6  24742892.435    24742891.058    24742892.637
  24742891.494          41.250          39.250
 111483598.093 7  86870335.81147  21214622.403    21214621.539
  21214623.234          46.500          42.5004
 111466467.969 8  86856991.90047  21211362.298    21211361.710
  21211362.760          48.000          45.7504
 116663322.604 7  90906489.02945  22200291.168    22200290.683
  22200292.267          47.250          35.7504
 129533441.980 6 100935150.767 6  24649394.902    24649395.054    24649397.824
  24649398.153          39.750          39.750
 128214337.279 6  99907274.005 6  24398379.445    24398378.113    24398383.444
  24398383.791          38.000          40.250
 114475282.750 8  89201521.779 8  21783921.521    21783921.416    21783922.589
  21783922.769          49.750          48.250
 20  1  2  0  8  0.0000000  0 10G15G16G10G05G20G21G13G27G26G29
 108909572.681 9  84864601.305 8  20724802.010    20724802.232    20724803.397
  20724803.278          54.000          52.250
 126043662.887 6  98215838.18544  23985311.954    23985311.838
  23985312.041          38.500          25.0004
 124225459.444 7  96799059.722 7  23639318.553    23639318.666    23639322.228
  23639322.252          42.500          44.750
 130125730.162 7 101396677.332 6  24762104.625    24762104.805    24762105.412
  24762104.837          43.000          38.500
 111424079.879 7  86823957.98647  21203296.443    21203295.708
  21203297.294          46.750          42.5004
 111435544.306 7  86832895.54147  21205477.468    21205477.074
  21205477.896          47.750          45.7504
 116701589.176 7  90936307.14046  22207572.688    22207572.971
  22207574.317          47.250          36.0004
 129432448.915 6 100856454.863 6  24630175.923    24630175.969    24630180.072
  24630179.023          38.750          38.750
 128274681.707 6  99954295.636 6  24409861.057    24409861.286    24409866.025
  24409866.738          36.750          40.250
 114565174.793 8  89271567.521 8  21801026.890    21801027.138    21801029.131
  21801028.536          48.500          48.500
 20  1  2  0  8 30.0000000  0 10G15G16G10G05G20G21G13G27G26G29
 108904403.240 8  84860573.179 8  20723818.285    20723818.372    20723819.697
  20723819.485          53.500          52.250
 126070672.754 6  98236884.80644  23990451.561    23990451.219
  23990452.686          38.500          25.2504
 124139132.279 6  96731791.793 7  23622890.905    23622890.411    23622894.473
  23622894.819          41.750          44.750
 130226678.257 6 101475338.155 6  24781313.277    24781313.123    24781315.004
  24781313.972          41.000          38.000
 111364855.204 7  86777808.89747  21192026.114    21192025.513
  21192027.296          46.500          42.2504
 111404826.238 7  86808959.38347  21199631.997    21199631.561
  21199632.674          47.250          45.7504
 116740443.599 7  90966583.31745  22214966.540    22214966.149
  22214967.608          47.000          35.2504
 129331670.965 6 100777926.581 6  24610998.619    24610998.520    24611001.911
  24611001.167          39.750          38.500
 128335333.583 6 100001556.828 6  24421404.420    24421404.154    24421409.316
  24421408.238          38.750          40.750
 114655441.354 8  89341905.086 8  21818204.322    21818204.418    21818205.755
  21818205.969          49.250          48.250
 20  1  2  0  9  0.0000000  0 10G15G16G10G05G20G21G13G27G26G29
 108899884.405 8  84857052.017 8  20722958.422    20722958.424    20722959.625
  20722959.651          53.000          52.000
 126098209.227 6  98258341.79744  23995691.244    23995690.984
  23995691.514          36.750          24.5004
 124052984.584 7  96664663.728 7  23606497.304    23606497.567    23606500.911
  23606501.728          42.000          45.000
 130327612.484 7 101553988.183 6  24800521.132    24800521.443    24800522.531
  24800521.311          42.500          37.250
 111305924.919 7  86731889.19547  21180812.189    21180811.390
  21180812.951          47.000          42.5004
 111374314.509 7  86785184.00847  21193826.060    21193825.273
  21193826.427          47.500          45.7504
 116779884.416 7  90997316.42945  22222471.941    22222471.777
  22222472.962          47.000          35.2504
 129231110.859 6 100699568.068 6  24591863.654    24591863.160    24591865.961
  24591867.081          39.500          39.500
 128396290.125 6 100049055.412 6  24433002.206    24433002.545    24433007.649
  24433007.724          36.750          40.000
 114746079.905 8  89412532.522 8  21835452.344    21835452.400    21835454.016
  21835453.750          49.000          48.500
 20  1  2  0  9 30.0000000  0 10G15G16G10G05G20G21G13G27G26G29
 108896014.736 8  84854036.695 8  20722221.612    20722222.122    20722223.497
  20722223.218          52.500          52.250
 126126270.049 6  98280207.36043  24001030.825    24001030.845
  24001032.039          37.000          23.7504
 123967015.889 7  96597675.154 7  23590138.781    23590138.581    23590142.642
  23590142.802          42.500          45.250
 130428530.786 7 101632625.789 5  24819724.352    24819724.717    24819725.055
  24819724.282          42.250          34.250
 111247288.211 7  86686198.25447  21169654.044    21169653.308
  21169655.165          46.750          42.7504
 111344008.562 7  86761568.99147  21188058.830    21188058.320
  21188059.280          47.250          45.7504
 116819909.141 7  91028504.53245  22230088.753    22230088.044
  22230089.461          47.000          35.5004
 129130770.120 6 100621380.470 6  24572768.082    24572768.825    24572772.983
  24572772.851          37.750          40.500
 128457547.512 6 100096788.448 6  24444660.710    24444659.910    24444664.012
  24444664.078          37.750          39.750
 114837087.063 8  89483447.187 8  21852770.379    21852770.546    21852772.258
  21852772.046          48.750          48.500
 20  1  2  0 10  0.0000000  0 10G15G16G10G05G20G21G13G27G26G29
 108892795.888 8  84851528.510 8  20721609.485    20721609.542    20721611.129
  20721610.844          53.250          52.500
 126154854.770 6  98302481.14744  24006470.624    24006469.553
  24006471.509          36.750          24.2504
 123881228.184 7  96530827.588 7  23573813.698    23573813.533    23573816.956
  23573817.509          43.000          45.250
 130529433.409 7 101711251.135 6  24838925.155    24838925.676    24838927.145
  24838927.133          42.250          36.750
 111188946.608 7  86640737.26347  21158552.056    21158551.303
  21158553.015          46.500          42.5004
 111313911.486 7  86738116.71747  21182331.636    21182331.075
  21182332.142          47.250          45.7504
 116860517.779 7  91060147.63045  22237816.403    22237815.888
  22237817.050          47.750          35.7504
 129030652.757 6 100543366.907 6  24553716.034    24553716.856    24553720.840
  24553721.022          38.500          41.500
 128519104.203 6 100144754.702 6  24456373.591    24456373.831    24456377.542
  24456378.684          36.750          39.750
 114928461.872 8  89554648.323 8  21870158.241    21870158.429    21870160.232
  21870160.129          48.750          48.000
 20  1  2  0 10 30.0000000  0  9G15G10G05G20G21G13G27G26G29
 108890227.802 8  84849527.412 8  20721120.639    20721120.759    20721122.316
  20721122.046          52.000          52.250
 123795622.388 7  96464121.779 7  23557522.444    23557523.154    23557526.313
  23557526.983          42.000          45.250
 130630319.453 7 101789863.682 5  24858124.311    24858124.621    24858124.013
  24858124.646          42.750          35.750
 111130900.501 7  86595506.54247  21147506.325    21147505.338
  21147507.023          46.500          42.5004
 111284024.300 7  86714827.99647  21176644.466    21176643.753
  21176644.603          47.750          45.7504
 116901708.687 7  91092244.44545  22245654.814    22245654.157
  22245654.980          47.750          35.7504
 128930761.597 6 100465529.635 7  24534707.527    24534707.652    24534712.540
  24534712.160          38.000          42.500
 128580957.742 6 100192952.228 6  24468144.057    24468144.611    24468148.289
  24468149.074          37.000          40.250
 115020202.140 8  89626134.238 8  21887616.223    21887616.144    21887617.759
  21887617.690          49.000          48.250
 20  1  2  0 11  0.0000000  0  9G15G10G05G20G21G13G27G26G29
 108888309.827 8  84848032.900 8  20720755.964    20720755.876    20720757.428
  20720757.288          51.250          52.250
 123710198.596 7  96397557.807 7  23541267.486    23541267.980    23541271.593
  23541271.470          42.500          45.000
 130731188.038 7 101868462.571 6  24877318.827    24877318.771    24877318.645
  24877319.302          42.250          36.500
 111073149.516 7  86550505.76947  21136516.426    21136515.728
  21136517.784          47.250          42.7504
 111254347.228 7  86691703.00347  21170997.038    21170996.391
  21170997.494          47.500          45.7504
 116943480.154 7  91124793.63945  22253603.274    22253603.095
  22253604.408          47.750          35.5004
 128831098.814 6 100387870.323 7  24515743.074    24515743.136    24515747.239
  24515747.230          38.500          42.750
 128643104.743 6 100241378.462 6  24479969.608    24479970.545    24479974.017
  24479974.673          37.250          40.000
 115112305.109 8  89697902.782 7  21905142.440    21905142.486    21905144.149
  21905144.168          48.500          47.750
 20  1  2  0 11 30.0000000  0  9G15G10G05G20G21G13G27G26G29
 108887041.054 8  84847044.250 8  20720514.366    20720514.476    20720515.958
  20720515.640          50.250          52.250
 123624956.452 7  96331135.334 7  23525046.530    23525046.618    23525049.880
  23525050.438          42.750          45.250
 130832035.649 6 101947045.115 5  24896508.869    24896509.734    24896509.711
  24896508.891          41.500          35.000
 111015694.034 7  86505735.27747  21125582.887    21125582.208
  21125583.925          46.500          42.7504
 111224880.332 7  86668741.77847  21165389.555    21165389.072
  21165389.970          46.500          45.7504
 116985829.491 7  91157793.11145  22261662.324    22261661.994
  22261662.991          47.750          35.5004
 128731666.050 6 100310390.263 7  24496821.736    24496822.032    24496825.805
  24496826.349          39.750          42.000
 128705541.446 6 100290030.437 6  24491851.108    24491851.331    24491855.542
  24491857.438          36.250          40.750
 115204767.406 8  89769951.323 7  21922737.687    21922737.618    21922739.124
  21922739.140          48.500          47.500
 20  1  2  0 12  0.0000000  0  9G15G10G05G20G21G13G27G26G29
 108886422.506 8  84846562.275 8  20720396.636    20720396.718    20720398.355
  20720397.977          51.250          52.250
 123539897.610 6  96264855.718 7  23508860.124    23508860.315    23508863.814
  23508864.498          41.750          45.500
 130932862.680 6 102025611.643 6  24915695.008    24915695.442    24915698.899
  24915699.070          41.500          39.250
 110958534.702 7  86461195.52747  21114705.817    21114705.362
  21114706.996          47.000          43.0004
 111195625.404 7  86645945.72447  21159822.604    21159821.894
  21159823.029          47.750          45.5004
 117028756.138 8  91191242.44545  22269831.040    22269830.905
  22269832.049          48.000          35.7504
 128632466.983 6 100233092.298 6  24477945.315    24477943.648    24477948.228
  24477948.254          40.500          41.000
 128768266.080 6 100338906.759 6  24503787.395    24503787.622    24503791.904
  24503791.988          37.000          39.250
 115297587.784 8  89842278.873 8  21940400.759    21940400.756    21940402.724
  21940402.269          48.250          48.250
 20  1  2  0 12 30.0000000  0 10G15G10G05G20G21G13G27G16G26G29
 108886453.009 8  84846586.050 8  20720402.271    20720402.502    20720403.815
  20720403.543          51.500          52.000
 123455021.891 6  96198718.810 7  23492709.052    23492708.830    23492713.201
  23492713.561          41.750          46.000
 131033667.425 6 102104160.835 6  24934877.165    24934877.843    24934879.833
  24934878.567          40.250          37.250
 110901670.998 7  86416886.17747  21103885.211    21103884.549
  21103886.030          46.000          42.7504
 111166582.796 7  86623315.11647  21154296.106    21154295.356
  21154296.409          47.000          46.0004
 117072257.888 8  91225139.92345  22278108.964    22278108.800
  22278109.922          48.000          35.5004
 128533503.455 6 100155977.861 6  24459112.896    24459112.221    24459115.853
  24459115.319          41.000          40.500
 126305566.320 6  98419920.47443  24035151.117    24035149.442
  24035150.879          36.000          23.2504
 128831274.983 6 100388004.600 6  24515778.476    24515778.217    24515782.819
  24515783.282          38.000          41.250
 115390762.829 8  89914882.810 7  21958131.552    21958131.896    21958132.784
  21958132.985          48.500          47.750
 20  1  2  0 13  0.0000000  0  9G15G10G05G20G21G13G27G26G29
 108887133.462 8  84847116.281 8  20720531.834    20720532.183    20720533.283
  20720533.177          50.250          52.500
 123370330.926 7  96132725.858 7  23476592.923    23476593.035    23476596.695
  23476597.005          42.000          45.750
 131134449.596 6 102182692.388 6  24954055.977    24954057.036    24954058.939
  24954056.713          40.750          38.000
 110845104.574 7  86372808.42347  21093120.971    21093120.408
  21093121.857          46.750          43.0004
 111137754.967 7  86600851.86347  21148810.217    21148809.533
  21148810.680          46.750          45.7504
 117116334.016 8  91259484.98245  22286496.800    22286496.435
  22286497.123          48.000          35.5004
 128434779.182 6 100079049.866 6  24440326.388    24440326.109    24440329.271
  24440329.684          41.250          39.750
 128894566.325 6 100437322.543 6  24527821.642    24527820.754    24527825.779
  24527826.905          36.250          40.250
 115484291.415 7  89987762.226 8  21975929.244    21975929.060    21975931.105
  21975930.986          47.500          48.250
 20  1  2  0 13 30.0000000  0  8G15G10G05G20G21G13G27G29
 108888464.495 8  84848153.451 8  20720785.128    20720785.275    20720786.437
  20720786.430          50.500          52.250
 123285826.197 7  96066878.011 7  23460512.501    23460512.259    23460515.684
  23460516.336          42.750          45.750
 131235208.817 6 102261206.068 6  24973230.427    24973230.637    24973231.224
  24973229.773          41.000          37.000
 110788836.421 7  86328963.13347  21082413.420    21082412.740
  21082414.537          47.000          43.0004
 111109142.980 7  86578556.80147  21143365.477    21143364.884
  21143366.002          46.750          45.5004
 117160983.799 8  91294277.01745  22294992.879    22294992.887
  22294994.200          48.250          35.2504
 128336297.637 6 100002310.996 6  24421585.732    24421585.669    24421589.652
  24421588.423          41.250          39.750
 115578172.001 7  90060915.913 8  21993794.108    21993794.094    21993795.670
  21993795.898          47.750          48.000
 20  1  2  0 14  0.0000000  0  8G15G10G05G20G21G13G27G29
 108890443.593 8  84849695.610 8  20721161.870    20721161.816    20721163.108
  20721163.024          50.250          52.500
 123201506.006 7  96001173.973 7  23444466.270    23444466.299    23444470.058
  23444470.468          42.000          46.000
 131335941.897 6 102339699.330 6  24992399.151    24992399.522    24992400.765
  24992400.788          39.750          39.000
 110732864.460 7  86285348.60447  21071762.545    21071761.832
  21071763.178          46.250          43.0004
 111080745.724 7  86556429.06447  21137961.536    21137961.161
  21137962.179          46.750          45.7504
 117206203.232 7  91329512.95945  22303597.538    22303597.794
  22303598.857          47.250          35.5004
 128238059.191 6  99925761.567 6  24402890.909    24402891.500    24402894.001
  24402894.621          40.250          39.000
 115672399.903 8  90134340.246 8  22011725.408    22011725.368    22011727.309
  22011727.060          48.250          48.250
 20  1  2  0 14 30.0000000  0  8G15G05G10G20G21G13G27G29
 108893072.241 8  84851743.918 8  20721661.815    20721662.159    20721663.560
  20721663.461          50.250          52.500
 131436648.145 6                  25011563.363
                        40.250
 123117372.676 6  95935615.542 7  23428455.966    23428456.429    23428460.276
  23428460.814          41.750          45.750
 110677190.861 7  86241966.59847  21061168.098    21061167.459
  21061169.100          46.500          43.0004
 111052566.524 7  86534471.24947  21132599.151    21132598.795
  21132599.937          46.250          45.5004
 117251992.486 7  91365192.88145  22312310.976    22312311.106
  22312312.448          47.500          35.2504
 128140068.287 6  99849405.021 6  24384244.356    24384244.136    24384246.368
  24384247.186          40.250          38.750
 115766974.199 7  90208034.496 8  22029722.234    22029722.131    22029724.315
  22029724.002          47.750          48.000
 20  1  2  0 15  0.0000000  0  8G15G05G10G20G21G13G27G29
 108896349.431 8  84854297.591 8  20722285.692    20722285.705    20722287.225
  20722286.995          50.750          52.250
 131537328.807 6 102496624.969 6  25030721.006    25030721.611    25030723.222
  25030723.816          38.500          40.500
 123033426.019 7  95870202.569 7  23412482.271    23412481.665    23412485.469
  23412485.845          42.000          46.250
 110621815.140 7  86198816.67447  21050630.805    21050629.822
  21050631.682          46.500          43.2504
 111024605.000 7  86512683.04447  21127278.491    21127278.028
  21127278.984          47.000          45.7504
 117298349.032 7  91401314.86945  22321132.056    22321132.138
  22321133.747          47.500          35.5004
 128042326.729 6  99773242.777 6  24365644.164    24365644.339    24365648.485
  24365648.560          39.750          40.250
 115861891.777 7  90281996.238 7  22047784.243    22047784.312    22047785.748
  22047785.945          47.500          47.750
 20  1  2  0 15 30.0000000  0  8G15G05G10G20G21G13G27G29
 108900275.344 8  84857356.754 8  20723032.673    20723032.828    20723034.134
  20723034.032          50.500          52.500
 131637981.587 6 102575055.659 6  25049875.497    25049875.078    25049876.778
  25049876.859          39.250          39.500
 122949667.258 6  95804936.010 7  23396542.720    23396543.470    23396546.559
  23396547.344          41.750          45.750
 110566738.019 7  86155899.44647  21040149.669    21040149.000
  21040150.131          46.750          43.0004
 110996863.061 7  86491065.94747  21121999.502    21121998.782
  21121999.806          47.000          45.7504
 117345271.785 7  91437878.05245  22330061.561    22330061.597
  22330062.808          47.250          35.2504
 127944837.842 6  99697277.405 6  24347092.965    24347093.005    24347097.344
  24347097.166          39.500          41.250
 115957150.892 8  90356224.119 7  22065911.546    22065911.546    22065913.157
  22065913.046          48.000          47.500
 20  1  2  0 16  0.0000000  0  8G15G05G10G20G21G13G27G29
 108904849.003 8  84860920.647 8  20723903.255    20723903.115    20723904.644
  20723904.382          50.750          52.250
 131738604.787 6 102653463.359 6  25069024.374    25069024.245    25069024.856
  25069024.111          41.250          39.750
 122866096.487 7  95739815.940 7  23380640.233    23380640.332    23380643.230
  23380643.988          42.000          45.500
 110511959.522 7  86113214.88647  21029725.381    21029724.659
  21029726.579          46.000          43.2504
 110969340.779 7  86469620.01247  21116762.155    21116761.461
  21116762.462          47.750          46.0004
 117392758.481 7  91474880.69045  22339098.252    22339097.754
  22339099.325          47.500          35.0004
 127847603.788 6  99621510.608 7  24328590.400    24328590.299    24328593.905
  24328593.867          41.250          42.000
 116052748.486 7  90430715.747 7  22084102.876    22084103.255    22084105.222
  22084104.927          47.250          47.500
 20  1  2  0 16 30.0000000  0  8G15G05G10G20G21G13G27G29
 108910069.567 8  84864988.634 8  20724896.556    20724896.620    20724897.708
  20724897.673          50.750          52.250
 131839196.511 6 102731846.545 6  25088164.872    25088165.201    25088166.985
  25088165.503          39.750          38.500
 122782713.474 7  95674842.155 7  23364773.529    23364773.031    23364776.632
  23364777.306          42.250          45.750
 110457479.420 7  86070762.89047  21019358.251    21019357.816
  21019359.123          46.000          43.2504
 110942038.429 7  86448345.45447  21111566.858    21111565.937
  21111566.941          47.750          45.7504
 117440806.635 7  91512320.79745  22348241.579    22348241.370
  22348242.763          47.500          34.7504
 127750626.502 6  99545943.881 7  24310136.223    24310135.890    24310139.775
  24310140.434          41.750          42.500
 116148681.439 8  90505468.684 7  22102358.809    22102358.792    22102360.708
  22102360.476          48.500          47.750
 20  1  2  0 17  0.0000000  0  8G15G05G10G20G21G13G27G29
 108915937.903 8  84869561.369 8  20726013.090    20726013.381    20726014.304
  20726014.249          50.500          52.000
 131939757.775 6 102810205.922 6  25107301.583    25107302.282    25107303.122
  25107302.248          41.250          39.000
 122699520.364 6  95610016.368 7  23348942.018    23348941.578    23348945.268
  23348945.583          41.500          45.750
 110403299.119 7  86028544.44247  21009048.199    21009047.289
  21009049.050          46.000          43.0004
 110914958.373 7  86427244.10647  21106413.270    21106412.814
  21106413.917          47.500          45.7504
 117489415.974 7  91550198.20745  22357491.661    22357491.471
  22357492.804          47.750          34.5004
 127653910.114 7  99470580.455 7  24291731.507    24291731.572    24291735.199
  24291735.434          42.000          42.750
 116244948.908 8  90580482.301 7  22120678.070    22120677.739    22120679.762
  22120679.503          48.000          47.500
 20  1  2  0 17 30.0000000  0  8G15G05G10G20G21G13G27G29
 108922452.647 8  84874637.788 8  20727252.951    20727252.972    20727254.513
  20727254.177          50.500          52.500
 132040286.429 6 102888539.932 6  25126431.166    25126431.072    25126433.413
  25126433.572          40.250          40.000
 122616516.815 7  95545338.283 7  23333147.162    23333147.544    23333150.222
  23333150.709          42.250          46.250
 110349418.192 7  85986559.33747  20998795.255    20998794.355
  20998795.973          46.500          43.5004
 110888101.674 8  86406316.81047  21101302.666    21101302.230
  21101303.308          48.250          45.7504
 117538583.806 7  91588510.80045  22366848.143    22366846.990
  22366849.073          47.500          34.7504
 127557456.413 6  99395421.726 7  24273376.935    24273376.675    24273380.552
  24273379.876          41.500          42.500
 116341547.630 7  90655754.042 7  22139059.720    22139059.924    22139061.486
  22139061.512          47.500          47.500
 20  1  2  0 18  0.0000000  0  8G15G05G10G20G21G13G27G29
 108929614.121 8  84880218.171 8  20728615.519    20728615.752    20728617.210
  20728617.013          51.000          52.500
 132140781.950 6 102966848.104 6  25145555.544    25145555.485    25145557.672
  25145556.158          40.000          37.500
 122533704.153 7  95480808.942 7  23317388.266    23317388.638    23317392.085
  23317392.443          42.250          46.250
 110295837.259 7  85944807.94447  20988599.063    20988598.023
  20988599.765          46.500          43.2504
 110861469.550 8  86385564.49747  21096234.840    21096234.071
  21096235.344          48.250          45.7504
 117588309.229 7  91627257.90545  22376310.350    22376309.957
  22376311.723          47.000          34.7504
 127461268.818 6  99320470.348 7  24255073.174    24255072.652    24255076.274
  24255076.662          41.500          42.000
 116438475.576 7  90731282.306 7  22157504.440    22157504.494    22157506.382
  22157506.484          47.000          47.500
 20  1  2  0 18 30.0000000  0  9G15G05G10G20G21G13G27G16G29
 108937421.486 8  84886301.839 8  20730101.278    20730101.313    20730102.609
  20730102.659          51.250          52.250
 132241243.096 6 103045129.527 6  25164672.486    25164672.400    25164673.038
  25164673.923          40.250          39.250
 122451082.461 6  95416428.407 7  23301665.276    23301665.662    23301668.617
  23301669.445          41.750          45.500
 110242556.779 7  85903290.70747  20978460.124    20978459.524
  20978460.846          47.250          43.5004
 110835062.158 8  86364987.30747  21091209.668    21091209.103
  21091210.071          48.250          45.7504
 117638589.657 7  91666437.45645  22385878.392    22385878.211
  22385879.642          47.250          34.2504
 127365349.584 6  99245728.085 7  24236820.603    24236819.771    24236824.173
  24236823.780          41.750          42.250
 126719120.112 6  98742176.20844  24113847.213    24113847.324
  24113848.860          36.750          24.5004
 116535729.932 7  90807064.911 7  22176011.149    22176011.303    22176013.445
  22176013.179          46.750          47.750
 20  1  2  0 19  0.0000000  0 10G15G05G10G16G20G21G13G27G26G29
 108945874.797 8  84892888.841 8  20731709.857    20731710.027    20731711.358
  20731711.260          51.250          52.500
 132341668.971 6 103123383.449 6  25183782.832    25183782.384    25183784.099
  25183783.599          40.750          36.500
 122368652.647 7  95352197.381 7  23285979.514    23285979.778    23285982.725
  23285983.140          42.000          45.500
 126756814.440 6  98771545.80244  24121020.683    24121019.884
  24121021.279          37.000          24.0004
 110189577.153 7  85862007.87247  20968378.094    20968377.177
  20968379.079          47.000          43.2504
 110808881.172 8  86344586.53347  21086227.721    21086226.989
  21086228.140          48.500          45.7504
 117689423.506 7  91706048.26345  22395551.581    22395551.549
  22395552.620          47.250          34.5004
 127269701.708 6  99171197.272 7  24218619.782    24218619.237    24218622.219
  24218622.566          41.250          42.250
 129675053.995 6 101045493.095 6  24676341.676    24676341.277    24676345.969
  24676345.018          36.500          36.000
 116633308.624 7  90883100.253 7  22194579.709    22194580.079    22194581.449
  22194581.534          46.750          46.750
 20  1  2  0 19 30.0000000  0 10G15G05G10G26G20G21G16G13G27G29
 108954973.951 8  84899979.106 8  20733441.192    20733441.502    20733443.099
  20733442.784          51.250          52.500
 132442059.873 6 103201610.133 6  25202886.624    25202885.713    25202888.068
  25202888.098          40.000          37.250
 122286416.157 6  95288117.003 7  23270330.273    23270330.611    23270334.152
  23270334.492          41.500          46.250
 129741752.339 6 101097468.004 5  24689034.737    24689035.246    24689039.122
  24689039.409          36.750          35.500
 110136899.367 7  85820960.25947  20958354.031    20958353.524
  20958354.869          47.750          43.5004
 110782928.726 8  86324363.84247  21081289.009    21081288.406
  21081289.609          48.500          45.7504
 126794996.572 6  98801296.31643  24128285.628    24128285.583
  24128286.858          36.750          22.0004
 117740810.312 7  91746089.91845  22405329.720    22405329.954
  22405331.268          46.250          34.5004
 127174328.743 6  99096880.674 7  24200470.017    24200470.464    24200473.818
  24200473.811          40.500          42.000
 116731209.632 7  90959386.757 7  22213210.294    22213210.078    22213212.015
  22213211.400          47.500          47.000
 20  1  2  0 20  0.0000000  0 10G15G05G10G26G20G21G16G13G27G29
 108964717.238 8  84907571.278 8  20735295.466    20735295.694    20735296.955
  20735296.859          51.750          52.250
 132542413.197 6 103279807.562 5  25221983.193    25221983.741    25221983.409
  25221983.905          39.500          33.250
 122204372.301 7  95224186.742 7  23254718.104    23254718.631    23254722.419
  23254722.104          42.500          46.500
 129808696.792 6 101149632.474 6  24701774.090    24701773.508    24701779.323
  24701779.361          36.250          41.250
 110084522.472 7  85780147.09447  20948386.853    20948386.053
  20948388.033          47.250          43.2504
 110757204.554 8  86304319.02347  21076393.848    21076393.296
  21076394.331          48.750          45.7504
 126833662.919 6  98831425.96243  24135644.191    24135643.401
  24135644.878          36.250          23.7504
 117792746.630 7  91786559.78045  22415213.743    22415212.740
  22415214.134          46.750          34.5004
 127079232.108 6  99022779.404 7  24182373.111    24182373.507    24182377.265
  24182377.952          40.250          42.500
 116829429.530 7  91035921.733 7  22231900.332    22231900.470    22231903.013
  22231902.626          46.500          47.250
 20  1  2  0 20 30.0000000  0 10G26G15G05G10G20G21G16G13G27G29
 129875878.981 6 101201984.791 6  24714558.467    24714558.307    24714563.791
  24714563.067          36.250          38.000
 108975104.800 8  84915665.486 8  20737272.238    20737272.486    20737273.565
  20737273.357          52.750          52.000
 132642728.340 6 103357975.213 6  25241072.330    25241072.610    25241072.893
  25241074.575          38.750          36.500
 122122522.242 7  95160407.482 7  23239142.773    23239142.740    23239146.170
  23239147.119          42.750          46.750
 110032447.437 8  85739569.15847  20938477.763    20938476.990
  20938478.354          48.000          43.7504
 110731709.957 8  86284453.09947  21071542.393    21071541.868
  21071542.887          49.000          45.7504
 126872814.050 6  98861935.55544  24143093.710    24143093.240
  24143094.721          36.750          25.2504
 117845231.059 7  91827456.73745  22425200.407    22425200.714
  22425201.591          46.500          34.2504
 126984415.077 6  98948896.028 7  24164330.581    24164330.031    24164334.275
  24164334.197          40.750          42.000
 116927966.441 7  91112703.735 7  22250651.155    22250651.335    22250653.652
  22250653.066          47.500          47.250
 20  1  2  0 21  0.0000000  0 10G15G05G10G26G20G21G16G13G27G29
 108986135.514 8  84924260.853 8  20739371.307    20739371.445    20739372.485
  20739372.430          52.500          52.000
 132743004.440 6 103436112.466 5  25260154.260    25260154.856    25260156.552
  25260156.038          36.500          34.250
 122040866.106 7  95096779.334 7  23223604.099    23223603.813    23223607.865
  23223608.169          42.750          46.500
 129943301.585 6 101254521.310 6  24727388.428    24727388.195    24727393.387
  24727392.602          36.750          36.000
 109980674.160 7  85699226.34347  20928625.344    20928624.440
  20928626.217          47.250          43.5004
 110706445.581 8  86264766.56847  21066734.743    21066734.074
  21066735.360          49.000          45.7504
 126912445.578 6  98892817.25644  24150635.776    24150636.221
  24150636.490          37.250          24.2504
 117898261.444 7  91868779.11645  22435292.191    22435291.915
  22435293.817          46.250          34.7504
 126889879.971 6  98875232.320 7  24146341.756    24146341.601    24146344.127
  24146345.059          41.250          42.500
 117026817.599 7  91189730.617 7  22269462.205    22269462.473    22269464.378
  22269464.133          47.000          46.750
 20  1  2  0 21 30.0000000  0 10G15G05G10G26G20G21G16G13G27G29
 108997808.154 8  84933356.424 8  20741592.631    20741592.742    20741593.635
  20741593.727          52.750          51.750
 132843240.066 6 103514218.188 6  25279228.388    25279228.649    25279230.543
  25279230.848          37.500          36.500
 121959403.901 7  95033302.300 7  23208101.684    23208101.743    23208105.662
  23208106.355          42.500          45.750
 130010955.286 6 101307238.465 6  24740261.296    24740261.973    24740267.205
  24740268.173          36.500          41.500
 109929201.990 7  85659118.16447  20918830.391    20918829.680
  20918831.398          47.750          44.0004
 110681412.152 8  86245259.98547  21061971.177    21061970.555
  21061971.494          49.000          45.7504
 126952555.373 6  98924071.61843  24158267.437    24158267.447
  24158269.466          36.750          23.7504
 117951835.248 7  91910524.92345  22445486.690    22445486.592
  22445488.141          46.250          34.2504
 126795628.917 6  98801789.943 7  24128407.039    24128406.562    24128410.145
  24128409.568          41.750          43.250
 117125979.824 7  91266999.886 7  22288332.383    22288332.162    22288333.925
  22288333.761          47.250          46.750
 20  1  2  0 22  0.0000000  0  9G15G10G26G20G21G16G13G27G29
 109010123.146 8  84942952.528 8  20743935.770    20743936.089    20743937.504
  20743937.095          52.750          52.250
 121878137.056 7  94969977.491 7  23192637.525    23192638.211    23192640.977
  23192641.936          43.750          45.750
 130078839.902 6 101360135.588 6  24753181.005    24753180.562    24753184.344
  24753184.325          38.750          39.750
 109878032.503 8  85619245.83947  20909093.112    20909092.620
  20909094.215          48.000          43.7504
 110656611.395 8  86225934.71647  21057251.717    21057251.133
  21057252.162          49.250          45.7504
 126993142.308 6  98955697.83243  24165991.335    24165990.935
  24165992.849          36.000          23.0004
 118005951.580 7  91952693.50345  22455784.881    22455784.652
  22455786.447          46.250          34.2504
 126701665.470 7  98728571.681 7  24110526.020    24110525.735    24110529.477
  24110529.417          42.000          43.750
 117225451.455 7  91344510.259 7  22307261.127    22307261.078    22307263.035
  22307263.242          47.500          47.250
 20  1  2  0 22 30.0000000  0  9G16G15G10G26G20G21G13G27G29
 127034208.639 6                  24173806.177
                        38.250
 109023079.214 8  84953048.175 8  20746401.396    20746401.456    20746402.895
  20746402.766          53.250          52.250
 121797065.612 7  94906804.942 7  23177210.252    23177210.581    23177213.902
  23177213.989          43.750          46.000
 130146952.143 6 101413210.057 6  24766141.748    24766141.127    24766146.395
  24766145.947          37.250          40.500
 109827165.189 8  85579608.98647  20899413.631    20899412.840
  20899414.573          48.250          44.0004
 110632043.983 8  86206791.26947  21052576.812    21052576.008
  21052577.153          49.000          45.7504
 118060607.658 7  91995282.65145  22466185.772    22466185.318
  22466186.089          46.000          34.2504
 126607991.839 7  98655579.243 7  24092700.575    24092700.607    24092703.760
  24092703.503          42.750          43.750
 117325229.523 7  91422259.385 7  22326248.479    22326248.166    22326250.307
  22326250.184          47.750          47.000
 20  1  2  0 23  0.0000000  0 10G16G15G10G26G20G21G05G13G27G29
 127075743.150 6  99020059.19944  24181709.365    24181708.820
  24181710.144          37.500          24.7504
 109036676.093 8  84963643.159 8  20748988.790    20748988.953    20748990.161
  20748990.147          53.500          52.000
 121716190.736 7  94843785.582 7  23161820.230    23161820.419    23161823.723
  23161824.145          43.750          45.750
 130215289.719 6 101466460.106 6  24779145.827    24779145.836    24779150.716
  24779151.332          38.000          40.250
 109776600.898 8  85540208.24547  20889791.512    20889790.745
  20889792.426          48.000          44.0004
 110607711.577 8  86187830.95147  21047946.372    21047945.796
  21047946.818          48.750          46.0004
 133143704.340 6 103748338.792 5  25336403.371                    25336405.063
                        36.750          33.500
 118115802.395 7  92038291.53945  22476689.254    22476688.646
  22476689.982          46.500          34.5004
 126514611.331 7  98582815.215 7  24074930.947    24074930.349    24074934.031
  24074934.434          42.250          44.000
 117425312.076 7  91500245.786 7  22345293.220    22345293.254    22345295.100
  22345294.732          47.250          46.250
 20  1  2  0 23 30.0000000  0  9G16G15G10G26G20G21G13G27G29
 127117748.335 6  99052790.50744  24189703.174    24189702.269
  24189703.936          38.000          25.0004
 109050912.854 8  84974736.746 8  20751698.039    20751698.126    20751699.485
  20751699.251          53.500          52.250
 121635512.759 7  94780919.618 7  23146468.092    23146467.990    23146471.440
  23146472.115          44.500          46.250
 130283849.445 6 101519883.262 6  24792192.127    24792192.400    24792197.160
  24792197.326          37.250          40.500
 109726340.006 8  85501043.92247  20880227.295    20880226.570
  20880228.005          49.000          44.2504
 110583614.941 8  86169054.34947  21043361.081    21043360.279
  21043361.400          49.000          46.0004
 118171533.341 7  92081718.25345  22487293.811    22487293.709
  22487294.989          45.750          34.0004
 126421526.399 7  98510281.496 7  24057217.183    24057216.974    24057220.922
  24057220.763          42.000          43.500
 117525696.352 7  91578467.291 7  22364396.184    22364395.667    22364397.121
  22364397.394          47.750          46.250
 20  1  2  0 24  0.0000000  0  9G16G15G10G26G20G21G13G27G29
 127160221.722 6  99085886.64644  24197784.768    24197785.473
  24197786.261          37.500          24.5004
 109065788.782 9  84986328.389 8  20754528.880    20754528.919    20754530.280
  20754529.876          54.250          52.000
 121555031.961 7  94718207.319 7  23131152.955    23131152.754    23131155.925
  23131156.422          44.000          45.500
 130352628.184 6 101573477.089 6  24805279.826    24805280.130    24805285.184
  24805285.542          37.250          40.250
 109676382.352 8  85462115.88047  20870720.506    20870719.880
  20870721.274          48.750          44.2504
 110559754.936 8  86150462.13147  21038820.480    21038819.983
  21038821.013          49.000          46.2504
 118227798.494 7  92125561.24445  22498000.507    22498000.601
  22498002.013          45.250          34.0004
 126328739.547 6  98437980.054 7  24039560.050    24039559.947    24039563.286
  24039563.608          41.500          43.750
 117626379.741 7  91656921.885 7  22383555.012    22383555.434    22383557.212
  22383556.942          47.500          46.500
 20  1  2  0 24 30.0000000  0  9G16G15G10G26G20G21G13G27G29
 127203161.350 6  99119346.07644  24205956.449    24205955.814
  24205956.989          37.500          24.5004
 109081303.319 9  84998417.645 8  20757481.140    20757481.237    20757482.433
  20757482.319          54.000          52.250
 121474749.410 7  94655649.474 7  23115875.390    23115875.652    23115878.840
  23115879.327          43.750          46.250
 130421623.631 6 101627239.755 6  24818409.243    24818408.997    24818415.457
  24818414.883          37.000          40.500
 109626728.768 8  85423424.77847  20861271.885    20861271.109
  20861272.497          48.500          44.2504
 110536133.111 8  86132055.51047  21034325.587    21034324.931
  21034325.928          49.250          46.0004
 118284596.275 7  92169819.25745  22508809.172    22508808.985
  22508810.029          45.750          34.0004
 126236253.982 7  98365913.374 7  24021960.662    24021960.356    24021963.672
  24021963.664          42.000          44.000
 117727360.039 8  91735607.826 7  22402771.013    22402771.221    22402772.766
  22402772.757          48.000          46.500
 20  1  2  0 25  0.0000000  0  9G16G15G10G26G20G21G13G27G29
 127246565.012 6  99153167.11244  24214214.706    24214215.164
  24214217.642          36.750          24.5004
 109097455.280 9  85011003.593 8  20760554.721    20760554.875    20760555.885
  20760555.906          54.500          52.000
 121394665.309 7  94593246.296 7  23100635.547    23100635.990    23100639.402
  23100640.998          43.750          47.000
 130490832.536 6 101681168.766 6  24831580.715    24831579.896    24831585.305
  24831585.574          38.750          41.000
 109577378.950 8  85384970.37647  20851881.100    20851880.073
  20851881.654          49.000          44.2504
 110512750.363 8  86113835.18647  21029875.790    21029875.152
  21029876.395          49.250          46.0004
 118341924.316 7  92214490.44345  22519717.582    22519718.308
  22519719.538          44.750          34.0004
 126144072.118 6  98294083.353 7  24004419.096    24004418.354    24004422.409
  24004422.596          41.750          44.500
 117828634.536 8  91814523.018 7  22422043.096    22422043.344    22422044.831
  22422044.540          48.500          46.000
 20  1  2  0 25 30.0000000  0  9G16G15G10G26G20G21G13G27G29
 127290429.949 6  99187347.55543  24222562.346    24222562.053
  24222562.421          37.250          23.2504
 109114243.931 9  85024085.668 8  20763749.474    20763749.572    20763750.988
  20763750.606          54.000          51.750
 121314779.904 7  94530997.955 7  23085434.244    23085434.014    23085437.769
  23085438.433          44.000          47.000
 130560251.644 6 101735261.574 6  24844789.758    24844789.951    24844795.013
  24844795.378          38.500          40.750
 109528333.060 8  85346752.80947  20842547.301    20842546.858
  20842548.385          48.750          44.0004
 110489607.335 8  86095801.65447  21025472.129    21025471.307
  21025472.336          49.500          46.0004
 118399780.187 7  92259572.96045  22530727.910    22530728.037
  22530729.098          45.250          34.2504
 126052196.310 6  98222491.811 7  23986935.099    23986935.343    23986939.564
  23986939.378          41.000          44.500
 117930200.193 7  91893665.086 7  22441370.182    22441370.403    22441371.617
  22441371.747          47.750          46.000
 20  1  2  0 26  0.0000000  0  9G16G15G10G26G20G21G13G27G29
 127334754.455 6  99221886.11943  24230997.254    24230996.809
  24230998.545          37.750          23.5004
 109131668.922 9  85037663.589 8  20767065.329    20767065.548    20767066.605
  20767066.446          54.000          51.750
 121235094.437 7  94468905.396 7  23070270.959    23070271.010    23070274.349
  23070274.935          44.500          46.500
 130629878.841 6 101789516.515 6  24858039.929    24858038.607    24858044.748
  24858045.707          37.000          40.000
 109479591.775 8  85308772.58647  20833272.530    20833271.616
  20833273.387          49.000          44.2504
 110466706.004 8  86077956.45347  21021114.070    21021113.429
  21021114.328          49.750          46.0004
 118458162.960 7  92305066.04345  22541837.282    22541838.076
  22541839.565          44.750          34.2504
 125960630.004 6  98151141.437 7  23969511.279    23969510.256    23969514.305
  23969514.665          41.250          44.000
 118032054.846 8  91973032.357 7  22460752.488    22460752.937    22460754.069
  22460754.315          48.250          46.250
 20  1  2  0 26 30.0000000  0  9G16G15G10G26G20G21G13G27G29
 127379536.065 6  99256780.92943  24239518.618    24239518.399
  24239520.368          37.750          23.7504
 109149728.607 9  85051736.077 8  20770501.967    20770502.129    20770503.452
  20770503.198          54.250          51.750
 121155608.757 7  94406968.507 7  23055144.921    23055144.964    23055148.240
  23055148.356          44.750          46.250
 130699710.500 6 101843930.815 6  24871327.520    24871327.418    24871333.138
  24871332.934          37.250          39.500
 109431154.941 8  85271029.61247  20824055.279    20824054.603
  20824056.011          49.000          44.2504
 110444046.492 8  86060299.68347  21016802.096    21016801.445
  21016802.339          49.500          46.0004
 118517069.589 7  92350967.29545  22553047.515    22553047.273
  22553048.735          45.750          34.0004
 125869375.182 6  98080033.808 7  23952146.207    23952145.343    23952149.025
  23952148.658          41.500          43.500
 118134195.939 8  92052622.803 7  22480189.279    22480189.376    22480191.432
  22480191.538          48.250          46.500
 20  1  2  0 27  0.0000000  0  9G16G15G10G26G20G21G13G27G29
 127424772.010 6  99292029.67343  24248127.739    24248126.676
  24248128.614          38.250          23.7504
 109168421.881 9  85066302.274 8  20774059.222    20774059.241    20774060.833
  20774060.479          54.000          52.000
 121076323.243 7  94345187.594 7  23040057.730    23040057.507    23040060.880
  23040061.345          45.000          47.000
 130769743.496 6 101898501.963 6  24884655.058    24884655.203    24884659.090
  24884659.441          37.750          39.500
 109383022.773 8  85233524.03447  20814895.869    20814895.037
  20814896.741          48.750          44.0004
 110421629.811 8  86042832.12647  21012536.399    21012535.705
  21012536.612          49.750          45.7504
 118576497.701 7  92397274.93045  22564356.111    22564356.014
  22564357.756          44.750          34.0004
 125778434.477 6  98009170.911 7  23934840.654    23934840.696    23934843.369
  23934844.163          41.750          43.500
 118236620.785 8  92132434.367 7  22499680.555    22499680.518    22499682.032
  22499681.800          49.000          46.250
 20  1  2  0 27 30.0000000  0  9G16G15G10G05G20G21G13G27G29
 127470460.304 6  99327630.95244  24256821.059    24256820.830
  24256822.029          39.000          24.5004
 109187748.488 8  85081361.976 8  20777736.794    20777736.941    20777738.284
  20777738.285          53.750          51.750
 120997238.937 7  94283563.466 7  23025008.196    23025008.574    23025011.879
  23025012.008          45.000          47.000
 134042616.401 6                  25507461.557
                        37.750
 109335195.622 8  85196256.13247  20805794.835    20805794.241
  20805795.737          49.000          44.2504
 110399457.687 8  86025555.14147  21008317.036    21008316.385
  21008317.371          49.750          46.0004
 118636445.554 7  92443987.53045  22575764.142    22575763.653
  22575765.035          44.750          33.2504
 125687811.054 6  97938555.241 7  23917595.416    23917594.950    23917598.589
  23917599.387          41.500          43.500
 118339327.085 8  92212465.255 7  22519224.963    22519224.974    22519226.512
  22519226.136          48.500          46.000
 20  1  2  0 28  0.0000000  0  9G16G15G10G05G20G21G13G27G29
 127516599.009 6  99363583.17044  24265602.443    24265601.364
  24265602.357          39.750          24.0004
 109207707.311 8  85096914.309 8  20781534.716    20781534.977    20781536.064
  20781536.205          53.750          52.000
 120918356.287 7  94222096.478 7  23009997.370    23009997.436    23010000.761
  23010001.418          45.250          47.000
 134142249.953 6 104526426.240 6  25526421.715    25526421.064    25526423.634
  25526422.980          39.000          40.500
 109287674.155 8  85159226.41647  20796751.899    20796751.096
  20796752.607          49.250          44.2504
 110377531.122 8  86008469.50147  21004144.749    21004143.956
  21004144.931          49.750          45.7504
 118696911.183 7  92491103.59545  22587269.970    22587269.536
  22587271.427          44.500          33.2504
 125597507.583 6  97868188.911 7  23900410.651    23900411.175    23900414.367
  23900414.736          41.250          44.000
 118442312.430 7  92292713.562 7  22538821.867    22538822.205    22538823.458
  22538823.819          47.750          45.750
 20  1  2  0 28 30.0000000  0  9G16G15G10G05G20G21G13G27G29
 127563185.375 6  99399884.24243  24274466.507    24274465.260
  24274467.827          37.750          22.5004
 109228297.301 8  85112958.469 8  20785453.088    20785453.305    20785454.348
  20785454.260          53.750          51.750
 120839675.700 7  94160786.935 7  22995024.770    22995025.040    22995028.513
  22995029.082          44.750          47.000
 134241831.327 6 104604022.088 6  25545371.763    25545371.096    25545372.168
  25545372.531          39.250          38.250
 109240458.212 8  85122434.78147  20787766.759    20787766.086
  20787767.770          49.000          44.2504
 110355850.973 8  85991575.87847  21000018.903    21000018.343
  21000019.428          49.750          46.0004
 118757892.389 7  92538621.43445  22598874.730    22598874.593
  22598875.482          44.500          33.2504
 125507526.626 6  97798073.876 7  23883288.328    23883287.821    23883291.699
  23883291.925          41.500          44.000
 118545574.057 8  92373177.158 7  22558472.219    22558472.475    22558473.689
  22558473.981          48.250          46.000
 20  1  2  0 29  0.0000000  0  9G16G15G10G05G20G21G13G27G29
 127610217.869 6  99436532.89044  24283416.706    24283416.800
  24283417.838          40.250          24.2504
 109249518.111 9  85129494.169 8  20789491.370    20789491.384    20789492.445
  20789492.444          54.000          51.750
 120761198.467 7  94099635.859 7  22980091.243    22980091.192    22980094.520
  22980095.087          45.500          46.750
 134341360.478 6 104681577.253 6  25564311.012    25564310.778    25564312.641
  25564312.626          37.500          37.000
 109193548.702 8  85085881.92247  20778840.304    20778839.477
  20778841.241          49.250          44.2504
 110334419.240 8  85974875.82047  20995940.418    20995940.020
  20995941.101          49.250          45.7504
 118819387.809 7  92586539.93145  22610577.053    22610576.480
  22610577.211          44.750          33.0004
 125417871.742 6  97728212.941 7  23866227.332    23866227.093    23866230.586
  23866231.287          40.750          44.000
 118649110.048 8  92453854.559 7  22578174.630    22578174.273    22578175.789
  22578176.145          48.250          45.750
 20  1  2  0 29 30.0000000  0  8G16G15G10G20G21G13G27G29
 127657692.408 6  99473526.03843  24292449.904    24292450.010
  24292451.160          38.000          22.0004
 109271366.693 8  85146519.046 8  20793648.940    20793648.963    20793650.044
  20793650.030          53.750          52.000
 120682923.349 7  94038642.259 7  22965195.857    22965195.973    22965199.079
  22965200.291          45.500          47.000
 109146944.390 8  85049566.87147  20769971.745    20769970.974
  20769972.595          49.250          44.2504
 110313235.169 8  85958368.74847  20991909.510    20991908.816
  20991909.972          50.000          46.0004
 118881393.370 7  92634855.98145  22622375.890    22622375.535
  22622376.723          44.500          33.0004
 125328543.808 6  97658606.759 7  23849229.002    23849228.382    23849232.543
  23849232.116          41.000          44.500
 118752915.932 7  92534742.256 7  22597927.913    22597927.936    22597929.073
  22597929.570          47.750          45.000
 20  1  2  0 30  0.0000000  0  8G16G15G10G20G21G13G27G29
 127705607.580 6  99510862.53643  24301568.917    24301568.039
  24301569.800          38.750          22.5004
 109293843.484 8  85164033.426 8  20797925.914    20797926.256    20797927.156
  20797927.212          53.750          51.750
 120604851.735 7  93977807.248 7  22950339.360    22950339.422    22950343.210
  22950343.388          45.000          46.750
 109100646.018 8  85013490.22547  20761161.346    20761160.640
  20761162.115          49.250          44.5004
 110292300.569 8  85942056.06147  20987925.965    20987925.031
  20987926.140          50.250          45.7504
 118943907.971 7  92683568.65545  22634272.481    22634271.519
  22634273.000          45.000          32.7504
 125239546.429 6  97589258.154 7  23832292.907    23832293.245    23832296.794
  23832296.628          41.500          44.750
 118856990.159 8  92615839.054 7  22617732.846    22617732.755    22617734.611
  22617734.291          48.250          45.750
 20  1  2  0 30 30.0000000  0  8G16G15G10G20G21G13G27G29
 127753961.041 6  99548540.52443  24310770.265    24310769.455
  24310769.819          40.250          22.7504
 109316947.094 8  85182036.255 8  20802322.570    20802322.783    20802323.697
  20802323.737          53.750          51.750
 120526984.147 7  93917131.218 7  22935521.467    22935522.083    22935524.943
  22935525.984          45.500          47.500
 109054654.246 8  84977652.49247  20752409.736    20752408.823
  20752410.408          49.250          44.5004
 110271616.827 8  85925938.85247  20983989.705    20983989.216
  20983990.058          49.750          46.0004
 119006929.563 7  92732676.37545  22646264.278    22646264.494
  22646266.222          44.250          33.0004
 125150882.298 6  97520169.217 7  23815421.221    23815420.988    23815424.901
  23815424.924          41.500          45.000
 118961330.266 8  92697143.042 7  22637588.081    22637588.060    22637589.542
  22637589.651          49.000          45.250
 20  1  2  0 31  0.0000000  0  8G16G15G10G20G21G13G27G29
 127802750.023 6  99586557.89643  24320053.518    24320053.065
  24320053.917          38.750          22.5004
 109340676.426 9  85200526.646 8  20806838.154    20806838.210    20806839.566
  20806839.102          54.000          51.500
 120449320.920 7  93856614.427 7  22920742.927    22920743.021    22920746.487
  22920746.922          45.500          47.500
 109008968.987 8  84942053.58847  20743716.218    20743715.144
  20743716.726          49.250          44.5004
 110251184.936 8  85910017.89447  20980101.958    20980101.084
  20980102.169          49.500          46.0004
 119070455.502 7  92782177.11745  22658353.173    22658353.606
  22658354.318          44.750          33.2504
 125062553.999 7  97451341.975 7  23798613.154    23798612.810    23798616.733
  23798616.497          42.250          45.250
 119065933.567 8  92778652.099 7  22657493.264    22657493.262    22657495.175
  22657494.901          48.000          46.250
 20  1  2  0 31 30.0000000  0  8G16G15G10G20G21G13G27G29
 127851971.955 6  99624912.66243  24329420.971    24329420.644
  24329422.172          40.250          23.2504
 109365030.319 8  85219503.715 8  20811472.366    20811472.663    20811473.863
  20811473.657          53.750          51.750
 120371862.646 7  93796257.340 7  22906003.162    22906003.296    22906006.725
  22906007.474          45.250          47.750
 108963590.441 8  84906693.68247  20735080.841    20735079.935
  20735081.559          49.750          44.5004
 110231005.830 8  85894293.90947  20976261.407    20976261.111
  20976262.205          49.500          46.0004
 119134483.778 7  92832069.26145  22670537.110    22670536.886
  22670538.310          44.250          32.7504
 124974564.274 7  97382778.554 7  23781868.916    23781868.670    23781872.742
  23781872.644          42.000          45.500
 119170797.412 7  92860364.175 7  22677447.995    22677448.040    22677449.668
  22677449.845          47.750          45.500
 20  1  2  0 32  0.0000000  0  8G16G15G10G20G21G13G27G29
 127901624.071 6  99663602.58543  24338869.421    24338868.490
  24338870.008          39.500          22.5004
 109390006.846 8  85238965.950 8  20816225.185    20816225.473    20816226.953
  20816226.543          53.250          52.000
 120294608.898 7  93736059.620 7  22891302.480    22891302.552    22891305.485
  22891305.982          45.750          47.500
 108918517.787 8  84871572.13447  20726503.325    20726502.797
  20726504.457          49.250          44.7504
 110211080.059 8  85878767.33047  20972469.922    20972469.319
  20972470.448          49.250          45.7504
 119199011.245 7  92882350.42745  22682816.574    22682816.575
  22682817.533          44.750          33.0004
 124886914.919 7  97314480.363 7  23765189.264    23765189.661    23765193.726
  23765193.277          42.000          45.750
 119275918.266 7  92942276.520 7  22697451.951    22697452.131    22697454.115
  22697453.506          47.750          46.000
 20  1  2  0 32 30.0000000  0  9G16G15G26G10G20G21G13G27G29
 127951705.189 6  99702626.82843  24348399.788    24348398.426
  24348400.700          39.750          23.2504
 109415606.473 8  85258913.715 8  20821096.752    20821097.019    20821098.294
  20821098.140          53.250          51.750
 131552591.520 6 102508514.819 6  25033625.820    25033625.661    25033630.526
  25033630.539          36.500          39.500
 120217561.937 7  93676023.031 7  22876640.378    22876640.762    22876643.857
  22876644.643          45.500          47.750
 108873753.142 8  84836690.60347  20717985.290    20717984.558
  20717985.895          49.750          44.7504
 110191410.230 8  85863440.18747  20968726.769    20968726.348
  20968727.501          49.250          46.0004
 119264037.047 7  92933019.87545  22695190.496    22695190.580
  22695191.816          45.000          32.7504
 124799610.395 7  97246450.868 7  23748576.194    23748576.093    23748580.287
  23748580.220          42.500          45.500
 119381295.446 7  93024388.600 7  22717504.174    22717504.531    22717506.781
  22717506.435          46.750          45.500
 20  1  2  0 33  0.0000000  0  9G16G15G10G26G20G21G13G27G29
 128002212.391 6  99741983.10043  24358010.386    24358010.432
  24358012.269          40.000          23.5004
 109441827.357 8  85279345.581 8  20826086.435    20826086.593    20826087.605
  20826087.645          53.500          51.750
 120140721.454 7  93616147.340 7  22862018.214    22862018.020    22862022.105
  22862022.596          45.750          47.750
 131624812.838 6 102564794.079 5  25047369.919                    25047374.223
                        36.500          34.750
 108829296.301 8  84802048.91447  20709525.300    20709524.553
  20709526.139          49.250          44.7504
 110171996.485 8  85848312.58547  20965032.532    20965032.103
  20965033.134          49.750          45.7504
 119329558.738 7  92984075.75145  22707658.636    22707659.445
  22707660.028          45.000          33.0004
 124712652.621 7  97178691.563 7  23732028.454    23732028.797    23732032.549
  23732031.920          42.250          45.250
 119486925.624 7  93106697.825 7  22737604.932    22737605.581    22737607.016
  22737607.138          46.750          45.250
 20  1  2  0 33 30.0000000  0  8G16G15G10G20G21G13G27G29
 128053142.512 6  99781668.88643  24367702.158    24367700.388
  24367702.344          38.500          20.2504
 109468667.215 8  85300259.760 8  20831194.063    20831194.096    20831195.462
  20831195.113          53.500          52.000
 120064087.043 7  93556432.228 7  22847435.505    22847435.495    22847438.574
  22847439.173          45.750          47.750
 108785146.328 8  84767646.34347  20701123.577    20701123.118
  20701124.741          49.750          44.7504
 110152839.340 8  85833384.93847  20961387.275    20961386.584
  20961387.582          49.500          46.0004
 119395572.844 7  93035515.31645  22720221.205    22720220.743
  22720221.504          45.750          32.2504
 124626043.382 7  97111203.841 7  23715547.431    23715547.549    23715550.965
  23715550.569          42.250          45.000
 119592805.198 7  93189201.391 7  22757753.497    22757753.670    22757755.387
  22757755.288          47.250          45.250
 20  1  2  0 34  0.0000000  0  8G16G15G10G20G21G13G27G29
 128104493.444 6  99821682.60343  24377474.588    24377473.677
  24377474.926          40.000          23.2504
 109496126.228 8  85321656.405 8  20836419.172    20836419.256    20836420.304
  20836420.319          53.000          51.750
 119987660.446 7  93496879.055 7  22832891.752    22832891.902    22832894.877
  22832895.991          46.000          47.500
 108741304.415 8  84733483.81647  20692780.871    20692780.045
  20692781.961          49.750          44.5004
 110133941.080 8  85818659.00747  20957791.040    20957790.260
  20957791.334          49.500          46.0004
 119462078.346 7  93087337.78145  22732876.637    22732876.255
  22732877.280          45.500          32.5004
 124539786.595 7  97043990.762 7  23699133.820    23699133.744    23699136.911
  23699136.895          43.000          45.000
 119698932.824 7  93271898.239 7  22777948.879    22777949.162    22777950.926
  22777951.025          47.500          45.500
 20  1  2  0 34 30.0000000  0  8G16G15G10G20G21G13G27G29
 128156263.272 6  99862022.71143  24387325.613    24387325.209
  24387327.128          39.750          22.7504
 109524202.834 8  85343534.284 8  20841762.016    20841762.026    20841762.907
  20841763.113          52.750          51.750
 119911442.079 7  93437488.119 7  22818387.568    22818387.756    22818391.380
  22818391.843          46.000          47.750
 108697770.987 8  84699561.66147  20684496.726    20684496.195
  20684497.662          49.500          44.7504
 110115302.899 8  85804135.74847  20954244.217    20954243.654
  20954244.532          49.500          46.0004
 119529072.946 7  93139541.38545  22745625.354    22745624.930
  22745625.388          45.000          32.2504
 124453884.935 7  96977054.401 7  23682786.558    23682786.789    23682790.271
  23682790.185          42.750          45.500
 119805305.852 7  93354786.314 7  22798191.435    22798191.193    22798193.183
  22798192.632          47.500          45.500
 20  1  2  0 35  0.0000000  0  8G16G15G10G20G21G13G27G29
 128208448.080 6  99902686.18943  24397256.012    24397256.277
  24397257.164          39.250          22.2504
 109552894.224 8  85365891.216 8  20847221.638    20847221.828    20847222.887
  20847222.873          52.750          51.750
 119835430.828 7  93378258.572 8  22803923.617    22803923.655    22803927.185
  22803927.524          46.000          48.000
 108654544.424 8  84665878.62147  20676270.867    20676270.430
  20676272.008          50.000          44.7504
 110096924.167 8  85789814.64947  20950746.883    20950746.243
  20950747.221          49.750          45.7504
 119596552.768 7  93192123.06545  22758466.312    22758465.375
  22758467.201          44.750          32.2504
 124368339.418 7  96910395.555 7  23666507.549    23666507.419    23666511.490
  23666511.469          42.500          45.500
 119911920.073 7  93437862.347 7  22818479.021    22818478.905    22818480.425
  22818480.115          47.000          44.500
 20  1  2  0 35 30.0000000  0  8G16G15G10G20G21G13G27G29
 128261046.527 6  99943671.98443  24407265.260    24407264.819
  24407266.696          38.250          21.7504
 109582200.573 8  85388727.340 8  20852798.654    20852798.664    20852799.753
  20852799.751          52.500          51.500
 119759628.591 7  93319191.906 8  22789498.494    22789498.947    22789502.320
  22789502.706          46.000          48.000
 108611626.641 8  84632436.19547  20668104.345    20668103.557
  20668104.879          50.500          45.0004
 110078807.153 8  85775697.48447  20947299.353    20947298.695
  20947299.931          49.750          45.7504
 119664516.896 7  93245082.14245  22771398.533    22771399.406
  22771400.571          44.250          32.2504
 124283154.165 7  96844017.444 7  23650297.418    23650297.644    23650301.284
  23650301.772          43.000          45.750
 120018773.991 7  93521125.134 7  22838812.558    22838812.538    22838814.790
  22838814.813          46.750          45.250
 20  1  2  0 36  0.0000000  0  8G16G15G10G20G21G13G27G29
 128314055.904 6  99984977.97743  24417353.166    24417352.407
  24417352.440          39.250          21.0004
 109612120.289 8  85412041.404 8  20858492.061    20858492.310    20858493.125
  20858493.098          52.250          51.250
 119684035.532 7  93260288.230 7  22775113.757    22775113.841    22775117.432
  22775117.676          46.000          47.500
 108569017.390 8  84599234.18047  20659996.018    20659995.233
  20659996.691          50.000          44.7504
 110060953.176 8  85761785.28947  20943901.904    20943901.156
  20943902.353          49.250          45.7504
 119732962.696 7  93298416.53545  22784423.970    22784424.235
  22784425.154          44.500          32.0004
 124198331.576 7  96777921.915 7  23634156.625    23634156.554    23634160.040
  23634160.179          43.000          46.000
 120125865.256 7  93604572.859 7  22859191.631    22859191.502    22859193.292
  22859193.521          47.250          45.500
 20  1  2  0 36 30.0000000  0  8G16G15G10G20G21G13G27G29
 128367473.007 6 100026601.68643  24427517.551    24427517.301
  24427517.942          38.750          21.7504
 109642651.437 8  85435831.916 8  20864302.022    20864302.177    20864303.328
  20864303.116          52.250          51.500
 119608651.721 7  93201547.608 8  22760768.975    22760769.183    22760772.469
  22760772.789          46.500          48.500
 108526716.418 8  84566272.39347  20651946.424    20651945.650
  20651947.045          50.500          45.0004
 110043362.951 8  85748078.60447  20940554.618    20940553.833
  20940555.021          49.500          46.0004
 119801887.355 7  93352124.04245  22797540.484    22797540.171
  22797541.307          45.000          32.2504
 124113873.906 7  96712110.755 7  23618085.347    23618084.957    23618088.384
  23618089.122          43.500          45.500
 120233190.767 7  93688203.123 7  22879614.681    22879614.725    22879617.078
  22879616.828          46.750          45.000
 20  1  2  0 37  0.0000000  0  8G16G15G10G20G21G13G27G29
 128421295.282 6 100068541.14543  24437759.356    24437758.777
  24437760.782          39.000          21.5004
 109673792.917 8  85460098.012 8  20870227.823    20870228.133    20870229.452
  20870229.154          52.000          51.750
 119533477.744 7  93142970.501 8  22746463.832    22746463.815    22746467.069
  22746467.546          46.500          48.000
 108484724.037 8  84533551.05547  20643955.366    20643954.619
  20643956.252          49.500          45.2504
 110026037.401 8  85734578.17047  20937257.543    20937256.989
  20937258.103          49.750          46.0004
 119871288.652 7  93406202.99145  22810746.683    22810746.592
  22810747.619          44.500          32.0004
 124029783.976 7  96646586.143 7  23602083.239    23602083.027    23602087.021
  23602086.123          43.250          45.750
 120340747.724 7  93772013.733 7  22900082.275    22900082.379    22900083.755
  22900083.709          47.000          44.750
 20  1  2  0 37 30.0000000  0  8G16G15G10G20G21G13G27G29
 128475519.910 6 100110794.12543  24448078.421    24448077.075
  24448079.493          39.500          22.5004
 109705542.890 8  85484838.254 8  20876269.839    20876269.967    20876271.070
  20876270.912          52.500          51.750
 119458513.568 7  93084556.843 8  22732198.249    22732198.290    22732202.080
  22732202.075          46.500          48.250
 108443040.093 8  84501070.05647  20636023.072    20636022.555
  20636024.110          50.250          45.0004
 110008977.231 8  85721284.53247  20934011.152    20934010.575
  20934011.620          49.000          46.0004
 119941163.774 7  93460651.13245  22824043.478    22824043.411
  22824044.379          45.500          32.5004
 123946063.891 7  96581349.711 7  23586152.182    23586151.414    23586155.762
  23586155.725          43.500          46.000
 120448533.222 7  93856002.434 7  22920593.130    22920593.476    22920594.687
  22920594.927          47.250          43.500
 20  1  2  0 38  0.0000000  0  8G16G15G10G20G21G13G27G29
 128530145.393 6 100153359.39843  24458472.015    24458472.432
  24458473.935          37.500          22.2504
 109737900.934 8  85510052.322 8  20882427.313    20882427.574    20882428.744
  20882428.559          52.500          51.500
 119383760.487 7  93026307.712 8  22717973.196    22717973.595    22717977.176
  22717977.433          46.250          48.750
 108401665.626 8  84468830.22147  20628150.027    20628149.243
  20628150.634          50.250          45.0004
 109992184.782 8  85708199.49847  20930815.807    20930815.007
  20930816.205          49.000          46.0004
 120011511.392 7  93515467.46145  22837430.181    22837429.754
  22837431.254          44.750          32.2504
 123862717.204 7  96516404.242 7  23570291.667    23570291.672    23570295.128
  23570294.937          43.500          45.750
 120556545.695 7  93940168.006 7  22941147.343    22941147.549    22941148.994
  22941149.366          47.000          44.750
 20  1  2  0 38 30.0000000  0  8G16G15G10G20G21G13G27G29
 128585168.166 6 100196234.29343  24468943.527    24468943.493
  24468944.227          39.000          22.5004
 109770864.925 8  85535738.557 8  20888700.147    20888700.169    20888701.596
  20888701.339          53.000          51.500
 119309218.434 7  92968223.003 8  22703788.522    22703788.622    22703791.829
  22703792.504          46.500          48.250
 108360600.379 8  84436831.32647  20620335.448    20620334.839
  20620336.261          50.000          45.2504
 109975660.294 8  85695323.26247  20927671.416    20927670.517
  20927671.678          49.250          46.0004
 120082328.430 7  93570649.56845  22850906.271    22850905.303
  22850906.930          44.000          32.0004
 123779746.053 7  96451751.384 7  23554502.213    23554502.478    23554505.841
  23554506.171          43.500          46.000
 120664781.947 7  94024507.939 7  22961744.022    22961743.911    22961746.223
  22961746.068          46.500          45.000
 20  1  2  0 39  0.0000000  0  8G16G15G10G20G21G13G27G29
 128640585.703 6 100239416.74743  24479489.502    24479488.504
  24479490.027          37.500          20.5004
 109804433.165 8  85561895.631 8  20895087.945    20895088.024    20895089.264
  20895089.123          52.500          51.250
 119234887.601 7  92910302.893 8  22689643.872    22689643.908    22689647.367
  22689647.946          46.750          48.750
 108319844.085 8  84405073.16247  20612579.706    20612579.075
  20612580.693          50.000          45.2504
 109959404.561 8  85682656.45147  20924577.572    20924577.134
  20924578.316          48.750          46.0004
 120153612.243 7  93626195.39845  22864470.980    22864470.401
  22864471.941          44.500          32.0004
 123697152.775 7  96387392.987 7  23538785.601    23538785.604    23538789.189
  23538788.846          43.500          46.000
 120773238.687 7  94109019.662 7  22982382.142    22982382.304    22982385.160
  22982384.636          45.500          45.000
 20  1  2  0 39 30.0000000  0  8G16G15G10G20G21G13G27G29
 128696396.241 6 100282905.48843  24490109.207    24490109.713
  24490110.945          38.250          22.0004
 109838604.900 8  85588522.969 8  20901590.816    20901590.534    20901591.945
  20901591.760          52.750          51.250
 119160769.478 7  92852548.525 8  22675539.396    22675539.497    22675542.984
  22675543.399          46.500          48.500
 108279398.045 8  84373556.76147  20604883.221    20604882.483
  20604883.914          50.250          45.0004
 109943419.837 8  85670200.81347  20921536.045    20921535.571
  20921536.506          49.250          46.0004
 120225361.271 7  93682103.72445  22878124.442    22878124.321
  22878125.469          44.500          31.7504
 123614941.071 7  96323331.922 7  23523141.725    23523140.801    23523144.990
  23523144.775          43.500          45.750
 120881914.517 7  94193702.133 7  23003063.100    23003063.345    23003064.701
  23003064.579          46.750          44.000
 20  1  2  0 40  0.0000000  0  8G16G15G10G20G21G13G27G29
 128752596.245 6 100326697.66943  24500803.423    24500803.689
  24500804.498          37.500          21.2504
 109873377.735 8  85615618.694 8  20908207.674    20908207.736    20908209.162
  20908208.825          53.000          51.500
 119086863.536 7  92794959.474 8  22661475.924    22661475.773    22661479.053
  22661479.747          47.000          48.500
 108239261.162 8  84342281.27347  20597245.428    20597244.577
  20597246.275          50.250          45.2504
 109927706.388 8  85657956.55747  20918545.958    20918545.462
  20918546.223          49.250          46.0004
 120297572.433 7  93738372.15645  22891865.711    22891865.405
  22891866.535          43.750          31.7504
 123533112.595 7  96259569.477 7  23507570.709    23507569.472    23507573.086
  23507573.340          43.250          46.000
 120990805.762 7  94278552.472 7  23023784.244    23023783.882    23023785.368
  23023785.875          46.500          43.500
 20  1  2  0 40 30.0000000  0  8G16G15G10G20G21G13G27G29
 128809183.172 6 100370791.37343  24511572.892    24511571.136
  24511572.238          38.000          20.0004
 109908750.568 8  85643181.946 8  20914938.816    20914938.829    20914940.107
  20914940.031          52.750          51.250
 119013170.375 7  92737536.244 8  22647452.527    22647452.429    22647456.023
  22647456.591          47.000          48.750
 108199434.192 8  84311247.27047  20589666.430    20589665.729
  20589667.358          50.250          45.0004
 109912265.112 8  85645924.38547  20915607.683    20915606.866
  20915607.957          49.250          46.0004
 120370243.262 7  93794998.78345  22905694.164    22905693.985
  22905695.218          44.500          31.5004
 123451670.199 7  96196107.868 7  23492072.174    23492071.804    23492075.458
  23492075.098          43.500          45.750
 121099910.065 7  94363568.804 7  23044545.479    23044545.725    23044547.785
  23044547.812          46.000          44.250
 20  1  2  0 41  0.0000000  0  8G16G15G10G20G21G13G27G29
 128866154.355 6 100415184.49643  24522413.380    24522413.081
  24522414.324          38.250          22.5004
 109944721.540 8  85671211.285 8  20921784.021    20921784.079    20921785.492
  20921785.081          53.250          51.500
 118939690.336 7  92680279.066 8  22633469.673    22633469.870    22633472.936
  22633473.715          46.750          48.000
 108159917.093 8  84280454.72947  20582146.509    20582146.030
  20582147.561          50.000          45.2504
 109897097.387 8  85634105.36947  20912721.446    20912720.595
  20912721.656          49.500          46.0004
 120443371.166 7  93851981.58645  22919609.937    22919610.427
  22919611.280          44.250          31.0004
 123370616.407 7  96132949.068 7  23476647.917    23476648.144    23476650.828
  23476651.659          43.500          46.000
 121209224.836 7  94448749.129 7  23065347.666    23065347.709    23065348.944
  23065349.688          46.250          43.750
 20  1  2  0 41 30.0000000  0  8G16G15G10G20G21G13G27G29
 128923507.478 6 100459875.24643  24533326.399    24533326.524
  24533327.519          36.750          19.5004
 109981289.543 8  85699705.841 8  20928742.759    20928742.734    20928743.776
  20928743.789          53.250          51.250
 118866424.218 7  92623188.596 8  22619527.599    22619527.400    22619531.161
  22619531.521          46.250          49.000
 108120710.314 8  84249903.99947  20574685.945    20574685.107
  20574686.623          50.250          45.0004
 109882204.808 8  85622500.75547  20909887.403    20909886.666
  20909887.725          48.750          46.0004
 120516954.191 7  93909319.00545  22933612.331    22933612.832
  22933613.097          44.250          31.0004
 123289954.137 7  96070095.357 7  23461298.382    23461298.031    23461301.522
  23461301.647          42.750          46.000
 121318747.389 7  94534091.378 7  23086189.669    23086189.349    23086191.597
  23086190.780          46.250          43.750
 20  1  2  0 42  0.0000000  0  8G16G15G10G20G21G13G27G29
 128981238.809 6 100504860.68243  24544313.352    24544312.227
  24544314.848          38.250          21.5004
 110018451.981 8  85728663.588 8  20935814.209    20935814.436    20935815.556
  20935815.512          53.000          51.250
 118793371.459 7  92566264.381 8  22605626.211    22605626.388    22605629.943
  22605630.040          46.500          49.000
 108081813.263 8  84219594.59947  20567283.916    20567283.396
  20567284.806          50.500          45.0004
 109867587.063 8  85611110.30847  20907105.773    20907104.946
  20907106.046          49.250          46.0004
 120590988.855 7  93967008.34945  22947701.043    22947701.132
  22947701.515          43.750          31.2504
 123209685.003 7  96007547.981 7  23446023.419    23446023.970    23446027.062
  23446026.849          42.750          45.750
 121428474.471 7  94619592.998 7  23107070.134    23107069.904    23107071.079
  23107071.178          46.500          43.500
 20  1  2  0 42 30.0000000  0  8G16G15G10G20G21G13G27G29
 129039345.869 6 100550138.90843  24555370.544    24555369.637
  24555372.088          37.000          21.7504
 110056207.408 8  85758083.404 8  20942998.840    20942999.007    20943000.394
  20942999.992          53.500          51.250
 118720532.703 7  92509506.915 8  22591765.026    22591764.808    22591768.460
  22591769.137          47.000          48.750
 108043226.165 8  84189526.73247  20559941.252    20559940.456
  20559942.048          50.250          45.2504
 109853246.002 8  85599935.45447  20904376.500    20904376.007
  20904376.991          49.250          46.0004
 120665473.032 7  94025047.98045  22961875.044    22961874.686
  22961875.658          43.750          30.7504
 123129811.900 7  95945309.191 7  23430824.166    23430823.988    23430827.555
  23430827.161          42.500          45.750
 121538403.568 7  94705252.046 7  23127989.316    23127988.657    23127989.634
  23127990.142          46.500          42.500
 20  1  2  0 43  0.0000000  0  8G16G15G10G20G21G13G27G29
 129097826.810 6 100595708.45843  24566498.893    24566498.915
  24566500.516          38.250          22.0004
 110094555.283 8  85787964.865 8  20950296.470    20950296.510    20950297.669
  20950297.374          53.500          51.250
 118647909.333 7  92452917.275 8  22577945.526    22577945.586    22577948.644
  22577949.266          47.000          48.500
 108004950.140 8  84159701.25447  20552657.415    20552656.782
  20552658.299          50.250          45.2504
 109839183.411 8  85588977.57947  20901700.431    20901699.919
  20901700.971          49.000          45.7504
 120740405.040 7  94083436.55945  22976134.062    22976134.032
  22976135.097          44.250          31.2504
 123050338.404 7  95883381.803 7  23415700.614    23415700.230    23415704.245
  23415704.553          42.000          46.000
 121648533.105 7  94791067.275 7  23148945.490    23148945.520    23148946.640
  23148947.198          45.750          42.500
 20  1  2  0 43 30.0000000  0  8G16G15G10G20G21G13G27G29
 129156678.738 6 100641567.10743  24577698.214    24577697.375
  24577699.670          37.000          20.2504
 110133493.371 8  85818306.239 8  20957706.037    20957706.220    20957707.378
  20957707.200          53.500          51.000
 118575501.035 7  92396495.231 8  22564166.415    22564166.602    22564169.710
  22564170.599          46.500          48.500
 107966984.605 8  84130117.71347  20545432.964    20545432.268
  20545433.651          50.250          45.5004
 109825399.777 8  85578237.08047  20899077.748    20899076.906
  20899078.006          49.000          46.0004
 120815781.857 7  94142171.73945  22990477.907    22990477.589
  22990478.825          44.250          31.0004
 122971266.321 7  95821767.193 7  23400654.397    23400654.049    23400657.985
  23400657.820          43.250          46.500
 121758859.558 7  94877035.957 7  23169940.092    23169940.099    23169941.670
  23169941.401          46.000          43.750
 20  1  2  0 44  0.0000000  0  8G16G15G10G20G21G13G27G29
 129215897.660 6 100687711.71043  24588966.939    24588967.217
  24588968.996          37.000          20.0004
 110173018.780 8  85849105.262 8  20965227.381    20965227.622    20965228.628
  20965228.656          53.500          51.250
 118503307.346 7  92340240.407 8  22550428.628    22550428.680    22550432.451
  22550432.833          47.250          49.250
 107929328.680 8  84100775.43447  20538267.263    20538266.412
  20538268.032          50.250          45.2504
 109811895.240 8  85567714.06447  20896507.805    20896507.042
  20896508.219          49.000          46.0004
 120891599.645 7  94201250.53945  23004905.594    23004905.269
  23004905.993          43.500          31.0004
 122892597.371 7  95760466.706 7  23385683.888    23385684.024    23385687.572
  23385687.115          42.750          46.250
 121869379.582 7  94963155.441 7  23190971.068    23190971.288    23190973.302
  23190972.764          45.000          43.750
 20  1  2  0 44 30.0000000  0  8G16G15G10G20G21G13G27G29
 129275482.050 6 100734141.12943  24600306.968    24600305.797
  24600307.539          38.000          21.7504
 110213131.140 8  85880361.657 8  20972860.731    20972860.688    20972861.786
  20972861.670          53.750          51.000
 118431330.084 7  92284154.242 8  22536731.842    22536731.758    22536735.088
  22536735.805          47.250          49.000
 107891984.188 8  84071675.83447  20531160.778    20531160.080
  20531161.645          50.250          45.5004
 109798672.385 8  85557410.53647  20893991.877    20893990.954
  20893992.032          49.000          45.7504
 120967857.796 7  94260672.47545  23019416.792    23019417.014
  23019417.517          43.250          30.7504
 122814335.568 7  95699483.487 7  23370791.359    23370790.939    23370794.802
  23370794.745          43.250          46.000
 121980091.854 7  95049424.753 7  23212039.092    23212039.043    23212040.860
  23212041.108          45.500          43.750
 20  1  2  0 45  0.0000000  0  8G16G15G10G20G21G13G27G29
 129335428.957 6 100780852.99743  24611713.180    24611712.995
  24611714.034          36.750          19.7504
 110253828.182 8  85912073.634 8  20980605.016    20980605.058    20980606.425
  20980606.101          53.500          51.000
 118359568.822 7  92228236.367 8  22523076.251    22523076.140    22523079.421
  22523079.731          47.250          48.750
 107854950.354 8  84042818.28647  20524113.497    20524112.795
  20524114.252          50.250          45.5004
 109785731.599 8  85547326.79747  20891529.043    20891528.401
  20891529.470          48.750          46.0004
 121044552.508 7  94320434.58845  23034011.554    23034011.207
  23034012.602          43.750          30.7504
 122736482.654 7  95638818.869 7  23355975.746    23355976.091    23355979.636
  23355979.953          42.250          46.000
 122090992.740 7  95135841.011 7  23233143.236    23233143.314    23233145.365
  23233144.989          45.500          44.000
 20  1  2  0 45 30.0000000  0  8G16G15G10G20G21G13G27G29
 129395735.433 6 100827845.03943  24623189.344    24623188.080
  24623189.830          37.250          21.2504
 110295108.511 8  85944240.134 8  20988460.343    20988460.499    20988461.510
  20988461.428          53.500          51.000
 118288024.423 7  92172487.487 8  22509461.784    22509461.793    22509465.292
  22509465.870          47.750          49.500
 107818227.794 8  84014203.29047  20517125.708    20517124.770
  20517126.001          50.500          45.7504
 109773074.508 8  85537464.12547  20889120.713    20889119.925
  20889120.835          49.000          45.5004
 121121682.444 7  94380535.83245  23048688.442    23048688.110
  23048689.439          43.000          30.5004
 122659041.617 7  95578475.198 7  23341239.908    23341239.421    23341243.116
  23341242.644          42.500          46.000
 122202080.117 7  95222402.604 7  23254282.437    23254281.890    23254283.876
  23254283.644          46.000          43.250
 20  1  2  0 46  0.0000000  0  8G16G15G10G20G21G13G27G29
 129456399.077 6 100875115.37043  24634733.352    24634732.602
  24634734.618          36.750          21.2504
 110336970.173 8  85976859.616 8  20996426.374    20996426.469    20996427.576
  20996427.638          53.500          51.000
 118216697.095 7  92116907.763 8  22495888.395    22495888.440    22495892.292
  22495892.650          47.250          49.500
 107781816.138 8  83985830.57147  20510196.610    20510195.908
  20510197.306          50.250          45.2504
 109760701.717 8  85527822.98647  20886765.879    20886765.334
  20886766.554          48.500          45.7504
 121199244.409 7  94440973.71745  23063448.007    23063447.833
  23063449.035          43.000          31.0004
 122582014.845 7  95518454.335 7  23326581.496    23326581.665    23326585.059
  23326585.702          42.250          46.000
 122313351.262 7  95309107.409 7  23275456.224    23275456.214    23275458.094
  23275457.856          45.250          43.500
 20  1  2  0 46 30.0000000  0  8G16G15G10G20G21G13G27G29
 129517415.726 6                  24646344.818
                        38.500
 110379411.374 8  86009930.680 8  21004502.592    21004502.761    21004504.040
  21004503.839          53.250          51.000
 118145587.085 7  92061497.372 8  22482356.866    22482356.862    22482360.259
  22482360.493          47.500          49.000
 107745715.833 8  83957700.46247  20503326.846    20503326.137
  20503327.513          50.500          45.5004
 109748614.254 8  85518404.17847  20884465.901    20884465.114
  20884466.282          48.750          46.0004
 121277235.773 7  94501746.22045  23078289.305    23078289.385
  23078290.537          43.000          30.5004
 122505404.724 6  95458758.143 7  23312003.482    23312003.129    23312006.971
  23312007.156          41.750          46.250
 122424803.290 7  95395953.107 7  23296664.722    23296664.693    23296667.319
  23296666.488          44.750          44.000
 20  1  2  0 47  0.0000000  0  8G16G15G10G20G21G13G27G29
 129578784.269 6 100970479.25343  24658023.091    24658021.878
  24658022.810          37.000          21.2504
 110422429.582 8  86043451.361 8  21012688.750    21012688.648    21012689.991
  21012689.733          53.250          51.000
 118074694.358 7  92006256.278 8  22468866.359    22468866.695    22468869.533
  22468869.916          47.750          49.500
 107709926.637 8  83929812.77047  20496516.334    20496515.723
  20496517.163          50.750          45.7504
 109736812.809 8  85509208.23847  20882219.945    20882219.471
  20882220.632          48.500          46.0004
 121355653.269 7  94562850.74045  23093212.402    23093211.830
  23093212.872          43.000          30.5004
 122429213.370 7  95399388.255 7  23297504.806    23297504.271    23297508.282
  23297508.407          42.500          45.750
 122536433.113 7  95482937.388 7  23317907.429    23317907.278    23317909.232
  23317909.786          45.250          43.500
 20  1  2  0 47 30.0000000  0  8G16G15G10G20G21G13G27G29
 129640500.756 6 101018570.03043  24669766.208    24669766.378
  24669768.301          37.000          21.0004
 110466023.542 8  86077420.683 8  21020984.376    21020984.312    21020985.658
  21020985.497          53.250          50.750
 118004019.459 7  91951184.937 8  22455417.233    22455417.415    22455420.953
  22455421.542          47.500          49.500
 107674448.628 8  83902167.57247  20489765.362    20489764.517
  20489765.899          50.500          45.5004
 109725298.792 8  85500236.27047  20880028.984    20880028.339
  20880029.548          49.250          46.0004
 121434494.831 7  94624285.73545  23108214.817    23108214.974
  23108216.056          42.500          30.2504
 122353443.502 7  95340346.803 7  23283086.232    23283086.004    23283089.612
  23283089.324          42.500          46.000
 122648238.255 7  95570058.280 7  23339183.072    23339183.398    23339184.582
  23339185.796          45.500          43.500
 20  1  2  0 48  0.0000000  0  9G16G15G24G10G20G21G13G27G29
 129702562.563 6 101066929.86443  24681577.152    24681576.173
  24681577.904          37.750          22.0004
 110510191.056 8  86111836.930 8  21029389.082    21029389.129    21029390.548
  21029390.458          53.250          50.750
 128638136.811 6 100237506.539 7  24479023.979    24479024.065    24479027.293
  24479028.017          38.750          43.750
 117933562.742 8  91896283.609 8  22442009.885    22442009.872    22442013.525
  22442014.106          48.000          49.750
 107639282.050 8  83874765.03447  20483073.198    20483072.384
  20483073.818          50.250          45.5004
 109714073.457 8  85491489.25147  20877893.164    20877892.489
  20877893.340          48.750          46.0004
 121513757.766 7  94686049.05545  23123298.100    23123298.418
  23123299.101          43.000          30.0004
 122278097.595 7  95281635.707 7  23268748.326    23268748.014    23268751.807
  23268751.870          42.500          45.750
 122760216.151 7  95657313.773 7  23360491.378    23360491.449    23360494.101
  23360494.004          43.750          42.750
 20  1  2  0 48 30.0000000  0  9G16G15G24G10G20G21G13G27G29
 129764966.124 6 101115556.02043  24693452.524    24693452.207
  24693452.772          39.000          22.5004
 110554929.994 8  86146698.441 8  21037902.597    21037902.677    21037904.113
  21037903.827          52.750          50.750
 128548907.456 6 100167977.202 6  24462043.373    24462044.031    24462047.253
  24462048.040          37.500          39.250
 117863324.108 7  91841552.208 8  22428643.555    22428643.705    22428647.549
  22428647.821          47.250          49.750
 107604426.362 8  83847604.76047  20476440.835    20476439.861
  20476441.207          50.500          45.7504
 109703137.133 8  85482967.43347  20875811.962    20875811.180
  20875812.292          48.750          46.0004
 121593439.106 7  94748138.39544  23138460.748    23138460.261
  23138462.270          42.250          29.7504
 122203177.647 7  95223256.533 7  23254491.487    23254491.469    23254494.934
  23254494.752          42.000          45.500
 122872363.487 7  95744701.303 7  23381833.231    23381832.737    23381834.291
  23381834.322          45.000          42.500
 20  1  2  0 49  0.0000000  0  9G16G15G24G10G20G21G13G27G29
 129827709.739 6 101164447.15743  24705391.118    24705390.849
  24705392.672          37.750          22.2504
 110600238.791 8  86182004.009 8  21046524.561    21046524.664    21046525.924
  21046525.815          52.750          51.000
 128459764.258 6 100098514.930 6  24445080.139    24445080.987    24445084.099
  24445084.521          37.500          40.250
 117793304.342 8  91786991.346 8  22415319.731    22415319.669    22415322.901
  22415323.650          48.250          49.500
 107569882.116 8  83820687.18347  20469866.840    20469866.072
  20469867.414          50.250          45.5004
 109692491.490 8  85474672.11847  20873786.129    20873785.529
  20873786.589          48.250          46.0004
 121673536.598 6  94810552.03544  23153702.704    23153702.215
  23153704.007          41.750          29.5004
 122128686.651 7  95165211.603 7  23240316.479    23240315.916    23240320.269
  23240319.866          43.500          46.250
 122984678.024 7  95832219.144 6  23403205.877    23403206.084    23403206.799
  23403206.005          44.750          41.750
 20  1  2  0 49 30.0000000  0  9G16G15G24G10G20G21G13G27G29
 129890790.558 6 101213601.04043  24717395.554    24717395.450
  24717396.538          38.500          21.2504
 110646115.782 8  86217752.316 8  21055254.660    21055254.949    21055256.142
  21055255.936          53.000          50.750
 128370710.513 6 100029122.421 6  24428134.220    24428133.888    24428137.374
  24428137.570          38.500          38.000
 117723503.935 7  91732601.431 8  22402037.018    22402037.000    22402040.394
  22402040.956          47.500          49.750
 107535649.598 8  83794012.49347  20463352.974    20463352.074
  20463353.317          50.750          45.5004
 109682137.634 8  85466604.17947  20871815.884    20871815.101
  20871816.203          48.250          46.0004
 121754047.705 7  94873287.96044  23169023.748    23169023.041
  23169024.849          42.500          29.0004
 122054627.156 7  95107502.906 7  23226223.508    23226223.330    23226226.836
  23226226.278          43.250          45.750
 123097157.347 7  95919865.396 6  23424609.677    23424609.541    23424610.715
  23424610.802          44.750          41.500
 20  1  2  0 50  0.0000000  0  9G16G15G24G10G20G21G13G27G29
 129954205.745 6 101263015.41643  24729463.052    24729462.507
  24729464.468          38.500          22.2504
 110692559.185 8  86253941.985 8  21064092.891    21064092.669    21064094.242
  21064093.811          52.500          51.000
 128281749.822 6  99959802.376 6  24411205.194    24411204.826    24411209.307
  24411209.362          36.750          39.500
 117653923.476 7  91678382.871 8  22388796.528    22388796.442    22388799.484
  22388800.216          47.250          49.250
 107501729.352 8  83767581.14147  20456897.806    20456897.197
  20456898.447          50.250          45.7504
 109672076.791 7  85458764.56247  20869901.283    20869900.655
  20869901.654          47.750          46.0004
 121834970.284 7  94936344.50444  23184423.109    23184422.544
  23184423.895          42.000          29.0004
 121981001.852 7  95050132.538 7  23212212.738    23212213.191    23212216.200
  23212216.255          43.000          46.000
 123209798.893 7  96007638.042 7  23446044.377    23446044.713    23446047.185
  23446046.005          44.500          42.500
 20  1  2  0 50 30.0000000  0  9G16G15G24G10G20G21G13G27G29
 130017952.495 6 101312688.24043  24741593.687    24741592.891
  24741594.819          39.250          21.5004
 110739567.067 8  86290571.513 8  21073037.960    21073038.160    21073039.403
  21073039.263          52.500          50.750
 128192884.775 6  99890556.850 6  24394294.752    24394295.126    24394298.812
  24394297.661          37.000          37.250
 117584563.248 7  91624335.949 8  22375597.254    22375597.324    22375600.825
  22375601.326          47.250          49.500
 107468121.276 8  83741393.03547  20450502.357    20450501.588
  20450503.066          50.250          45.5004
 109662310.133 7  85451154.17647  20868042.851    20868042.102
  20868043.149          47.750          46.0004
 121916301.324 6  94999719.35444  23199899.954    23199899.386
  23199900.624          41.750          29.5004
 121907813.185 7  94993102.406 7  23198285.623    23198285.485    23198289.197
  23198289.218          43.000          46.000
 123322599.627 7  96095534.714 7  23467509.669    23467509.848    23467511.364
  23467512.312          44.250          42.500
 20  1  2  0 51  0.0000000  0  8G16G15G10G20G21G13G27G29
 130082026.849 6 101362616.26843  24753786.477    24753785.548
  24753786.189          39.500          21.7504
 110787136.813 8  86327638.847 8  21082090.006    21082090.284    21082091.583
  21082091.342          52.250          51.000
 117515422.996 7  91570460.437 8  22362440.619    22362440.370    22362443.999
  22362444.706          46.750          49.750
 107434824.673 8  83715447.64547  20444166.482    20444165.580
  20444166.927          50.250          46.0004
 109652837.950 7  85443773.24747  20866240.352    20866239.590
  20866240.690          47.750          46.0004
 121998037.773 7  95063410.09044  23215453.773    23215453.128
  23215454.122          42.250          29.2504
 121835062.985 7  94936413.946 7  23184442.090    23184441.545    23184445.326
  23184445.019          43.500          46.000
 123435556.986 7  96183553.446 7  23489005.282    23489005.220    23489007.085
  23489006.797          44.500          42.750
 20  1  2  0 51 30.0000000  0  9G16G15G24G10G20G21G13G27G29
 130146426.728 6 101412798.03243  24766041.037    24766040.359
  24766042.901          39.500          21.5004
 110835266.398 8  86365142.432 8  21091248.799    21091248.823    21091250.295
  21091250.259          51.750          50.750
 128015450.680 6  99752298.885 5  24360531.206    24360530.798    24360533.301
  24360535.806          36.750          34.000
 117446503.328 7  91516756.796 8  22349325.575    22349325.807    22349328.814
  22349329.375          47.000          49.500
 107401840.059 8  83689745.35347  20437889.360    20437888.559
  20437890.250          50.000          45.7504
 109643661.919 7  85436623.09747  20864494.207    20864493.566
  20864494.630          47.500          46.0004
 122080177.002 6  95127414.67844  23231084.280    23231084.298
  23231085.605          41.750          29.0004
 121762753.908 7  94880069.205 7  23170682.056    23170681.525    23170684.994
  23170684.983          43.500          46.000
 123548668.208 7  96271692.065 7  23510528.972    23510529.066    23510531.435
  23510531.274          43.500          43.500
 20  1  2  0 52  0.0000000  0  8G16G15G10G20G21G13G27G29
 130211149.186 6 101463231.10543  24778357.326    24778357.050
  24778358.780          39.000          21.5004
 110883954.555 8  86403081.248 8  21100513.877    21100513.933    21100515.423
  21100515.181          51.500          50.500
 117377804.893 7  91463225.560 8  22336252.662    22336252.801    22336256.598
  22336256.903          47.250          50.000
 107369167.765 8  83664286.42247  20431672.245    20431671.420
  20431672.909          50.000          45.7504
 109634782.958 7  85429704.42847  20862804.562    20862803.855
  20862804.975          47.750          46.2504
 122162716.934 6  95191731.50244  23246791.199    23246790.696
  23246791.982          41.500          29.0004
 121690888.738 7  94824070.360 7  23157006.485    23157006.382    23157009.708
  23157009.665          44.000          46.250
 123661931.055 7  96359948.815 7  23532082.402    23532082.450    23532083.971
  23532084.241          43.750          43.000
 20  1  2  0 52 30.0000000  0  8G16G15G10G20G21G13G27G29
 130276192.287 6 101513914.01343  24790735.717    24790734.224
  24790736.197          39.000          21.5004
 110933199.764 8  86441454.146 8  21109884.785    21109885.073    21109886.281
  21109886.241          51.250          50.750
 117309328.481 7  91409867.319 8  22323222.058    22323222.040    22323225.500
  22323225.736          47.000          49.500
 107336808.218 8  83639071.19147  20425514.599    20425513.679
  20425515.092          49.750          46.0004
 109626202.945 7  85423018.69847  20861171.785    20861171.133
  20861172.273          47.000          46.2504
 122245655.518 6  95256358.97344  23262573.875    23262573.270
  23262574.715          41.250          28.2504
 121619470.355 7  94768419.668 7  23143416.066    23143415.383    23143419.252
  23143418.851          43.500          46.250
 123775342.914 7  96448321.709 7  23553663.661    23553664.511    23553665.569
  23553665.435          43.500          43.500
 20  1  2  0 53  0.0000000  0  8G16G15G10G20G21G13G27G29
 130341551.286 6 101564843.08443  24803171.453    24803171.526
  24803172.329          38.250          20.0004
 110982997.927 8  86480257.912 8  21119361.050    21119361.617    21119362.615
  21119362.603          51.000          50.750
 117241072.631 7  91356680.935 8  22310233.334    22310233.340    22310236.942
  22310237.307          47.500          49.750
 107304760.035 8  83614098.58747  20419415.862    20419415.043
  20419416.488          50.250          46.0004
 109617921.334 7  85416565.49247  20859595.829    20859595.363
  20859596.340          47.500          46.2504
 122328988.312 6  95321293.60644  23278431.256    23278430.947
  23278432.795          41.250          28.5004
 121548499.451 7  94713117.668 7  23129910.761    23129910.129    23129913.688
  23129913.674          42.500          45.750
 123888899.707 7  96536807.518 7  23575273.601    23575273.300    23575275.548
  23575275.501          44.000          43.500
 20  1  2  0 53 30.0000000  0  8G16G15G10G20G21G13G27G29
 130407224.119 6 101616016.73343  24815669.606    24815669.328
  24815670.663          39.000          22.2504
 111033348.271 8  86519491.950 8  21128942.662    21128942.718    21128943.759
  21128943.774          51.000          50.500
 117173038.919 7  91303667.653 8  22297287.135    22297287.089    22297290.613
  22297290.513          47.000          49.750
 107273024.503 8  83589369.59247  20413376.693    20413375.959
  20413377.516          50.000          45.7504
 109609939.965 7  85410346.24247  20858077.009    20858076.449
  20858077.547          47.000          46.2504
 122412713.485 6  95386533.98844  23294363.608    23294363.996
  23294365.298          41.750          28.7504
 121477979.505 7  94658167.052 7  23116491.146    23116491.088    23116494.395
  23116493.972          42.250          46.000
 124002599.649 7  96625404.870 7  23596909.441    23596909.482    23596911.809
  23596911.541          43.000          43.500
 20  1  2  0 54  0.0000000  0  8G16G15G10G20G21G13G27G29
 130473207.791 6 101667432.56043  24828225.505    24828225.060
  24828227.586          38.500          20.5004
 111084248.563 8  86559154.512 8  21138628.692    21138628.619    21138629.927
  21138629.817          51.000          50.500
 117105227.382 7  91250827.493 8  22284382.524    22284382.725    22284386.080
  22284386.933          46.500          49.750
 107241601.301 8  83564883.97647  20407397.156    20407396.456
  20407397.868          49.750          45.7504
 109602259.980 7  85404361.83847  20856615.414    20856614.904
  20856616.031          47.000          45.7504
 122496828.331 7  95452078.02444  23310370.495    23310370.137
  23310370.776          42.000          29.2504
 121407912.700 7  94603569.530 7  23103157.540    23103157.653    23103161.208
  23103160.874          43.250          46.000
 124116440.012 7  96714111.644 7  23618572.926    23618572.247    23618574.857
  23618574.744          42.500          42.750
 20  1  2  0 54 30.0000000  0  8G16G15G10G20G21G13G27G29
 130539500.676 6 101719089.34743  24840841.028    24840840.981
  24840842.235          39.250          21.2504
 111135697.733 8  86599244.784 8  21148419.135    21148419.175    21148420.517
  21148420.154          51.250          50.500
 117037639.415 7  91198161.543 8  22271521.345    22271521.347    22271524.810
  22271525.357          46.500          50.000
 107210491.658 8  83540642.69747  20401477.137    20401476.361
  20401477.648          49.500          46.0004
 109594883.444 7  85398613.88547  20855211.888    20855211.280
  20855212.406          47.000          46.0004
 122581331.264 6  95517924.47144  23326450.752    23326450.817
  23326451.518          41.500          29.0004
 121338302.431 7  94549327.768 7  23089911.479    23089911.354    23089914.818
  23089914.772          42.250          46.250
 124230419.014 6  96802926.454 7  23640262.096    23640261.698    23640264.603
  23640264.005          41.750          43.000
 20  1  2  0 55  0.0000000  0  9G16G15G10G20G21G13G27G24G29
 130606097.055 6 101770982.63043  24853514.012    24853512.484
  24853514.557          37.750          18.5004
 111187691.388 8  86639759.320 8  21158313.321    21158313.281    21158314.492
  21158314.368          50.750          50.500
 116970272.891 7  91145668.172 8  22258701.850    22258701.933    22258705.535
  22258706.096          46.250          50.250
 107179693.074 8  83516643.79347  20395616.310    20395615.650
  20395617.067          48.750          45.7504
 109587808.868 7  85393101.23447  20853865.897    20853865.048
  20853866.075          47.250          46.0004
 122666216.810 6  95584069.05644  23342604.219    23342604.269
  23342605.306          41.750          29.5004
 121269148.681 7  94495441.726 7  23076751.769    23076751.455    23076755.418
  23076755.111          43.500          46.000
 127397930.622 6                  24243019.545
                        36.250
 124344531.626 6  96891845.377 7  23661976.979    23661976.501    23661978.956
  23661979.153          41.750          42.750
 20  1  2  0 55 30.0000000  0  9G16G15G10G24G20G21G13G27G29
 130672995.587 6 101823111.33443  24866244.159    24866243.123
  24866246.327          39.000          20.5004
 111240228.913 8  86680697.656 8  21168310.552    21168310.905    21168311.999
  21168311.699          50.250          50.000
 116903129.891 7  91093348.942 8  22245924.903    22245925.096    22245928.509
  22245929.262          47.250          50.250
 127310200.378 6  99202752.967 6  24226324.441    24226325.492    24226329.703
  24226328.668          37.500          36.250
 107149207.558 8  83492888.85647  20389815.169    20389814.365
  20389815.819          49.750          46.0004
 109581038.623 7  85387825.70847  20852577.441    20852576.798
  20852577.804          46.250          46.0004
 122751484.566 7  95650511.43344  23358830.471    23358830.026
  23358831.075          42.250          29.7504
 121200455.561 7  94441914.625 7  23063680.123    23063679.678    23063683.460
  23063683.563          43.500          46.000
 124458776.939 7  96980867.712 7  23683717.058    23683717.141    23683719.890
  23683718.774          42.000          42.000
 20  1  2  0 56  0.0000000  0  9G16G15G10G24G20G21G13G27G29
 130740192.515 6 101875472.56343  24879030.503    24879030.025
  24879031.896          38.000          19.0004
 111293306.619 8  86722056.907 8  21178410.980    21178411.043    21178412.493
  21178412.079          50.500          50.000
 116836209.028 7  91041202.829 8  22233190.018    22233190.544    22233194.214
  22233194.702          46.250          50.750
 127222597.791 6  99134491.246 6  24209654.020    24209654.507    24209658.883
  24209660.183          36.250          41.750
 107119033.139 8  83469376.32747  20384073.161    20384072.436
  20384073.760          49.750          46.0004
 109574572.761 7  85382787.36747  20851346.999    20851346.272
  20851347.355          46.500          46.0004
 122837130.111 6  95717248.22444  23375127.487    23375127.882
  23375128.772          41.500          29.2504
 121132223.708 6  94388746.946 7  23050695.369    23050695.602    23050699.385
  23050698.952          41.750          46.000
 124573150.837 6  97069990.255 6  23705481.841    23705481.412    23705482.973
  23705483.390          41.250          41.250
 20  1  2  0 56 30.0000000  0  9G16G15G10G24G20G21G13G27G29
 130807686.325 6 101928065.13743  24891875.101    24891874.628
  24891877.052          37.750          19.7504
 111346924.195 8  86763836.833 8  21188614.046    21188614.228    21188615.674
  21188615.271          50.500          50.000
 116769512.484 7  90989231.505 8  22220498.235    22220498.380    22220502.043
  22220502.360          46.750          50.250
 127135130.101 6  99066334.614 7  24193010.991    24193010.903    24193014.339
  24193015.103          38.250          42.250
 107089172.389 8  83446108.21547  20378390.861    20378390.061
  20378391.589          49.000          45.7504
 109568414.007 7  85377988.32847  20850175.006    20850174.313
  20850175.454          47.250          46.0004
 122923152.316 6  95784278.51744  23391496.636    23391496.788
  23391497.742          40.250          28.7504
 121064457.333 7  94335941.976 7  23037799.999    23037800.198    23037803.571
  23037803.642          43.000          45.750
 124687652.181 7  97159212.087 6  23727271.441    23727270.846    23727272.312
  23727273.193          42.750          41.750
 20  1  2  0 57  0.0000000  0  9G16G15G10G24G20G21G13G27G29
 130875473.694 6 101980886.47842  24904773.533    24904772.917
  24904775.146          37.250          17.0004
 111401079.258 8  86806035.590 8  21198919.569    21198919.662    21198920.988
  21198920.590          50.250          50.250
 116703040.236 7  90937434.955 8  22207849.099    22207849.230    22207852.586
  22207853.092          47.000          50.250
 127047800.018 6  98998285.257 7  24176391.588    24176392.432    24176396.650
  24176396.491          36.750          42.000
 107059624.534 8  83423083.90947  20372767.737    20372767.204
  20372768.802          49.250          45.7504
 109562563.148 7  85373429.21247  20849061.426    20849060.947
  20849062.123          46.500          46.0004
 123009548.237 6  95851600.00744  23407938.122    23407937.525
  23407938.215          39.750          28.0004
 120997158.380 7  94283501.221 7  23024993.692    23024993.305    23024997.438
  23024997.359          43.250          46.000
 124802277.738 6  97248530.696 7  23749082.692    23749083.080    23749085.673
  23749084.919          41.250          42.000
 20  1  2  0 57 30.0000000  0  9G16G15G10G24G20G21G13G27G29
 130943550.880 6 102033933.61242  24917729.405    24917729.325
  24917729.605          38.500          17.0004
 111455769.422 8  86848651.306 8  21209326.557    21209326.892    21209328.106
  21209327.582          50.250          50.250
 116636792.550 7  90885813.388 8  22195242.683    22195242.809    22195246.159
  22195246.766          47.000          50.500
 126960610.924 6  98930345.678 6  24159800.235    24159800.387    24159803.842
  24159804.761          36.500          41.750
 107030389.734 8  83400303.55947  20367204.857    20367204.081
  20367205.537          49.500          45.7504
 109557020.838 7  85369110.52147  20848006.702    20848006.280
  20848007.421          47.250          46.0004
 123096315.278 6  95919210.67844  23424449.182    23424448.599
  23424449.660          39.750          27.2504
 120930329.187 7  94231426.519 7  23012276.491    23012276.197    23012279.978
  23012280.336          44.000          46.250
 124917025.171 6  97337944.310 7  23770919.063    23770919.125    23770920.932
  23770920.793          41.500          42.000
 20  1  2  0 58  0.0000000  0  9G16G15G10G24G20G21G13G27G29
 131011914.647 6 102087204.08542  24930738.673    24930737.853
  24930738.367          38.000          15.5004
 111510991.155 8  86891681.229 8  21219835.013    21219835.156    21219836.434
  21219836.129          50.000          50.250
 116570768.333 7  90834365.946 8  22182678.798    22182678.947    22182682.188
  22182682.514          47.750          50.500
 126873564.784 6  98862517.584 7  24143237.202    24143236.339    24143240.595
  24143240.112          38.500          42.000
 107001466.585 8  83377766.05147  20361700.921    20361700.166
  20361701.622          49.250          45.7504
 109551786.894 7  85365032.11847  20847011.156    20847010.391
  20847011.394          47.000          46.0004
 123183449.237 6  95987107.26144  23441030.025    23441029.898
  23441031.314          39.750          27.7504
 120863970.571 7  94179718.499 7  22999649.039    22999648.833    22999652.676
  22999652.564          43.500          46.500
 125031890.474 6  97427449.740 7  23792776.810    23792777.006    23792779.150
  23792778.742          41.750          42.250
 20  1  2  0 58 30.0000000  0  8G15G10G20G21G13G27G24G29
 111566744.399 8  86935125.316 8  21230444.485    21230444.530    21230445.980
  21230445.784          50.750          50.250
 116504969.822 7  90783094.383 8  22170157.332    22170157.749    22170161.075
  22170161.297          47.250          50.250
 106972857.337 8  83355473.14347  20356256.778    20356256.169
  20356257.491          49.250          45.7504
 109546864.313 7  85361196.32947  20846074.113    20846073.580
  20846074.711          46.500          46.0004
 123270949.515 6  96055289.30144  23457680.470    23457680.203
  23457681.661          39.750          28.0004
 120798086.823 7  94128380.511 7  22987112.027    22987111.502    22987115.383
  22987115.147          44.250          46.500
 126786661.488 6                  24126700.863
                        37.000
 125146872.963 7  97517046.492 7  23814657.374    23814657.302    23814659.402
  23814659.453          42.000          42.500
 20  1  2  0 59  0.0000000  0  8G15G24G10G20G21G13G27G29
 111623025.957 8  86978981.075 8  21241154.594    21241154.671    21241156.258
  21241155.903          50.500          50.250
 126699914.844 6                  24110190.034
                        36.250
 116439396.674 7  90731998.426 8  22157679.299    22157679.376    22157682.931
  22157683.444          47.750          50.250
 106944561.136 8  83333424.16147  20350872.129    20350871.340
  20350872.806          49.250          45.7504
 109542253.540 7  85357603.51947  20845196.722    20845196.207
  20845197.219          46.750          46.0004
 123358812.252 6  96123753.75044  23474400.918    23474400.567
  23474401.101          40.000          28.0004
 120732679.530 7  94077413.791 7  22974665.230    22974665.032    22974668.753
  22974668.546          44.000          46.750
 125261969.130 6  97606731.830 7  23836559.860    23836559.013    23836561.375
  23836561.362          41.500          42.500
 20  1  2  0 59 30.0000000  0  7G15G10G20G21G13G27G29
 111679832.795 8  87023246.141 8  21251964.558    21251964.620    21251966.211
  21251965.540          50.250          50.000
 116374048.266 7  90681077.603 8  22145243.768    22145244.100    22145247.622
  22145247.824          47.750          50.250
 106916577.254 8  83311618.55047  20345546.733    20345546.165
  20345547.731          49.250          45.7504
 109537954.792 7  85354253.83847  20844378.741    20844378.059
  20844379.273          46.500          46.0004
 123447034.176 6  96192498.11244  23491188.436    23491188.564
  23491189.286          40.750          28.5004
 120667750.023 7  94026819.364 7  22962309.607    22962309.811    22962312.999
  22962312.888          43.500          46.750
 125377175.340 6  97696502.901 7  23858482.538    23858482.638    23858484.164
  23858484.561          40.750          42.500
 20  1  2  1  0  0.0000000  0  8G15G24G10G20G21G13G27G29
 111737162.822 8  87067918.890 8  21262874.034    21262874.289    21262875.450
  21262875.269          50.250          49.500
 126526880.097 6                  24077264.819
                        37.250
 116308924.993 7  90630332.192 8  22132851.269    22132851.415    22132854.934
  22132855.250          47.750          50.250
 106888905.953 8  83290056.50847  20340281.317    20340280.517
  20340281.995          49.750          45.7504
 109533968.738 7  85351147.81647  20843620.269    20843619.623
  20843620.664          46.750          46.2504
 123535612.805 6  96261520.42344  23508043.577    23508043.685
  23508045.475          39.750          27.7504
 120603300.699 7  93976599.098 7  22950045.328    22950045.600    22950048.716
  22950048.643          43.750          46.750
 125492489.016 6  97786357.685 7  23880425.841    23880425.593    23880428.098
  23880427.856          41.000          42.750
 20  1  2  1  0 30.0000000  0  7G15G10G20G21G13G27G29
 111795014.548 8  87112998.170 8  21273882.999    21273882.981    21273883.917
  21273884.001          50.000          49.500
 116244027.659 8  90579762.850 8  22120502.023    22120502.104    22120505.368
  22120505.952          48.250          50.500
 106861547.425 8  83268738.17347  20335074.999    20335074.334
  20335075.918          49.500          45.7504
 109530297.166 7  85348286.84547  20842921.565    20842920.802
  20842922.105          47.000          45.7504
 123624545.638 6  96330818.72844  23524966.957    23524967.848
  23524969.536          39.000          27.5004
 120539334.283 7  93926755.130 7  22937872.964    22937873.108    22937875.965
  22937876.140          44.000          46.250
 125607908.150 6  97876294.678 6  23902389.348    23902389.585    23902390.970
  23902391.329          41.000          41.750
 20  1  2  1  1  0.0000000  0  8G24G15G10G20G21G13G27G29
 126354491.180 6  98458041.456 6  24044459.967    24044460.620    24044463.450
  24044464.014          37.500          38.750
 111853385.902 8  87158482.339 8  21284990.444    21284990.635    21284991.658
  21284991.677          49.750          49.750
 116179357.156 7  90529370.260 8  22108195.354    22108195.527    22108199.054
  22108199.364          47.500          50.750
 106834502.649 8  83247664.32147  20329928.567    20329927.957
  20329929.513          49.500          46.0004
 109526941.835 7  85345672.29247  20842283.173    20842282.446
  20842283.522          47.000          46.0004
 123713830.587 6  96400391.40644  23541958.021    23541957.456
  23541959.309          39.250          27.7504
 120475853.560 7  93877289.624 7  22925793.004    22925792.486    22925795.583
  22925796.009          42.500          46.500
 125723430.440 7  97966312.067 6  23924372.497    23924372.792    23924374.557
  23924373.974          42.000          41.250
 20  1  2  1  1 30.0000000  0  7G15G10G20G21G13G27G29
 111912273.832 8  87204369.036 8  21296196.371    21296196.646    21296197.713
  21296197.885          49.500          49.750
 116114912.929 8  90479153.986 8  22095932.178    22095932.125    22095935.155
  22095936.092          48.000          50.500
 106807770.768 8  83226834.29347  20324841.716    20324840.974
  20324842.560          49.750          46.0004
 109523902.912 7  85343304.30047  20841704.690    20841704.170
  20841705.298          46.750          46.0004
 123803464.133 6  96470235.70344  23559014.789    23559014.331
  23559016.037          39.500          27.0004
 120412859.964 7  93828203.707 7  22913805.766    22913805.743    22913808.749
  22913808.921          43.250          46.500
 125839052.527 7  98056407.196 6  23946374.782    23946374.904    23946377.041
  23946376.998          42.250          41.250
 20  1  2  1  2  0.0000000  0  7G15G10G20G21G13G27G29
 111971675.656 8  87250656.173 8  21307500.382    21307500.508    21307501.704
  21307501.578          50.250          49.750
 116050694.652 8  90429113.772 8  22083711.840    22083711.843    22083715.035
  22083715.696          48.500          50.750
 106781351.339 8  83206247.73047  20319814.288    20319813.542
  20319815.026          49.250          46.0004
 109521180.686 7  85341183.07447  20841187.046    20841186.168
  20841187.219          46.750          46.0004
 123893442.980 6  96540349.10244  23576136.982    23576137.230
  23576137.975          40.000          26.5004
 120350355.019 7  93779498.553 7  22901911.293    22901911.272    22901914.417
  22901914.760          44.250          46.750
 125954771.136 7  98146577.535 6  23968395.332    23968396.023    23968397.344
  23968397.222          42.000          40.750
 20  1  2  1  2 30.0000000  0  7G15G10G20G21G13G27G29
 112031589.355 8  87297342.168 8  21318901.591    21318901.718    21318902.929
  21318902.743          49.750          49.750
 115986703.206 7  90379250.326 8  22071534.776    22071534.884    22071538.379
  22071538.492          47.500          50.750
 106755244.916 8  83185905.05747  20314846.495    20314845.703
  20314847.165          49.750          46.0004
 109518776.930 7  85339310.00847  20840729.289    20840728.695
  20840729.853          47.250          46.0004
 123983765.073 6  96610729.94244  23593324.831    23593324.223
  23593326.018          38.750          26.0004
 120288341.542 7  93731176.366 7  22890110.493    22890110.347    22890113.800
  22890113.520          42.500          47.000
 126070584.503 7  98236821.741 6  23990433.998    23990434.382    23990435.566
  23990435.545          42.250          40.500
 20  1  2  1  3  0.0000000  0  7G15G10G20G21G13G27G29
 112092012.761 8  87344425.343 8  21330399.595    21330399.744    21330400.962
  21330400.905          49.750          49.500
 115922939.000 8  90329563.917 8  22059400.641    22059400.861    22059404.417
  22059404.533          48.500          50.750
 106729451.674 8  83165806.43047  20309938.047    20309937.321
  20309938.994          50.000          46.2504
 109516692.698 7  85337685.93447  20840332.742    20840332.131
  20840333.268          46.000          46.0004
 124074427.717 6  96681376.17444  23610577.769    23610577.331
  23610578.239          39.750          27.2504
 120226821.822 7  93683238.919 7  22878403.583    22878404.027    22878407.383
  22878407.258          43.750          47.000
 126186489.421 7  98327137.265 6  24012490.544    24012490.572    24012491.712
  24012490.825          42.750          40.250
 20  1  2  1  3 30.0000000  0  7G15G10G20G21G13G27G29
 112152944.000 8  87391904.242 8  21341994.460    21341994.623    21341996.053
  21341995.695          49.750          49.500
 115859402.785 8  90280055.201 8  22047310.375    22047310.448    22047313.962
  22047314.373          48.000          51.250
 106703972.172 8  83145952.27647  20305089.711    20305088.758
  20305090.266          50.250          46.0004
 109514929.444 7  85336311.97147  20839996.882    20839996.400
  20839997.731          45.500          45.7504
 124165428.719 6  96752286.06044  23627894.354    23627894.313
  23627895.086          39.750          27.0004
 120165798.493 7  93635688.263 7  22866791.291    22866791.252    22866795.047
  22866794.926          42.750          47.500
 126302484.030 7  98417522.684 6  24034563.250    24034562.923    24034565.126
  24034564.999          42.000          40.250
 20  1  2  1  4  0.0000000  0  7G15G10G20G21G13G27G29
 112214380.158 8  87439776.567 8  21353685.345    21353685.594    21353686.688
  21353686.544          50.000          49.500
 115796093.867 8  90230723.583 8  22035262.970    22035263.048    22035266.344
  22035266.917          48.500          51.000
 106678805.484 8  83126341.87447  20300300.341    20300299.764
  20300301.208          50.000          46.2504
 109513487.245 7  85335188.17347  20839722.235    20839721.915
  20839723.324          46.250          45.7504
 124256764.133 6  96823456.50044  23645274.942    23645274.937
  23645275.458          38.750          26.0004
 120105272.702 7  93588525.294 7  22855273.781    22855273.579    22855276.784
  22855277.106          44.500          46.750
 126418564.988 7  98507975.373 6  24056652.970    24056652.891    24056654.486
  24056654.954          43.000          41.000
 20  1  2  1  4 30.0000000  0  8G15G10G24G20G21G13G27G29
 112276318.226 8  87488039.995 8  21365471.773    21365471.884    21365473.411
  21365473.260          50.000          50.000
 115733012.191 8  90181569.030 8  22023258.747    22023259.021    22023262.112
  22023262.617          48.500          51.000
 125756528.124 6  97992098.509 6  23930670.822    23930670.516    23930675.295
  23930674.942          37.250          41.750
 106653951.206 8  83106974.91247  20295570.629    20295570.095
  20295571.567          50.000          46.0004
 109512366.402 7  85334314.78447  20839509.314    20839508.733
  20839509.973          46.750          46.0004
 124348431.326 6  96894885.46244  23662719.193    23662718.508
  23662719.083          38.750          25.5004
 120045246.241 7  93541751.439 7  22843850.767    22843851.211    22843854.071
  22843854.534          44.000          46.750
 126534729.372 7  98598493.110 6  24078757.840    24078758.610    24078760.600
  24078759.318          42.750          41.250
 20  1  2  1  5  0.0000000  0  8G15G10G24G20G21G13G27G29
 112338757.437 8  87536693.926 8  21377353.668    21377353.860    21377354.999
  21377354.854          50.250          49.250
 115670159.543 8  90132592.941 8  22011298.594    22011298.624    22011302.002
  22011302.616          48.500          51.500
 125671835.777 6  97926104.490 6  23914554.707    23914554.811    23914558.762
  23914559.269          37.500          41.750
 106629411.010 8  83087852.67847  20290901.075    20290900.332
  20290901.741          49.750          46.0004
 109511569.598 7  85333693.89947  20839357.763    20839357.157
  20839358.443          46.500          46.0004
 124440428.657 6  96966571.69744  23680225.676    23680225.172
  23680226.347          39.250          26.7504
 119985722.770 7  93495369.502 7  22832524.114    22832523.961    22832527.212
  22832527.581          43.750          47.000
 126650975.587 6  98689074.554 6  24100878.779    24100879.258    24100880.593
  24100880.406          41.750          40.750
 20  1  2  1  5 30.0000000  0  8G15G10G24G20G21G13G27G29
 112401692.758 8  87585734.434 8  21389329.998    21389329.838    21389331.236
  21389331.058          50.250          49.250
 115607533.462 8  90083793.409 8  21999380.932    21999381.063    21999384.734
  21999385.035          48.500          51.250
 125587334.242 6  97860259.118 7  23898474.872    23898475.237    23898478.765
  23898478.635          38.750          42.250
 106605182.264 8  83068973.13747  20286290.352    20286289.726
  20286291.229          49.250          46.0004
 109511095.360 7  85333324.35047  20839267.817    20839266.825
  20839268.112          46.250          46.0004
 124532750.743 6  97038510.98944  23697793.705    23697793.551
  23697794.570          39.500          26.5004
 119926701.615 7  93449378.986 7  22821292.619    22821292.626    22821296.466
  22821296.153          44.000          47.500
 126767298.383 6  98779715.666 6  24123013.976    24123013.912    24123016.032
  24123015.809          41.750          41.250
 20  1  2  1  6  0.0000000  0  9G15G32G10G24G20G21G13G27G29
 112465124.318 8  87635161.629 8  21401400.289    21401400.503    21401401.794
  21401401.563          50.000          49.250
 130338645.058 6 101562582.659 7  24802619.504    24802620.813    24802624.193
  24802624.441          37.750          42.500
 115545136.884 8  90035172.704 8  21987507.443    21987507.391    21987511.221
  21987511.582          48.500          51.500
 125503029.573 6  97794567.181 6  23882432.206    23882432.752    23882435.486
  23882435.684          38.250          41.500
 106581267.706 8  83050338.41947  20281739.459    20281738.905
  20281740.433          49.500          46.2504
 109510946.999 7  85333208.73447  20839239.553    20839238.804
  20839239.911          45.500          45.7504
 124625397.607 6  97110703.32944  23715423.605    23715423.622
  23715424.209          39.250          26.0004
 119868187.576 7  93403783.627 7  22810157.808    22810157.449    22810161.291
  22810161.044          43.750          47.000
 126883697.975 7  98870416.650 6  24145164.785    24145164.172    24145166.077
  24145166.036          42.750          40.250
 20  1  2  1  6 30.0000000  0  9G15G32G10G24G20G21G13G27G29
 112529049.270 8  87684973.272 8  21413564.838    21413564.962    21413566.201
  21413566.234          50.500          49.250
 130226330.599 6 101475064.912 6  24781246.959    24781248.076    24781251.145
  24781251.900          36.750          39.500
 115482969.742 8  89986730.782 8  21975677.467    21975677.377    21975680.711
  21975681.293          48.750          51.000
 125418923.917 6  97729030.336 7  23866427.557    23866426.977    23866432.049
  23866431.150          38.750          42.250
 106557666.825 8  83031948.11747  20277248.765    20277247.982
  20277249.288          49.500          46.2504
 109511125.390 7  85333347.72847  20839273.477    20839272.637
  20839273.863          47.500          46.0004
 124718365.815 6  97183146.07144  23733114.098    23733114.830
  23733115.334          38.250          24.7504
 119810182.328 7  93358584.726 7  22799119.992    22799119.719    22799122.892
  22799122.790          45.250          47.500
 127000171.165 6  98961174.974 6  24167328.624    24167328.589    24167330.097
  24167330.262          41.750          39.750
 20  1  2  1  7  0.0000000  0  9G15G10G24G20G21G13G27G32G29
 112593463.879 8  87735166.478 8  21425822.671    21425822.779    21425824.082
  21425823.739          50.500          49.000
 115421031.020 8  89938466.845 8  21963890.870    21963890.902    21963894.242
  21963894.631          48.750          51.250
 125335019.990 6  97663650.655 7  23850460.629    23850461.361    23850465.808
  23850465.341          38.000          43.250
 106534378.573 8  83013801.42547  20272817.014    20272816.293
  20272817.788          49.250          46.0004
 109511630.343 8  85333741.19347  20839369.292    20839368.682
  20839370.048          48.000          46.0004
 124811652.018 6  97255836.61144  23750866.457    23750867.111
  23750867.470          39.250          25.5004
 119752686.655 7  93313782.891 7  22788178.807    22788178.687    22788181.941
  22788182.024          44.750          47.500
 130114066.965 6 101387581.421 5  24759882.741    24759884.813    24759888.399
  24759886.953          37.500          35.750
 127116713.778 6  99051987.397 6  24189505.247    24189505.365    24189507.046
  24189507.845          41.500          40.500
 20  1  2  1  7 30.0000000  0  9G15G10G24G20G21G13G27G32G29
 112658367.485 8  87785740.717 8  21438173.399    21438173.596    21438174.835
  21438174.513          50.250          49.000
 115359322.212 8  89890382.067 8  21952147.570    21952147.834    21952151.494
  21952151.796          48.500          51.000
 125251322.299 6  97598431.679 7  23834534.288    23834534.289    23834537.574
  23834538.203          38.000          42.750
 106511404.150 8  82995899.26947  20268444.967    20268444.336
  20268445.809          49.500          46.2504
 109512463.628 8  85334390.49647  20839528.077    20839527.255
  20839528.652          48.250          46.0004
 124905254.318 6  97328773.46144  23768678.694    23768679.157
  23768679.075          40.000          25.0004
 119695703.878 7  93269380.730 7  22777335.034    22777335.395    22777339.038
  22777339.003          44.500          47.250
 130001851.575 6 101300140.823 6  24738529.220    24738530.214    24738532.718
  24738532.382          38.250          38.250
 127233324.826 7  99142853.146 6  24211695.490    24211695.832    24211697.894
  24211697.741          42.500          39.750
 20  1  2  1  8  0.0000000  0  9G15G10G24G20G21G13G27G32G29
 112723755.676 8  87836692.563 8  21450616.496    21450616.566    21450617.887
  21450617.554          50.500          49.500
 115297842.074 8  89842475.469 8  21940448.672    21940448.867    21940452.094
  21940452.658          48.750          51.250
 125167832.140 6  97533374.469 7  23818645.765    23818646.708    23818649.765
  23818649.688          37.500          42.250
 106488742.035 8  82978240.47647  20264132.752    20264132.045
  20264133.283          49.500          46.2504
 109513625.033 7  85335295.47047  20839749.275    20839748.374
  20839749.464          47.750          46.2504
 124999168.515 6  97401953.35844  23786550.471    23786550.497
  23786550.422          40.000          25.5004
 119639234.432 7  93225378.559 7  22766589.590    22766589.305    22766592.832
  22766592.558          45.000          47.000
 129889688.074 6 101212740.674 6  24717186.041    24717185.510    24717188.480
  24717189.442          39.000          38.250
 127350000.322 7  99233769.154 6  24233898.725    24233899.053    24233900.215
  24233900.375          43.000          40.000
 20  1  2  1  8 30.0000000  0  9G15G10G24G20G21G13G27G32G29
 112789627.573 8  87888021.318 8  21463151.595    21463151.788    21463152.914
  21463152.536          50.500          49.250
 115236592.327 8  89794748.396 8  21928793.159    21928793.293    21928796.608
  21928797.324          48.500          51.250
 125084554.619 6  97468482.904 7  23802798.889    23802799.198    23802803.624
  23802803.342          37.000          43.500
 106466393.936 8  82960826.36947  20259879.923    20259879.287
  20259880.708          49.000          46.0004
 109515116.858 7  85336457.92547  20840032.951    20840032.411
  20840033.569          47.250          46.2504
 125093393.028 6  97475375.05244  23804480.780    23804480.513
  23804481.154          39.500          25.2504
 119583281.852 7  93181779.139 7  22755942.038    22755941.886    22755945.277
  22755945.161          44.750          47.250
 129777580.054 6 101125383.760 6  24695852.288    24695852.899    24695855.706
  24695856.243          39.000          38.750
 127466739.051 7  99324734.372 6  24256113.175    24256112.620    24256115.372
  24256114.701          42.500          40.500
 20  1  2  1  9  0.0000000  0  8G15G10G20G21G13G27G32G29
 112855981.195 8  87939725.438 8  21475778.199    21475778.189    21475779.498
  21475779.308          50.500          48.750
 115175573.575 8  89747201.315 8  21917181.863    21917181.871    21917185.212
  21917185.946          48.250          51.250
 106444360.073 8  82943657.12447  20255686.966    20255686.354
  20255687.680          48.500          46.2504
 109516940.474 7  85337878.91647  20840379.971    20840379.366
  20840380.559          47.750          46.2504
 125187925.646 6  97549036.81144  23822469.045    23822469.521
  23822469.987          40.000          25.7504
 119527848.441 7  93138584.268 7  22745393.457    22745393.321    22745396.728
  22745396.652          44.750          47.500
 129665529.972 6 101038072.004 6  24674530.955    24674530.594    24674533.926
  24674534.224          38.250          39.000
 127583538.311 6  99415746.760 6  24278339.027    24278339.374    24278340.655
  24278340.775          41.500          39.750
 20  1  2  1  9 30.0000000  0  8G15G10G20G21G13G27G32G29
 112922813.949 8  87991802.908 8  21488496.004    21488496.138    21488496.731
  21488497.118          50.500          48.750
 115114786.132 8  89699834.490 8  21905614.257    21905614.159    21905617.925
  21905618.313          48.750          51.500
 106422640.467 8  82926732.75447  20251554.061    20251553.118
  20251554.724          48.750          46.0004
 109519096.873 8  85339559.22547  20840790.344    20840789.687
  20840790.853          48.500          46.2504
 125282763.898 6  97622936.76344  23840516.403    23840516.098
  23840516.739          39.750          24.5004
 119472936.204 7  93095795.508 8  22734944.498    22734944.006    22734947.757
  22734947.672          45.500          48.000
 129553540.011 6 100950807.068 6  24653218.599    24653218.478    24653221.761
  24653220.866          37.000          38.750
 127700395.730 7  99506804.504 6  24300576.764    24300577.400    24300577.573
  24300578.098          42.500          39.000
 20  1  2  1 10  0.0000000  0  8G15G10G20G21G13G27G32G29
 112990121.056 8  88044249.996 8  21501304.035    21501303.979    21501305.677
  21501305.378          50.250          49.000
 115054227.872 8  89652646.232 8  21894090.356    21894090.542    21894093.668
  21894094.281          49.250          51.000
 106401233.043 8  82910051.65047  20247480.149    20247479.513
  20247481.047          49.000          46.2504
 109521584.556 8  85341497.66847  20841263.861    20841263.013
  20841264.269          48.750          46.2504
 125377902.285 6  97697070.57743  23858620.739    23858620.336
  23858621.252          39.750          23.7504
 119418544.757 7  93053412.556 8  22724593.710    22724593.714    22724597.195
  22724597.264          45.000          48.000
 129441610.159 6 100863589.014 6  24631919.816    24631920.422    24631922.933
  24631923.153          38.000          39.750
 127817306.318 6  99597903.658 6  24322823.918    24322824.397    24322825.866
  24322825.355          40.250          38.000
 20  1  2  1 10 30.0000000  0  8G15G10G20G21G13G27G32G29
 113057901.055 8  88097065.590 8  21514202.193    21514202.306    21514203.465
  21514203.358          50.000          49.000
 114993899.982 8  89605637.493 8  21882610.495    21882610.573    21882613.937
  21882614.351          49.250          51.500
 106380138.636 8  82893614.44847  20243465.722    20243465.465
  20243466.848          49.000          46.0004
 109524405.326 8  85343695.66247  20841800.614    20841799.793
  20841801.148          48.000          46.2504
 125473339.228 6  97771437.02043  23876782.322    23876781.879
  23876782.138          38.750          23.0004
 119364676.969 7  93011437.650 8  22714343.272    22714343.199    22714346.294
  22714346.419          45.750          48.000
 129329743.377 6 100776420.118 6  24610632.171    24610631.276    24610636.037
  24610635.855          37.000          40.000
 127934268.498 6  99689042.987 6  24345080.947    24345081.093    24345081.646
  24345081.403          40.000          37.250
 20  1  2  1 11  0.0000000  0  8G15G10G20G21G13G27G32G29
 113126152.018 8  88150248.154 8  21527190.001    21527190.143    21527191.196
  21527191.045          50.250          49.250
 114933803.298 8  89558808.910 8  21871174.585    21871174.860    21871178.008
  21871178.265          49.500          51.750
 106359357.515 8  82877421.37347  20239511.634    20239510.856
  20239512.319          48.750          46.2504
 109527560.800 8  85346154.46347  20842400.883    20842400.306
  20842401.500          49.250          46.5004
 125569072.651 6  97846034.47143  23894999.123    23894998.198
  23895000.054          39.500          23.2504
 119311335.340 7  92969872.740 8  22704192.264    22704191.957    22704195.842
  22704195.969          45.000          48.000
 129217942.388 6 100689302.459 6  24589356.420    24589357.152    24589360.321
  24589360.569          37.500          40.750
 128051280.179 6  99780220.947 6  24367347.593    24367347.558    24367348.666
  24367348.928          41.750          37.250
 20  1  2  1 11 30.0000000  0  9G24G15G10G20G21G13G27G32G29
 124589527.304 6                  23708598.822
                        36.250
 113194870.121 8  88203794.733 8  21540266.468    21540266.483    21540267.881
  21540267.726          50.000          48.750
 114873936.790 8  89512159.693 8  21859781.912    21859782.316    21859785.582
  21859786.011          49.250          51.750
 106338888.753 8  82861471.68947  20235616.536    20235615.796
  20235617.224          49.000          46.2504
 109531050.512 8  85348873.70947  20843064.981    20843064.518
  20843065.654          49.250          46.2504
 125665098.380 6  97920859.72844  23913271.480    23913272.337
  23913273.268          39.250          24.5004
 119258520.479 7  92928718.302 7  22694141.981    22694141.941    22694145.767
  22694145.521          45.250          47.750
 129106208.098 6 100602236.786 6  24568093.717    24568093.518    24568097.739
  24568097.835          37.500          41.000
 128168337.254 7  99871434.278 6  24389623.389    24389623.470    24389624.173
  24389624.166          42.250          37.500
 20  1  2  1 12  0.0000000  0  9G24G15G10G20G21G13G27G32G29
 124507825.231 6  97019081.238 7  23693051.308    23693052.165    23693056.233
  23693055.718          38.000          44.500
 113264053.676 8  88257703.995 8  21553431.672    21553431.751    21553433.056
  21553433.099          50.250          48.750
 114814301.544 8  89465690.663 8  21848434.211    21848434.281    21848437.441
  21848437.759          49.500          51.500
 106318733.498 8  82845766.29447  20231781.202    20231780.395
  20231781.827          49.000          46.2504
 109534876.335 8  85351854.85547  20843793.162    20843792.540
  20843793.583          49.750          46.2504
 125761414.544 6  97995911.28344  23931600.682    23931600.154
  23931601.207          39.250          24.5004
 119206235.173 7  92887976.504 8  22684192.608    22684192.383    22684195.639
  22684196.049          45.250          48.000
 128994543.541 6 100515225.456 6  24546845.372    24546845.826    24546849.842
  24546849.568          37.750          41.500
 128285438.062 7  99962681.654 6  24411906.433    24411907.365    24411908.260
  24411908.415          42.250          38.000
 20  1  2  1 12 30.0000000  0  9G24G15G10G20G21G13G27G32G29
 124426360.451 6  96955602.163 6  23677549.847    23677549.950    23677552.592
  23677552.981          39.250          41.750
 113333700.187 8  88311974.016 8  21566685.090    21566685.168    21566685.922
  21566686.280          50.000          48.750
 114754897.656 8  89419401.921 8  21837129.748    21837129.895    21837133.407
  21837133.899          49.250          52.000
 106298891.130 8  82830304.71147  20228005.323    20228004.452
  20228005.893          49.000          46.0004
 109539039.219 8  85355098.65147  20844585.543    20844584.582
  20844585.690          48.750          46.2504
 125858018.355 6  98071186.98344  23949984.121    23949983.062
  23949984.808          39.750          24.5004
 119154481.087 7  92847648.644 8  22674344.217    22674343.859    22674347.651
  22674347.668          45.000          48.250
 128882950.673 6 100428269.972 6  24525609.475    24525610.458    24525614.134
  24525613.991          36.750          41.500
 128402580.011 7 100053961.091 6  24434198.205    24434197.767    24434200.026
  24434199.661          43.000          37.250
 20  1  2  1 13  0.0000000  0  9G24G15G10G20G21G13G27G32G29
 124345138.664 6  96892312.452 6  23662092.129    23662092.541    23662095.957
  23662097.088          37.750          41.500
 113403808.770 8  88366604.079 8  21580026.318    21580026.576    21580027.491
  21580027.426          50.500          48.750
 114695727.078 8  89373294.992 8  21825870.170    21825870.292    21825873.553
  21825874.073          50.000          51.500
 106279363.538 8  82815088.40247  20224289.209    20224288.605
  20224289.912          48.750          46.2504
 109543541.543 8  85358606.94947  20845442.139    20845441.373
  20845442.565          49.250          46.0004
 125954908.464 6  98146685.75144  23968421.240    23968419.929
  23968422.555          38.500          24.5004
 119103261.807 7  92807737.510 8  22664597.479    22664597.109    22664600.884
  22664600.844          45.250          48.250
 128771433.466 6 100341373.472 6  24504388.483    24504389.543    24504393.128
  24504392.903          37.500          41.250
 128519762.259 7 100145271.955 6  24456497.200    24456497.268    24456498.343
  24456498.232          42.750          37.500
 20  1  2  1 13 30.0000000  0  9G24G15G10G20G21G13G27G32G29
 124264159.678 6  96829211.948 6  23646682.583    23646683.384    23646687.254
  23646687.728          38.500          41.750
 113474373.624 8  88421589.683 8  21593454.406    21593454.768    21593455.547
  21593455.288          50.500          48.500
 114636786.985 8  89327367.643 8  21814654.069    21814654.166    21814657.711
  21814658.122          49.500          51.500
 106260147.461 8  82800114.83347  20220632.774    20220631.864
  20220633.245          48.500          46.2504
 109548381.062 8  85362377.98947  20846363.090    20846362.324
  20846363.483          49.250          46.0004
 126052079.255 6  98222403.25843  23986911.592    23986911.317
  23986913.416          39.000          23.5004
 119052576.102 7  92768242.151 8  22654952.221    22654952.242    22654955.561
  22654955.388          45.000          48.250
 128659990.906 6 100254535.097 6  24483181.147    24483182.238    24483186.122
  24483185.828          38.750          41.000
 128636978.908 7 100236609.627 6  24478802.444    24478803.383    24478803.076
  24478803.608          42.250          37.750
 20  1  2  1 14  0.0000000  0  9G24G15G10G20G21G13G27G32G29
 124183429.742 6  96766305.495 7  23631320.011    23631320.409    23631324.940
  23631324.617          37.500          42.250
 113545395.196 8  88476931.161 8  21606969.286    21606969.241    21606970.217
  21606970.376          50.250          48.500
 114578080.686 8  89281622.492 8  21803482.882    21803482.919    21803486.508
  21803486.503          50.000          52.000
 106241246.650 8  82785386.92947  20217035.812    20217035.072
  20217036.632          48.750          46.2504
 109553561.856 8  85366414.96447  20847348.843    20847348.252
  20847349.448          49.750          46.2504
 126149531.069 6  98298339.73243  24005456.315    24005455.918
  24005458.240          38.500          23.5004
 119002428.906 7  92729166.403 8  22645409.452    22645409.443    22645412.935
  22645413.182          45.250          48.000
 128548628.277 6 100167759.018 6  24461990.888    24461990.714    24461994.648
  24461994.986          40.000          40.250
 128754230.565 6 100327974.506 6  24501113.715    24501114.354    24501115.525
  24501115.743          40.000          37.750
 20  1  2  1 14 30.0000000  0  9G24G15G10G20G21G13G27G32G29
 124102949.847 6  96703593.927 7  23616005.731    23616005.743    23616009.795
  23616009.262          37.750          42.250
 113616868.377 8  88532624.559 8  21620570.210    21620570.268    21620571.228
  21620571.060          50.000          48.500
 114519605.509 8  89236057.410 8  21792355.347    21792355.462    21792358.650
  21792359.117          50.250          51.750
 106222657.969 8  82770902.24447  20213498.555    20213497.857
  20213499.250          48.250          46.2504
 109559081.974 8  85370716.33947  20848399.354    20848398.714
  20848399.864          48.750          46.0004
 126247258.130 6  98374490.69543  24024052.782    24024053.209
  24024054.964          38.750          23.0004
 118952819.028 7  92690509.349 8  22635969.421    22635969.336    22635972.317
  22635972.813          45.750          48.000
 128437344.794 6 100081044.559 6  24440813.650    24440813.980    24440817.145
  24440817.771          39.500          39.250
 128871511.870 6 100419362.532 6  24523432.438    24523432.316    24523433.542
  24523433.863          39.000          38.500
 20  1  2  1 15  0.0000000  0  9G24G15G10G20G21G13G27G32G29
 124022723.203 6  96641079.641 7  23600739.672    23600739.366    23600742.985
  23600743.166          38.750          43.000
 113688791.084 8  88588668.221 8  21634256.702    21634256.706    21634257.936
  21634257.654          50.500          48.250
 114461362.268 8  89190673.091 8  21781271.757    21781272.002    21781275.205
  21781275.724          50.250          51.750
 106204381.862 8  82756661.12547  20210020.699    20210019.795
  20210021.382          48.750          46.2504
 109564942.937 8  85375283.31247  20849514.686    20849514.063
  20849515.244          49.000          46.2504
 126345258.493 6  98450854.60943  24042702.671    24042702.190
  24042703.655          39.750          23.5004
 118903748.878 7  92652272.868 8  22626631.679    22626631.220    22626634.629
  22626634.828          46.000          48.000
 128326143.242 6  99994393.966 6  24419652.742    24419653.353    24419656.087
  24419657.025          38.500          40.000
 128988820.464 6 100510771.787 6  24545756.279    24545755.445    24545757.494
  24545756.001          41.250          37.250
 20  1  2  1 15 30.0000000  0  9G24G15G10G20G21G13G27G32G29
 123942754.844 6  96578766.631 7  23585520.112    23585521.404    23585525.725
  23585526.250          38.000          43.750
 113761161.519 8  88645060.766 8  21648028.271    21648028.355    21648029.317
  21648029.195          50.250          48.000
 114403352.244 8  89145470.467 8  21770232.813    21770233.120    21770236.573
  21770236.910          50.250          52.250
 106186419.007 8  82742664.08847  20206602.470    20206601.622
  20206603.178          48.250          46.2504
 109571146.286 8  85380117.08347  20850694.978    20850694.472
  20850695.630          49.250          46.2504
 126443530.439 6  98527430.17943  24061402.231    24061402.616
  24061403.413          39.000          22.2504
 118855221.229 7  92614459.112 8  22617396.874    22617396.658    22617400.582
  22617400.453          45.750          48.500
 128215026.731 6  99907809.703 6  24398508.097    24398508.199    24398511.913
  24398512.264          38.750          41.500
 129106154.834 6 100602201.178 6  24568083.261    24568083.143    24568083.696
  24568083.831          38.750          36.750
 20  1  2  1 16  0.0000000  0  9G24G15G10G20G21G13G27G32G29
 123863046.407 6  96516656.183 7  23570353.315    23570353.238    23570358.389
  23570358.234          37.750          44.500
 113833976.735 8  88701799.903 8  21661884.670    21661884.647    21661886.164
  21661885.612          50.000          48.250
 114345574.781 8  89100449.078 8  21759238.441    21759238.319    21759241.498
  21759242.129          50.500          51.750
 106168769.268 8  82728911.04447  20203243.948    20203243.040
  20203244.732          48.500          46.2504
 109577692.178 8  85385217.76447  20851940.646    20851940.101
  20851941.363          49.250          46.2504
 126542070.116 6  98604214.32043  24080154.176    24080154.251
  24080154.539          38.750          22.7504
 118807236.995 7  92577068.804 8  22608266.157    22608265.789    22608269.104
  22608268.949          46.000          48.500
 128103996.624 6  99821292.729 6  24377379.916    24377380.429    24377383.808
  24377382.929          39.000          41.000
 129223511.570 6 100693647.946 6  24590416.606    24590416.702    24590416.733
  24590417.149          41.750          38.250
 20  1  2  1 16 30.0000000  0  9G24G15G10G20G21G13G27G32G29
 123783602.206 6  96454751.647 7  23555235.791    23555235.345    23555240.814
  23555240.822          38.500          45.000
 113907234.639 8  88758883.982 8  21675825.090    21675824.932    21675826.349
  21675826.022          50.250          48.250
 114288030.924 8  89055609.698 8  21748288.154    21748288.192    21748291.483
  21748291.932          50.750          52.000
 106151433.234 8  82715402.45347  20199944.912    20199944.110
  20199945.702          48.750          46.2504
 109584582.419 8  85390586.76847  20853251.556    20853251.365
  20853252.389          49.250          45.7504
 126640875.521 6  98681205.54443  24098955.439    24098956.779
  24098957.220          38.750          23.2504
 118759798.693 7  92540103.883 8  22599238.175    22599238.415    22599241.795
  22599241.680          45.750          48.500
 127993055.811 6  99734845.341 6  24356268.257    24356268.443    24356272.569
  24356272.773          39.500          41.250
 129340888.932 7 100785110.820 6  24612752.370    24612753.148    24612753.079
  24612753.014          42.750          37.250
 20  1  2  1 17  0.0000000  0  9G24G15G10G20G21G13G27G32G29
 123704425.439 6  96393055.496 7  23540168.688    23540169.671    23540174.015
  23540174.536          38.750          45.000
 113980932.608 8  88816310.975 8  21689849.518    21689849.610    21689850.411
  21689850.565          50.500          48.500
 114230720.663 8  89010952.364 8  21737382.470    21737382.497    21737385.774
  21737386.220          51.000          52.250
 106134410.717 8  82702138.15947  20196705.583    20196704.936
  20196706.436          48.750          46.0004
 109591817.612 8  85396224.57847  20854628.617    20854627.986
  20854629.205          49.500          46.0004
 126739944.057 6  98758401.81643  24117808.130    24117808.641
  24117809.066          39.000          23.7504
 118712907.785 7  92503565.500 8  22590315.699    22590315.545    22590319.395
  22590318.935          46.250          48.250
 127882206.300 6  99648469.098 6  24335175.541    24335175.103    24335178.810
  24335178.338          40.500          41.250
 129458284.032 6 100876587.530 5  24635091.851    24635092.031    24635091.848
  24635093.059          40.250          34.250
 20  1  2  1 17 30.0000000  0  9G24G15G10G20G21G13G27G32G29
 123625519.390 6  96331570.271 7  23525153.237    23525154.263    23525158.565
  23525158.638          38.750          45.250
 114055067.924 8  88874078.753 8  21703956.635    21703957.071    21703958.408
  21703957.906          50.500          48.250
 114173644.285 8  88966477.252 8  21726521.165    21726521.167    21726524.123
  21726524.728          51.250          52.000
 106117701.406 8  82689117.92347  20193526.042    20193525.302
  20193526.701          49.250          46.2504
 109599398.711 8  85402131.91347  20856071.210    20856070.728
  20856071.898          49.500          46.2504
 126839272.711 6  98835800.74343  24136710.742    24136709.503
  24136710.617          39.250          23.5004
 118666565.965 7  92467455.000 8  22581497.138    22581496.903    22581500.340
  22581500.495          46.000          48.250
 127771450.219 6  99562165.616 6  24314097.673    24314099.190    24314102.264
  24314102.206          39.750          41.000
 129575694.381 6 100968076.100 5  24657433.974    24657435.548    24657434.537
  24657434.899          37.000          31.000
 20  1  2  1 18  0.0000000  0  8G24G15G10G20G21G13G27G32
 123546886.116 6  96270297.618 7  23510189.282    23510190.459    23510195.124
  23510195.218          38.000          45.000
 114129637.341 8  88932184.791 8  21718146.924    21718147.051    21718148.674
  21718148.155          50.250          48.000
 114116801.322 8  88922184.062 8  21715703.823    21715704.037    21715707.631
  21715707.982          50.500          52.500
 106101305.018 8  82676341.52547  20190405.892    20190405.034
  20190406.464          49.250          46.2504
 109607325.825 8  85408308.87547  20857579.760    20857579.155
  20857580.405          49.500          46.0004
 126938858.180 6  98913399.81743  24155661.000    24155660.704
  24155662.559          39.750          23.5004
 118620774.282 7  92431773.169 8  22572783.356    22572782.982    22572786.534
  22572786.434          46.500          48.000
 127660789.054 6  99475936.138 6  24293040.762    24293040.055    24293044.937
  24293044.143          40.000          41.500
 20  1  2  1 18 30.0000000  0  8G24G15G10G20G21G13G27G32
 123468529.402 6  96209240.458 7  23495279.146    23495279.856    23495283.975
  23495284.470          39.000          44.500
 114204638.588 8  88990627.332 7  21732419.378    21732419.354    21732420.338
  21732420.043          50.000          47.750
 114060192.311 8  88878073.132 8  21704931.519    21704931.817    21704935.156
  21704935.548          51.000          52.000
 106085221.708 8  82663809.07347  20187345.229    20187344.470
  20187345.962          48.750          46.2504
 109615599.967 8  85414756.25747  20859154.263    20859153.777
  20859155.012          49.500          46.2504
 127038698.093 6  98991197.12643  24174659.474    24174658.474
  24174660.975          39.750          23.0004
 118575534.639 7  92396521.491 8  22564174.255    22564174.021    22564177.737
  22564177.381          46.500          48.250
 127550225.284 6  99389782.542 7  24271999.889    24272000.479    24272005.521
  24272005.590          39.250          42.250
 20  1  2  1 19  0.0000000  0  9G24G15G10G08G20G21G13G27G32
 123390452.882 6  96148401.621 7  23480422.043    23480422.398    23480426.571
  23480426.024          39.750          43.750
 114280069.130 8  89049404.374 8  21746773.347    21746773.300    21746774.223
  21746774.190          50.500          48.000
 114003817.512 8  88834144.730 8  21694203.895    21694203.975    21694207.353
  21694207.679          51.000          52.000
 131291417.135 6                  24983926.035
                        37.000
 106069451.318 8  82651520.45447  20184344.434    20184343.450
  20184344.984          49.500          46.2504
 109624222.351 8  85421474.99747  20860794.788    20860794.496
  20860795.768          49.750          46.2504
 127138789.886 6  99069190.73443  24193706.118    24193705.869
  24193707.685          39.500          23.0004
 118530848.754 7  92361701.314 8  22555670.826    22555670.844    22555674.478
  22555674.097          46.250          48.500
 127439761.067 6  99303706.534 7  24250979.853    24250980.171    24250985.187
  24250984.459          39.500          42.500
 20  1  2  1 19 30.0000000  0  9G24G15G10G08G20G21G13G27G32
 123312659.626 6  96087783.500 7  23465618.076    23465618.241    23465622.173
  23465622.354          39.500          43.500
 114355926.058 8  89108513.667 7  21761208.249    21761208.288    21761209.491
  21761209.302          50.250          47.500
 113947676.991 8  88790398.869 8  21683520.704    21683521.054    21683524.357
  21683524.883          51.500          52.250
 131203417.629 6 102236431.246 6  24967179.665    24967180.185    24967185.024
  24967185.024          36.500          36.000
 106053994.049 8  82639475.82947  20181402.791    20181402.045
  20181403.543          49.000          46.2504
 109633193.272 8  85428465.31947  20862502.407    20862501.590
  20862503.011          49.750          46.2504
 127239130.289 6  99147378.05643  24212801.008    24212800.657
  24212800.639          40.000          23.5004
 118486718.036 7  92327313.733 8  22547272.765    22547272.721    22547276.493
  22547276.387          46.250          48.750
 127329398.425 6  99217709.658 7  24229978.774    24229978.566    24229983.087
  24229983.342          40.500          42.000
 20  1  2  1 20  0.0000000  0  8G24G15G10G20G21G13G27G32
 123235153.292 6  96027388.985 7  23450869.415    23450869.100    23450873.750
  23450873.937          39.750          43.250
 114432207.142 8  89167953.476 8  21775723.852    21775724.290    21775725.288
  21775725.281          50.250          48.250
 113891771.321 8  88746836.029 8  21672882.291    21672882.150    21672885.544
  21672886.072          51.250          52.000
 106038850.274 8  82627675.47747  20178520.997    20178520.294
  20178521.735          49.500          46.0004
 109642513.952 8  85435728.18447  20864275.873    20864275.365
  20864276.520          49.750          46.5004
 127339717.126 6  99225757.43043  24231942.044    24231941.761
  24231941.788          39.750          21.5004
 118443144.458 7  92293360.296 8  22538981.135    22538981.054    22538984.894
  22538984.762          46.000          48.250
 127219139.860 6  99131793.871 6  24208997.550    24208997.304    24209000.852
  24209001.647          40.250          41.500
 20  1  2  1 20 30.0000000  0  8G24G15G10G20G21G13G27G32
 123157935.742 6  95967219.437 6  23436175.551    23436176.116    23436177.738
  23436179.103          41.000          41.250
 114508908.696 8  89227720.921 7  21790320.122    21790320.062    21790320.830
  21790320.891          50.250          47.500
 113836099.679 8  88703455.517 8  21662288.234    21662288.532    21662291.878
  21662292.212          51.500          52.500
 106024018.907 8  82616118.56847  20175698.691    20175698.047
  20175699.469          49.000          46.0004
 109652184.109 8  85443263.35647  20866116.219    20866115.491
  20866116.721          50.000          46.2504
 127440546.545 6  99304325.82843  24251128.336    24251129.314
  24251129.741          38.750          20.5004
 118400128.531 7  92259841.389 8  22530795.634    22530795.279    22530799.244
  22530799.172          46.500          48.500
 127108986.365 6  99045959.957 7  24188035.451    24188035.409    24188040.204
  24188040.480          39.750          42.250
 20  1  2  1 21  0.0000000  0  8G24G15G10G20G21G13G27G32
 123081011.518 6  95907278.490 6  23421536.350    23421537.126    23421540.960
  23421541.505          39.750          41.750
 114586029.450 8  89287815.006 7  21804995.305    21804995.617    21804996.558
  21804996.564          50.000          47.750
 113780663.318 8  88660258.371 8  21651738.894    21651739.263    21651742.651
  21651742.850          51.500          52.250
 106009500.862 8  82604805.80747  20172936.009    20172935.311
  20172936.819          49.500          46.0004
 109662205.991 8  85451072.61547  20868023.222    20868022.582
  20868023.790          50.250          46.5004
 127541617.028 6  99383082.04343  24270361.309    24270361.258
  24270362.010          38.500          19.7504
 118357672.970 7  92226759.119 8  22522716.533    22522716.392    22522719.945
  22522720.133          46.500          48.500
 126998941.319 6  98960210.550 7  24167094.287    24167094.798    24167099.119
  24167098.936          40.000          42.250
 20  1  2  1 21 30.0000000  0  9G24G15G10G08G20G21G13G27G32
 123004383.194 6  95847568.096 7  23406955.462    23406955.605    23406959.231
  23406958.830          41.000          42.250
 114663566.006 8  89348233.113 8  21819750.243    21819750.339    21819751.465
  21819751.209          50.250          48.000
 113725461.999 8  88617244.352 8  21641234.705    21641234.784    21641238.246
  21641238.510          51.750          52.500
 130854512.870 6 101964551.261 5  24900785.577    24900784.598    24900788.140
  24900789.999          37.750          35.000
 105995295.832 8  82593736.95347  20170232.916    20170232.202
  20170233.669          49.250          46.0004
 109672579.667 8  85459156.00047  20869997.410    20869996.759
  20869997.798          50.250          46.2504
 127642925.342 6  99462023.60443  24289640.522    24289639.822
  24289641.249          38.250          20.0004
 118315778.549 7  92194114.119 8  22514744.482    22514744.166    22514747.919
  22514747.763          46.500          48.500
 126889006.247 6  98874546.820 7  24146175.087    24146175.615    24146178.933
  24146179.704          41.250          42.500
 20  1  2  1 22  0.0000000  0  9G24G15G10G08G20G21G13G27G32
 122928053.628 6  95788090.515 7  23392430.418    23392430.296    23392434.034
  23392434.344          40.500          42.750
 114741515.542 8  89408973.010 7  21834583.377    21834583.455    21834584.815
  21834584.579          50.250          47.500
 113670495.626 8  88574413.424 8  21630774.633    21630774.981    21630778.184
  21630778.694          51.250          52.250
 130768071.090 6 101897194.056 6  24884335.536    24884335.013    24884340.268
  24884340.082          37.000          39.250
 105981403.565 8  82582911.80547  20167589.216    20167588.640
  20167590.053          49.500          46.0004
 109683305.358 8  85467513.67247  20872038.713    20872037.631
  20872038.926          50.750          46.5004
 127744468.500 6  99541148.14443  24308962.557    24308962.204
  24308963.941          37.750          21.5004
 118274446.702 7  92161907.486 8  22506879.164    22506879.100    22506882.693
  22506882.605          46.500          48.500
 126779183.055 6  98788970.307 7  24125276.452    24125276.479    24125281.272
  24125280.429          40.500          43.750
 20  1  2  1 22 30.0000000  0  8G24G15G10G20G21G13G27G32
 122852026.164 6  95728848.358 7  23377962.910    23377962.957    23377967.183
  23377967.144          40.750          44.000
 114819875.730 8  89470032.896 7  21849495.128    21849494.974    21849496.658
  21849495.980          50.000          47.750
 113615764.833 8  88531766.047 8  21620360.068    21620360.270    21620363.165
  21620363.516          52.250          52.250
 105967824.319 8  82572330.57247  20165005.152    20165004.576
  20165005.896          49.250          46.0004
 109694384.404 8  85476146.68447  20874146.614    20874145.955
  20874147.237          50.500          46.5004
 127846244.196 6  99620453.88043  24328329.266    24328330.665
  24328331.820          38.250          21.2504
 118233679.220 7  92130140.611 8  22499121.089    22499121.284    22499124.380
  22499124.594          46.750          48.000
 126669474.218 6  98703482.917 7  24104399.364    24104399.506    24104403.692
  24104404.230          40.500          44.000
 20  1  2  1 23  0.0000000  0  8G24G15G10G20G21G13G27G32
 122776303.847 6  95669843.963 7  23363552.749    23363553.464    23363557.311
  23363557.199          40.500          43.250
 114898643.113 8  89531410.073 7  21864483.775    21864484.142    21864485.138
  21864484.994          50.000          47.750
 113561269.000 8  88489301.767 8  21609989.543    21609989.501    21609993.336
  21609993.736          51.500          52.500
 105954557.324 8  82561992.65847  20162480.591    20162479.901
  20162481.376          49.500          46.0004
 109705816.917 8  85485055.12947  20876322.109    20876321.478
  20876322.689          50.500          46.2504
 127948248.818 6  99699937.98943  24347740.918    24347740.880
  24347742.208          39.250          23.2504
 118193476.820 7  92098814.069 8  22491471.379    22491471.360    22491474.572
  22491474.333          47.500          48.500
 126559881.172 6  98618085.752 7  24083543.126    24083544.162    24083548.415
  24083548.945          39.250          43.250
 20  1  2  1 23 30.0000000  0  8G24G15G10G20G21G13G27G32
 122700890.792 6  95611080.559 7  23349202.782    23349203.593    23349206.203
  23349206.992          41.250          43.500
 114977816.321 8  89593103.486 7  21879550.143    21879549.997    21879550.999
  21879550.947          50.250          47.500
 113507009.817 8  88447021.888 8  21599664.831    21599664.917    21599668.113
  21599668.344          52.250          52.500
 105941603.863 8  82551899.05847  20160015.572    20160014.876
  20160016.420          50.000          46.2504
 109717604.921 8  85494240.58347  20878565.332    20878564.717
  20878566.016          50.750          46.5004
 128050481.091 6  99779599.50143  24367195.650    24367194.570
  24367196.824          40.250          23.7504
 118153842.365 7  92067930.069 8  22483928.855    22483928.744    22483932.307
  22483932.192          47.250          48.250
 126450407.349 6  98532781.489 7  24062711.374    24062712.516    24062716.019
  24062716.417          39.000          42.250
 20  1  2  1 24  0.0000000  0  9G24G15G10G20G21G08G13G27G32
 122625789.477 6  95552560.051 7  23334910.747    23334912.291    23334914.419
  23334915.535          40.750          42.500
 115057392.019 8  89655110.522 7  21894692.856    21894693.118    21894693.754
  21894693.690          49.750          47.500
 113452986.471 8  88404925.771 8  21589384.098    21589384.250    21589387.501
  21589387.920          51.750          52.500
 105928963.432 8  82542049.38047  20157610.120    20157609.604
  20157610.978          49.500          46.2504
 109729748.418 8  85503703.04547  20880876.129    20880875.641
  20880876.842          50.500          46.5004
 130425630.870 6                  24819151.083
                        38.000
 128152937.172 6  99859435.39944  24386692.393    24386692.195
  24386692.666          40.250          25.2504
 118114776.309 7  92037488.970 8  22476494.771    22476494.809    22476498.593
  22476498.377          47.500          49.000
 126341054.068 6  98447571.112 7  24041902.460    24041902.789    24041906.752
  24041906.788          40.750          42.250
 20  1  2  1 24 30.0000000  0  9G24G15G10G20G21G08G13G27G32
 122551003.406 6  95494285.192 7  23320680.484    23320680.073    23320683.827
  23320684.022          41.500          42.500
 115137367.513 8  89717429.091 7  21909911.508    21909911.697    21909913.131
  21909912.510          50.000          47.500
 113399199.331 8  88363013.709 8  21579148.968    21579149.150    21579152.381
  21579152.862          52.250          52.750
 105916635.930 8  82532443.52747  20155264.423    20155263.716
  20155265.049          49.750          46.2504
 109742248.014 8  85513442.97947  20883254.534    20883254.142
  20883255.336          50.250          46.2504
 130340812.118 6 101564182.816 6  24803010.166    24803010.071    24803013.869
  24803013.693          37.250          40.250
 128255614.839 6  99939443.94944  24406231.852    24406230.819
  24406233.003          40.000          24.7504
 118076280.134 8  92007491.951 8  22469169.549    22469169.326    22469172.641
  22469172.812          48.000          48.500
 126231823.526 7  98362456.401 7  24021117.659    24021117.792    24021121.388
  24021121.440          42.000          42.750
 20  1  2  1 25  0.0000000  0  9G24G15G10G20G21G08G13G27G32
 122476535.152 6  95436257.993 7  23306509.636    23306508.831    23306512.924
  23306512.934          40.500          43.250
 115217739.808 8  89780056.848 7  21925205.902    21925205.765    21925207.357
  21925206.811          49.250          47.250
 113345648.428 8  88321285.747 8  21568958.263    21568958.267    21568961.850
  21568962.166          51.750          52.250
 105904620.942 8  82523081.20247  20152977.863    20152977.176
  20152978.727          49.250          46.0004
 109755104.532 8  85523461.04447  20885700.919    20885700.604
  20885701.779          50.000          46.0004
 130256324.919 6 101498348.604 6  24786932.783    24786932.662    24786937.596
  24786936.846          38.250          39.250
 128358511.111 6 100019622.86443  24425812.055    24425811.977
  24425812.177          40.500          23.7504
 118038355.120 7  91977939.990 8  22461952.488    22461952.204    22461955.742
  22461955.841          46.750          48.500
 126122717.635 7  98277438.808 7  24000354.948    24000355.389    24000359.493
  24000359.002          42.000          43.250
 20  1  2  1 25 30.0000000  0  9G24G15G10G20G21G08G13G27G32
 122402387.609 6  95378480.700 7  23292399.144    23292399.606    23292403.604
  23292403.502          41.000          44.500
 115298506.393 8  89842991.852 7  21940575.446    21940575.480    21940576.637
  21940576.239          49.750          47.500
 113292333.636 8  88279741.736 8  21558813.187    21558813.226    21558816.357
  21558816.966          52.500          52.750
 105892918.334 8  82513962.29247  20150751.138    20150750.333
  20150751.832          50.000          46.0004
 109768318.282 8  85533757.46247  20888215.838    20888215.160
  20888216.351          50.250          46.2504
 130172171.848 6 101432774.745 6  24770918.536    24770919.136    24770923.495
  24770923.170          37.250          38.750
 128461622.968 6 100099969.75243  24445433.522    24445433.049
  24445433.965          40.000          22.7504
 118001002.257 7  91948833.858 8  22454844.423    22454844.032    22454847.845
  22454847.966          47.500          48.500
 126013738.224 6  98192519.796 7  23979616.591    23979617.972    23979621.004
  23979621.411          41.250          42.750
 20  1  2  1 26  0.0000000  0  9G24G15G10G20G21G08G13G27G32
 122328564.753 6  95320956.437 7  23278351.347    23278351.090    23278356.124
  23278355.209          40.750          44.250
 115379664.080 8  89906231.605 7  21956018.925    21956019.324    21956019.887
  21956020.205          49.750          47.250
 113239255.021 8  88238381.804 8  21548712.467    21548712.678    21548716.148
  21548716.679          52.250          53.000
 105881528.027 8  82505086.74347  20148583.758    20148582.930
  20148584.366          49.750          46.2504
 109781889.765 8  85544332.64147  20890798.124    20890797.701
  20890798.895          50.000          46.0004
 130088355.284 6 101367463.142 6  24754969.390    24754967.928    24754974.547
  24754972.545          39.000          38.250
 128564947.555 6 100180482.40743  24465095.921    24465095.544
  24465097.244          39.750          21.7504
 117964222.771 7  91920174.511 8  22447845.612    22447845.173    22447848.576
  22447848.879          47.750          48.500
 125904887.302 7  98107700.882 7  23958903.339    23958904.126    23958907.147
  23958908.046          42.000          42.500
 20  1  2  1 26 30.0000000  0  9G24G15G10G20G21G08G13G27G32
 122255069.695 6  95263687.559 7  23264365.480    23264365.444    23264369.890
  23264369.939          41.250          45.250
 115461211.367 8  89969774.941 7  21971537.167    21971537.048    21971538.025
  21971538.232          49.750          47.500
 113186414.032 8  88197206.986 8  21538657.322    21538657.364    21538660.297
  21538660.798          52.000          52.250
 105870451.257 8  82496455.49547  20146475.717    20146475.105
  20146476.537          49.750          46.0004
 109795821.190 8  85555188.29447  20893449.364    20893448.690
  20893449.927          50.250          46.2504
 130004879.239 6 101302416.867 6  24739083.761    24739084.207    24739089.020
  24739088.513          38.500          38.500
 128668483.387 6 100261159.66643  24484797.843    24484797.296
  24484797.690          39.000          20.0004
 117928019.175 7  91891963.917 8  22440956.311    22440956.105    22440959.765
  22440959.802          47.750          49.000
 125796168.158 7  98022984.665 7  23938214.905    23938215.710    23938218.528
  23938218.339          42.000          42.250
 20  1  2  1 27  0.0000000  0  9G24G15G10G20G21G08G13G27G32
 122181905.684 6  95206676.661 7  23250442.526    23250443.502    23250447.945
  23250448.037          41.500          46.000
 115543144.999 8  90033619.326 7  21987128.321    21987128.625    21987129.579
  21987129.554          50.000          47.250
 113133810.090 8  88156216.924 8  21528646.909    21528646.988    21528650.627
  21528651.030          52.000          53.000
 105859687.139 8  82488067.87047  20144427.245    20144426.681
  20144428.026          49.500          46.0004
 109810112.466 8  85566324.34147  20896168.963    20896168.275
  20896169.493          50.250          46.2504
 129921744.936 6 101237636.893 6  24723264.297    24723264.757    24723268.414
  24723268.902          39.500          38.750
 128772227.108 6 100341998.93943  24504539.897    24504540.059
  24504539.979          38.500          19.2504
 117892391.983 7  91864202.471 8  22434176.603    22434176.364    22434179.878
  22434179.871          47.750          48.750
 125687582.200 6  97938372.222 7  23917551.424    23917551.976    23917555.315
  23917555.797          41.500          42.500
 20  1  2  1 27 30.0000000  0  9G24G15G10G20G21G08G13G27G32
 122109075.133 6  95149925.612 7  23236584.210    23236584.036    23236588.248
  23236588.598          41.500          46.000
 115625462.018 8  90097762.456 7  22002792.821    22002793.107    22002794.058
  22002793.839          49.750          46.750
 113081443.243 8  88115411.594 8  21518681.870    21518682.002    21518685.211
  21518685.631          52.250          52.750
 105849235.623 8  82479923.84447  20142438.841    20142437.812
  20142439.259          49.750          46.2504
 109824763.680 8  85577740.86547  20898956.988    20898956.368
  20898957.605          50.750          46.2504
 129838955.270 6 101173125.418 6  24707510.441    24707509.723    24707514.941
  24707514.171          38.250          39.750
 128876175.636 6 100422997.79243  24524320.669    24524319.119
  24524320.832          39.250          19.5004
 117857342.304 8  91836891.028 8  22427507.043    22427506.781    22427510.472
  22427510.294          48.250          49.000
 125579131.331 6  97853865.049 7  23896913.666    23896913.572    23896918.112
  23896918.387          41.250          43.250
 20  1  2  1 28  0.0000000  0  9G24G15G10G20G21G08G13G27G32
 122036581.163 7  95093436.816 7  23222789.582    23222789.544    23222793.179
  23222793.343          42.500          45.000
 115708159.412 8  90162201.969 7  22018529.412    22018529.475    22018530.678
  22018530.660          49.500          46.750
 113029313.384 8  88074790.927 8  21508761.848    21508761.818    21508765.247
  21508765.892          52.000          52.750
 105839096.411 8  82472023.16047  20140509.007    20140508.552
  20140509.826          50.000          46.0004
 109839775.590 8  85589438.44347  20901813.944    20901813.112
  20901814.287          50.500          45.7504
 129756512.354 6 101108884.172 6  24691821.396    24691820.815    24691826.456
  24691826.366          38.750          39.250
 128980326.442 6 100504154.23543  24544139.717    24544138.142
  24544139.176          38.750          18.0004
 117822871.121 8  91810030.358 8  22420947.289    22420947.135    22420950.745
  22420950.576          48.250          48.750
 125470817.415 6  97769464.595 7  23876301.899    23876302.674    23876306.631
  23876306.915          41.000          43.500
 20  1  2  1 28 30.0000000  0  9G24G15G10G20G21G08G13G27G32
 121964427.892 6  95037213.494 7  23209058.370    23209058.943    23209062.292
  23209062.670          41.750          44.500
 115791236.144 8  90226937.082 7  22034338.682    22034338.863    22034339.965
  22034339.617          50.000          46.750
 112977422.169 8  88034356.213 8  21498887.342    21498887.494    21498891.113
  21498891.183          52.750          53.000
 105829270.767 8  82464366.80747  20138639.280    20138638.679
  20138640.075          50.000          46.0004
 109855150.066 8  85601418.54747  20904739.382    20904738.662
  20904739.901          50.500          46.0004
 129674420.005 6 101044916.089 6  24676199.528    24676199.194    24676203.649
  24676204.245          38.250          39.000
 129084677.760 6 100585466.94643  24563997.776    24563996.591
  24563997.285          39.250          19.0004
 117788981.095 8  91783622.544 8  22414498.185    22414498.123    22414501.433
  22414501.761          48.000          48.750
 125362643.973 7  97685173.609 7  23855718.323    23855718.218    23855721.596
  23855721.712          42.000          43.500
 20  1  2  1 29  0.0000000  0  9G24G15G10G20G21G08G13G27G32
 121892616.653 6  94981256.682 7  23195393.030    23195392.567    23195396.865
  23195398.144          41.000          44.250
 115874686.806 8  90291963.561 7  22050218.798    22050218.998    22050219.652
  22050219.621          49.750          46.500
 112925767.319 8  87994105.683 8  21489057.926    21489058.022    21489061.023
  21489061.590          53.000          52.750
 105819755.856 8  82456952.59947  20136828.937    20136828.136
  20136829.419          50.000          46.0004
 109870885.502 8  85613679.91747  20907733.303    20907732.946
  20907734.251          50.250          46.0004
 129592678.320 6 100981221.286 6  24660644.921    24660643.974    24660649.492
  24660647.908          37.250          39.250
 129189224.880 6 100666932.24043  24583891.277    24583891.247
  24583891.110          39.250          19.5004
 117755670.943 8  91757666.576 8  22408159.511    22408159.432    22408162.949
  22408162.994          48.000          49.000
 125254610.691 7  97600991.839 7  23835160.004    23835159.884    23835164.560
  23835164.097          42.500          43.750
 20  1  2  1 29 30.0000000  0  9G24G15G10G20G21G08G13G27G32
 121821152.404 6  94925570.273 7  23181793.046    23181793.610    23181797.216
  23181797.926          41.000          43.750
 115958510.965 8  90357281.092 7  22066169.559    22066170.030    22066171.290
  22066170.787          49.000          46.750
 112874350.928 8  87954040.968 8  21479273.488    21479273.598    21479277.058
  21479277.654          52.500          53.500
 105810554.293 8  82449782.55047  20135077.654    20135077.097
  20135078.411          50.000          46.0004
 109886984.473 8  85626224.55947  20910797.324    20910796.641
  20910797.825          50.750          46.2504
 129511292.241 6 100917803.581 6  24645155.623    24645156.267    24645161.841
  24645160.751          36.250          39.500
 129293966.346 6 100748548.99843  24603823.201    24603823.037
  24603823.355          41.000          20.7504
 117722943.708 8  91732164.826 8  22401931.851    22401931.641    22401935.022
  22401935.061          48.250          48.750
 125146721.534 7  97516922.345 7  23814629.773    23814629.559    23814633.377
  23814633.664          43.000          43.500
 20  1  2  1 30  0.0000000  0  9G24G15G10G20G21G08G13G27G32
 121750037.395 6  94870156.001 7  23168260.835    23168261.118    23168264.935
  23168264.403          41.500          43.500
 116042704.894 8  90422886.759 7  22082191.381    22082191.784    22082192.818
  22082192.616          49.500          46.750
 112823172.486 8  87914161.679 8  21469534.583    21469534.635    21469537.891
  21469538.373          52.750          52.750
 105801665.098 8  82442855.90247  20133386.156    20133385.366
  20133386.731          50.000          46.2504
 109903446.841 8  85639052.36847  20913930.196    20913929.469
  20913930.573          50.750          46.5004
 129430263.002 6 100854663.919 6  24629737.722    24629737.563    24629742.981
  24629743.413          37.750          41.000
 129398899.446 6 100830315.03743  24623792.038    24623791.229
  24623792.334          40.500          20.0004
 117690799.877 7  91707117.683 8  22395815.123    22395814.786    22395818.603
  22395818.507          47.750          49.000
 125038977.906 7  97432966.276 7  23794126.484    23794126.488    23794129.828
  23794129.727          42.750          42.500
 20  1  2  1 30 30.0000000  0  9G24G15G10G20G21G08G13G27G32
 121679274.757 6  94815016.290 7  23154795.367    23154795.593    23154799.290
  23154799.243          41.250          43.750
 116127266.225 8  90488778.710 7  22098283.217    22098283.128    22098284.304
  22098283.616          49.500          46.250
 112772232.454 8  87874468.137 8  21459840.838    21459840.944    21459844.500
  21459845.027          52.500          53.000
 105793088.448 8  82436172.79547  20131754.170    20131753.325
  20131754.709          49.750          46.2504
 109920273.473 8  85652164.02047  20917132.060    20917131.446
  20917132.456          50.500          46.5004
 129349593.427 6 100791804.461 6  24614387.642    24614386.919    24614392.729
  24614391.679          39.250          41.000
 129504021.905 6 100912228.64043  24643796.335    24643795.369
  24643796.248          40.000          22.2504
 117659240.808 8  91682526.192 8  22389809.468    22389809.217    22389812.562
  22389812.780          48.000          48.750
 124931382.147 7  97349125.395 7  23773651.874    23773651.620    23773655.230
  23773655.084          43.000          42.750
 20  1  2  1 31  0.0000000  0  9G24G15G10G20G21G08G13G27G32
 121608867.763 6  94760153.679 7  23141397.753    23141397.866    23141401.321
  23141401.638          41.500          44.250
 116212191.703 8  90554954.406 7  22114443.764    22114443.768    22114444.979
  22114444.623          49.000          46.250
 112721530.483 8  87834960.124 8  21450192.694    21450192.972    21450196.264
  21450196.670          52.750          53.250
 105784823.995 8  82429732.96547  20130181.454    20130180.841
  20130182.060          49.750          46.2504
 109937464.626 8  85665559.71447  20920403.353    20920402.762
  20920403.845          50.750          46.2504
 129269285.418 6 100729226.771 6  24599105.395    24599104.387    24599110.073
  24599109.902          40.250          41.250
 129609330.328 6 100994287.16243  24663835.342    24663835.400
  24663835.212          40.750          22.2504
 117628267.142 7  91658390.872 8  22383915.306    22383914.835    22383918.396
  22383918.567          47.750          48.750
 124823935.857 7  97265401.006 7  23753205.253    23753205.524    23753209.524
  23753208.973          42.500          43.250
 20  1  2  1 31 30.0000000  0  9G24G15G10G20G21G08G13G27G32
 121538817.904 6  94705569.390 7  23128067.465    23128067.189    23128071.495
  23128071.924          41.250          44.750
 116297477.977 8  90621411.241 7  22130673.291    22130673.301    22130674.159
  22130674.318          49.500          46.250
 112671066.112 8  87795637.233 8  21440589.364    21440589.693    21440593.149
  21440593.409          52.000          52.750
 105776870.837 8  82423535.71047  20128667.978    20128667.401
  20128668.488          49.500          46.0004
 109955020.128 8  85679239.31947  20923743.985    20923743.410
  20923744.685          50.750          46.2504
 129189340.794 6 100666932.265 6  24583892.866    24583892.014    24583896.442
  24583896.776          40.250          41.000
 129714821.126 6 101076487.75743  24683908.981    24683908.623
  24683909.225          40.250          21.2504
 117597879.267 8  91634712.000 8  22378132.552    22378132.665    22378135.913
  22378135.913          48.000          48.750
 124716640.435 7  97181794.175 7  23732787.704    23732787.798    23732791.328
  23732790.859          43.000          43.500
 20  1  2  1 32  0.0000000  0  9G24G15G10G20G21G08G13G27G32
 121469131.214 6  94651268.108 7  23114805.945    23114806.542    23114810.114
  23114810.483          41.000          44.750
 116383124.432 8  90688148.741 7  22146971.167    22146970.933    22146972.307
  22146972.297          48.500          46.250
 112620841.657 8  87756501.307 8  21431032.616    21431032.662    21431035.640
  21431036.217          53.000          53.000
 105769231.086 8  82417582.65947  20127214.386    20127213.523
  20127214.780          49.500          45.7504
 109972942.628 8  85693204.89647  20927154.600    20927153.975
  20927155.254          50.750          46.5004
 129109764.182 6 100604924.524 6  24568749.712    24568749.621    24568754.291
  24568754.405          40.000          41.750
 129820494.051 6 101158830.28143  24704018.521    24704018.561
  24704018.480          40.000          22.2504
 117568080.295 8  91611492.024 8  22372462.054    22372461.934    22372465.346
  22372465.237          48.000          48.500
 124609500.112 7  97098308.209 7  23712399.038    23712399.357    23712402.908
  23712402.749          42.000          43.750
 20  1  2  1 32 30.0000000  0  9G24G15G10G20G21G08G13G27G32
 121399808.669 6  94597250.543 7  23101614.877    23101614.211    23101618.919
  23101618.945          41.000          45.000
 116469127.141 8  90755163.832 7  22163336.910    22163336.862    22163338.271
  22163337.902          48.750          46.500
 112570855.938 8  87717551.391 8  21421520.356    21421520.427    21421523.615
  21421524.012          52.500          52.750
 105761903.484 8  82411872.84547  20125819.756    20125819.088
  20125820.388          50.000          46.0004
 109991231.795 8  85707456.19047  20930635.002    20930634.310
  20930635.577          51.250          46.5004
 129030556.706 6 100543204.405 6  24553676.465    24553676.349    24553680.887
  24553680.283          37.750          40.250
 129926345.153 6 101241311.66543  24724160.051    24724161.313
  24724161.316          39.250          22.0004
 117538869.969 8  91588730.728 8  22366903.718    22366903.459    22366906.959
  22366906.994          48.000          48.750
 124502515.577 7  97014943.667 7  23692040.647    23692041.109    23692045.253
  23692044.806          42.750          44.250
 20  1  2  1 33  0.0000000  0  9G24G15G10G20G21G08G13G27G32
 121330853.597 6  94543519.346 7  23088492.700    23088492.813    23088497.148
  23088497.900          40.750          45.500
 116555483.074 8  90822454.159 7  22179770.323    22179769.911    22179771.318
  22179771.275          49.250          46.500
 112521108.948 8  87678787.493 8  21412053.876    21412054.014    21412057.331
  21412057.763          53.000          53.250
 105754887.876 8  82406406.14247  20124484.766    20124484.010
  20124485.461          49.500          46.0004
 110009887.743 8  85721993.28647  20934184.865    20934184.418
  20934185.568          51.000          46.5004
 128951720.860 6 100481773.867 6  24538674.372    24538675.018    24538679.233
  24538679.183          37.750          39.750
 130032371.539 6 101323929.62343  24744336.295    24744336.853
  24744337.581          38.750          20.7504
 117510249.103 8  91566428.747 8  22361457.430    22361457.334    22361460.160
  22361460.270          48.250          48.500
 124395688.772 7  96931701.994 7  23671712.751    23671712.466    23671716.346
  23671716.842          43.000          44.250
 20  1  2  1 33 30.0000000  0  9G24G15G10G20G21G08G13G27G32
 121262269.791 6  94490077.435 7  23075441.395    23075441.846    23075445.746
  23075445.945          40.500          44.500
 116642190.392 8  90890018.304 7  22196269.719    22196269.728    22196271.007
  22196271.067          48.500          46.000
 112471601.824 8  87640210.525 8  21402632.909    21402633.091    21402636.189
  21402636.763          52.750          53.250
 105748185.166 8  82401183.25847  20123209.346    20123208.497
  20123209.930          50.000          46.0004
 110028911.744 8  85736817.18047  20937805.253    20937804.660
  20937805.767          51.000          46.5004
 128873259.546 6 100420635.175 6  24523743.342    24523743.374    24523748.270
  24523748.468          39.000          39.500
 130138571.412 6 101406682.75543  24764545.845    24764547.375
  24764546.094          39.000          20.0004
 117482219.588 8  91544587.567 8  22356123.676    22356123.371    22356126.414
  22356126.366          48.750          48.500
 124289022.681 7  96848585.577 7  23651413.997    23651414.363    23651418.445
  23651418.487          42.250          44.000
 20  1  2  1 34  0.0000000  0  9G24G15G10G20G21G08G13G27G32
 121194059.431 6  94436926.519 7  23062461.443    23062461.918    23062466.273
  23062465.898          40.250          45.250
 116729245.045 8  90957853.087 7  22212835.713    22212835.782    22212836.827
  22212836.733          48.750          46.000
 112422333.219 8  87601819.403 8  21393257.569    21393257.659    21393260.574
  21393261.210          53.000          53.000
 105741793.649 8  82396202.86447  20121993.112    20121992.226
  20121993.694          50.000          46.2504
 110048302.953 8  85751927.21347  20941495.255    20941494.663
  20941495.762          51.000          46.5004
 128795174.021 6 100359789.319 6  24508884.787    24508883.814    24508890.139
  24508888.131          40.000          40.250
 130244940.599 6 101489567.83243  24784787.136    24784787.507
  24784787.818          37.750          18.7504
 117454780.882 8  91523206.756 8  22350902.201    22350902.012    22350905.493
  22350905.324          48.750          49.250
 124182517.863 7  96765594.821 7  23631147.434    23631148.510    23631151.970
  23631151.285          43.500          44.750
 20  1  2  1 34 30.0000000  0  9G24G15G10G20G21G08G13G27G32
 121126225.910 7  94384069.248 7  23049554.181    23049553.812    23049558.213
  23049558.041          42.000          44.750
 116816645.257 8  91025957.155 7  22229467.480    22229467.650    22229468.719
  22229468.506          49.000          46.000
 112373304.475 8  87563615.188 8  21383927.328    21383927.680    21383930.961
  21383931.386          52.750          53.250
 105735714.555 8  82391465.90847  20120836.395    20120835.591
  20120836.753          49.750          46.0004
 110068063.408 8  85767324.97247  20945255.591    20945254.964
  20945256.039          51.000          46.7504
 128717467.689 6 100299238.912 6  24494097.980    24494097.729    24494102.901
  24494101.870          40.750          40.750
 130351477.904 6 101572583.90043  24805061.296    24805060.480
  24805062.216          38.250          19.2504
 117427935.074 8  91502287.937 8  22345793.505    22345793.277    22345796.809
  22345796.756          49.000          48.500
 124076177.539 7  96682732.232 7  23610911.391    23610911.438    23610915.501
  23610915.051          42.750          44.250
 20  1  2  1 35  0.0000000  0  9G24G15G10G20G21G08G13G27G32
 121058770.861 7  94331506.859 7  23036717.542    23036718.570    23036721.315
  23036721.809          42.250          44.500
 116904387.069 8  91094327.380 7  22246164.108    22246164.194    22246165.195
  22246165.583          49.000          46.000
 112324514.280 8  87525596.840 8  21374643.249    21374643.332    21374646.298
  21374646.951          53.250          53.250
 105729946.435 8  82386971.27447  20119738.311    20119737.907
  20119739.186          50.000          46.2504
 110088191.835 8  85783009.45547  20949085.792    20949085.187
  20949086.458          50.750          46.2504
 128640141.489 6 100238984.730 6  24479383.040    24479383.326    24479388.268
  24479388.240          39.750          41.750
 130458179.014 6 101655727.61542  24825365.369    24825365.438
  24825366.482          38.000          17.2504
 117401681.578 8  91481830.661 8  22340797.588    22340797.594    22340800.745
  22340800.995          49.250          48.750
 123970002.249 7  96599998.233 7  23590707.211    23590707.240    23590710.822
  23590710.704          43.750          43.250
 20  1  2  1 35 30.0000000  0  9G24G15G10G20G21G08G13G27G32
 120991699.976 6  94279243.863 7  23023954.375    23023954.653    23023958.524
  23023957.775          41.500          44.750
 116992469.800 8  91162963.279 7  22262925.901    22262926.085    22262927.245
  22262926.843          48.500          46.000
 112275964.997 8  87487766.233 8  21365404.283    21365404.548    21365407.938
  21365408.502          53.000          53.250
 105724491.098 8  82382720.36247  20118700.307    20118699.822
  20118701.073          49.250          46.0004
 110108691.143 8  85798982.93547  20952986.924    20952985.964
  20952987.364          50.500          46.5004
 128563200.080 6 100179030.384 6  24464740.861    24464741.299    24464746.531
  24464746.107          39.000          41.750
 130565043.465 6 101738998.58343  24845701.063    24845700.731
  24845701.626          38.500          19.5004
 117376023.447 8  91461837.311 8  22335915.267    22335914.805    22335918.016
  22335918.273          49.500          48.750
 123863996.253 7  96517396.164 7  23570534.558    23570534.524    23570538.566
  23570538.584          42.750          43.750
 20  1  2  1 36  0.0000000  0  9G24G15G10G20G21G08G13G27G32
 120925015.044 7  94227281.586 7  23011264.425    23011264.869    23011268.608
  23011269.098          42.250          45.250
 117080890.138 8  91231862.258 7  22279751.335    22279751.813    22279752.858
  22279752.650          48.000          45.750
 112227656.051 8  87450122.892 8  21356211.682    21356211.619    21356214.942
  21356215.341          53.000          53.250
 105719348.206 8  82378712.91847  20117721.773    20117721.062
  20117722.343          50.000          46.0004
 110129561.132 8  85815245.26147  20956957.888    20956957.388
  20956958.824          50.500          46.2504
 128486645.091 6 100119377.144 6  24450173.338    24450173.806    24450178.826
  24450177.840          40.000          41.500
 130672067.816 6 101822394.21743  24866067.402    24866065.504
  24866068.506          39.000          18.2504
 117350960.792 8  91442307.961 8  22331146.079    22331145.768    22331149.317
  22331149.394          49.500          49.000
 123758160.844 7  96434927.013 7  23550395.041    23550395.740    23550398.140
  23550398.714          42.750          43.000
 20  1  2  1 36 30.0000000  0  9G24G15G10G20G21G08G13G27G32
 120858718.075 6  94175621.621 7  22998648.491    22998648.739    22998652.518
  22998652.595          40.750          45.500
 117169644.470 8  91301021.481 7  22296641.152    22296641.275    22296641.783
  22296641.754          48.250          45.750
 112179586.874 8  87412666.403 8  21347064.318    21347064.494    21347067.804
  21347068.251          53.250          53.500
 105714516.758 8  82374948.16047  20116802.439    20116801.678
  20116802.880          49.500          46.0004
 110150801.686 8  85831796.34647  20960999.965    20960999.245
  20961000.804          50.250          46.2504
 128410477.927 6 100060026.110 6  24435679.617    24435679.826    24435683.331
  24435683.595          41.000          40.750
 130779248.831 6 101905911.89942  24886462.534    24886463.352
  24886463.776          39.000          17.5004
 117326493.700 8  91423242.681 8  22326489.807    22326489.712    22326493.207
  22326493.113          49.500          49.000
 123652497.319 7  96352591.792 7  23530287.703    23530288.295    23530291.977
  23530291.713          43.000          43.750
 20  1  2  1 37  0.0000000  0  9G24G15G10G20G21G08G13G27G32
 120792812.343 6  94124266.523 7  22986106.162    22986106.939    22986111.479
  22986111.776          41.250          45.750
 117258730.042 8  91370438.809 7  22313593.761    22313593.753    22313594.538
  22313594.320          48.500          45.750
 112131757.752 8  87375396.958 8  21337962.725    21337962.838    21337965.932
  21337966.558          53.250          53.250
 105709996.967 8  82371426.25347  20115942.184    20115941.715
  20115943.025          48.750          46.2504
 110172412.958 8  85848636.29947  20965112.588    20965111.942
  20965113.059          50.500          46.0004
 128334701.304 6 100000979.406 6  24421259.507    24421259.748    24421264.253
  24421263.698          40.750          40.750
 130886584.219 6 101989549.87242  24906887.798    24906888.607
  24906888.830          38.750          16.5004
 117302623.053 8  91404642.170 8  22321947.357    22321947.297    22321950.728
  22321950.667          49.750          49.000
 123547007.819 7  96270392.194 7  23510213.841    23510214.315    23510218.136
  23510217.985          43.250          44.250
 20  1  2  1 37 30.0000000  0  9G24G15G10G20G21G08G13G27G32
 120727301.579 7  94073219.177 7  22973641.179    22973641.711    22973644.475
  22973644.755          42.250          45.000
 117348144.858 7  91440112.689 7  22330608.639    22330608.683    22330609.967
  22330609.597          47.750          45.500
 112084169.384 8  87338315.116 8  21328907.020    21328907.163    21328910.281
  21328910.847          53.250          53.500
 105705789.140 8  82368147.43347  20115141.624    20115140.887
  20115142.210          49.250          46.0004
 110194396.142 8  85865766.05347  20969295.842    20969295.174
  20969296.441          50.250          46.5004
 128259318.096 6  99942239.248 6  24406915.048    24406914.661    24406919.802
  24406919.062          40.500          41.750
 130994071.726 6 102073306.41542  24927341.295    24927341.803
  24927342.419          38.250          17.5004
 117279350.233 8  91386507.502 8  22317518.686    22317518.662    22317521.844
  22317522.117          49.500          48.750
 123441694.954 7  96188330.214 7  23490172.557    23490173.198    23490177.226
  23490177.510          42.750          44.000
 20  1  2  1 38  0.0000000  0  9G24G15G10G20G21G08G13G27G32
 120662188.072 7  94022481.374 7  22961249.943    22961250.267    22961254.130
  22961254.515          42.000          45.500
 117437885.761 7  91510040.667 7  22347685.415    22347685.641    22347686.691
  22347687.063          47.750          45.750
 112036821.579 8  87301420.724 8  21319896.981    21319897.136    21319900.455
  21319900.866          53.000          53.500
 105701893.014 8  82365111.49747  20114400.238    20114399.408
  20114400.692          49.250          46.0004
 110216751.804 8  85883186.05147  20973549.869    20973549.268
  20973550.555          50.500          46.2504
 128184330.155 6  99883807.069 7  24392645.048    24392644.419    24392650.158
  24392650.297          40.750          42.500
 131101708.334 6 102157179.12642  24947824.154    24947824.747
  24947825.620          38.000          17.0004
 117256675.595 8  91368838.941 8  22313203.896    22313203.659    22313207.324
  22313207.270          49.750          49.250
 123336560.378 7  96106407.184 7  23470166.452    23470166.709    23470170.681
  23470171.269          42.750          44.250
 20  1  2  1 38 30.0000000  0  9G24G15G10G20G21G08G13G27G32
 120597476.330 7  93972056.640 7  22948936.249    22948936.419    22948940.075
  22948940.044          42.250          45.250
 117527950.806 8  91580221.219 7  22364824.530    22364824.365    22364826.016
  22364825.399          48.000          46.000
 111989715.505 8  87264714.688 8  21310932.932    21310933.216    21310936.263
  21310936.696          53.000          53.250
 105698309.251 8  82362318.95547  20113718.258    20113717.441
  20113718.803          49.000          46.0004
 110239480.971 8  85900897.08847  20977875.214    20977874.492
  20977875.655          50.250          46.2504
 128109741.287 6  99825685.843 7  24378451.637    24378450.698    24378456.349
  24378455.579          41.000          42.000
 131209492.309 6 102241166.66243  24968335.094    24968336.183
  24968336.343          38.250          18.5004
 117234600.838 8  91351637.830 8  22309003.095    22309002.923    22309006.502
  22309006.550          49.250          49.250
 123231607.113 7  96024625.426 7  23450194.965    23450195.431    23450199.062
  23450199.457          42.500          44.750
 20  1  2  1 39  0.0000000  0  9G24G15G10G20G21G08G13G27G32
 120533167.219 7  93921945.649 7  22936698.536    22936698.548    22936703.361
  22936703.037          42.000          46.500
 117618336.320 8  91650651.486 7  22382024.297    22382024.317    22382025.151
  22382025.153          48.000          45.000
 111942849.932 8  87228196.064 8  21302014.695    21302014.909    21302018.211
  21302018.609          53.000          53.750
 105695036.686 8  82359768.91347  20113095.247    20113094.805
  20113096.092          50.000          46.2504
 110262582.815 8  85918898.51747  20982271.362    20982270.627
  20982271.935          50.000          46.2504
 128035551.849 6  99767875.888 7  24364333.995    24364333.301    24364338.325
  24364337.643          41.750          42.000
 131317419.966 6 102325266.12443  24988874.072    24988872.753
  24988874.736          38.750          18.5004
 117213125.243 8  91334903.595 8  22304916.750    22304916.558    22304919.916
  22304919.718          49.750          49.000
 123126835.723 7  95942985.375 7  23430257.492    23430257.703    23430261.714
  23430260.911          43.000          44.500
 20  1  2  1 39 30.0000000  0  9G24G15G10G20G21G08G13G27G32
 120469263.884 7  93872150.849 7  22924538.123    22924537.809    22924541.940
  22924542.094          42.000          45.250
 117709039.272 7  91721329.100 7  22399284.301    22399284.909    22399285.523
  22399285.325          47.500          45.250
 111896224.970 8  87191864.935 8  21293142.519    21293142.471    21293145.597
  21293146.075          53.500          53.500
 105692075.496 8  82357461.49447  20112531.949    20112531.127
  20112532.621          49.500          46.2504
 110286057.624 8  85937190.57547  20986738.435    20986737.753
  20986739.139          50.250          46.2504
 127961764.211 6  99710379.030 6  24350292.640    24350293.001    24350296.714
  24350296.527          41.750          41.750
 131425488.703 6 102409475.49643  25009438.308    25009438.286
  25009439.130          38.000          19.0004
 117192249.508 8  91318636.786 8  22300944.123    22300943.886    22300947.491
  22300947.426          49.500          49.500
 123022248.291 7  95861488.666 7  23410355.349    23410355.234    23410359.062
  23410359.346          44.000          44.500
 20  1  2  1 40  0.0000000  0  9G24G15G10G20G21G08G13G27G32
 120405770.151 6  93822675.247 7  22912455.511    22912455.722    22912459.651
  22912460.055          41.750          46.250
 117800057.759 8  91792252.608 7  22416604.710    22416604.875    22416605.114
  22416605.486          48.250          44.750
 111849841.525 8  87155721.996 8  21284315.874    21284315.880    21284319.406
  21284319.656          53.000          53.750
 105689426.075 8  82355397.01647  20112027.763    20112027.105
  20112028.425          48.500          46.0004
 110309906.493 8  85955774.09847  20991276.754    20991276.100
  20991277.303          50.250          46.2504
 127888382.198 7  99653198.246 6  24336328.087    24336328.447    24336332.558
  24336332.385          42.250          41.250
 131533696.492 6 102493793.25442  25030028.961    25030029.389
  25030029.611          37.000          17.2504
 117171974.971 8  91302838.431 8  22297085.633    22297085.749    22297089.238
  22297089.414          49.000          49.250
 122917847.478 7  95780137.389 7  23390488.728    23390488.899    23390492.948
  23390492.585          43.500          44.250
 20  1  2  1 40 30.0000000  0  9G24G15G10G20G21G08G13G27G32
 120342687.178 6  93773519.678 7  22900451.185    22900451.385    22900454.681
  22900455.460          41.500          45.250
 117891388.214 7  91863419.194 7  22433984.497    22433984.479    22433985.567
  22433985.101          47.750          45.000
 111803698.626 8  87119766.489 8  21275535.276    21275535.272    21275538.360
  21275538.968          52.750          53.500
 105687087.240 8  82353574.55147  20111582.814    20111582.020
  20111583.321          48.500          46.0004
 110334129.130 8  85974648.87047  20995886.085    20995885.465
  20995886.606          50.500          46.0004
 127815406.453 6  99596334.032 6  24322441.194    24322441.169    24322446.174
  24322446.353          40.750          41.750
 131642039.880 6 102578216.66443  25050646.667    25050646.068
  25050648.959          37.000          18.0004
 117152301.135 8  91287508.164 8  22293342.079    22293341.957    22293345.487
  22293345.481          49.000          49.500
 122813634.181 7  95698932.220 7  23370657.589    23370658.124    23370661.238
  23370661.770          44.250          45.000
 20  1  2  1 41  0.0000000  0  9G24G15G10G20G21G08G13G27G32
 120280020.872 6  93724688.778 7  22888525.643    22888525.317    22888529.967
  22888530.411          40.250          45.750
 117983029.455 8  91934827.948 7  22451423.041    22451423.263    22451424.139
  22451424.012          48.000          45.250
 111757798.574 8  87084000.225 8  21266800.779    21266800.744    21266804.211
  21266804.607          52.750          53.750
 105685060.904 7  82351995.59847  20111196.941    20111196.304
  20111197.688          47.500          45.7504
 110358727.728 8  85993816.60447  21000567.135    21000566.540
  21000567.576          50.500          46.2504
 127742841.001 6  99539789.513 6  24308632.933    24308632.187    24308637.287
  24308636.935          41.500          41.250
 131750518.174 6 102662745.16443  25071289.736    25071288.370
  25071290.644          37.500          18.0004
 117133230.701 8  91272648.083 8  22289712.825    22289713.165    22289716.516
  22289716.679          48.500          49.500
 122709612.479 7  95617876.345 7  23350863.012    23350863.421    23350866.711
  23350866.707          43.500          44.500
 20  1  2  1 41 30.0000000  0  9G24G15G10G20G21G08G13G27G32
 120217771.609 6  93676182.892 7  22876680.443    22876680.315    22876685.626
  22876685.177          41.000          47.000
 118074976.869 8  92006475.286 7  22468920.370    22468920.396    22468921.133
  22468921.388          48.000          45.250
 111712139.544 8  87048421.758 8  21258111.947    21258112.240    21258115.557
  21258115.851          53.250          53.500
 105683345.196 7  82350658.68447  20110870.220    20110869.937
  20110871.131          47.750          45.7504
 110383700.722 8  86013276.06647  21005319.342    21005318.684
  21005319.812          50.000          46.2504
 127670686.560 6  99483565.268 7  24294901.308    24294901.298    24294906.601
  24294906.388          41.000          42.250
 131859127.175 6 102747375.54842  25091956.858    25091956.808
  25091957.794          36.500          16.5004
 117114762.305 8  91258257.117 8  22286198.691    22286198.353    22286202.474
  22286202.357          49.000          50.000
 122605782.501 7  95536969.872 7  23331104.832    23331104.781    23331108.589
  23331108.390          43.250          44.500
 20  1  2  1 42  0.0000000  0  9G24G15G10G20G21G08G13G27G32
 120155943.684 6  93628005.307 7  22864915.493    22864915.551    22864919.086
  22864918.635          41.750          45.750
 118167229.368 8  92078360.336 7  22486474.878    22486475.358    22486476.574
  22486476.462          48.000          45.500
 111666723.098 8  87013032.330 8  21249469.651    21249469.758    21249472.943
  21249473.338          53.000          53.500
 105681941.513 8  82349564.91047  20110603.370    20110602.726
  20110604.065          48.500          46.0004
 110409050.056 8  86033028.79947  21010143.267    21010142.468
  21010143.624          50.250          46.0004
 127598946.783 7  99427664.158 7  24281250.369    24281249.709    24281254.833
  24281254.858          42.000          42.750
 131967865.459 6 102832106.65642  25112648.946    25112649.730
  25112650.228          37.500          17.5004
 117096897.828 8  91244336.740 8  22282799.208    22282799.145    22282802.831
  22282802.690          48.750          49.500
 122502147.514 7  95456215.338 7  23311383.996    23311383.584    23311387.464
  23311387.291          43.500          44.500
 20  1  2  1 42 30.0000000  0  9G24G15G10G20G21G08G13G27G32
 120094537.937 6  93580156.663 7  22853229.555    22853230.102    22853233.056
  22853233.338          41.250          44.750
 118259782.641 8  92150479.761 7  22504087.477    22504087.452    22504088.944
  22504088.607          48.250          45.500
 111621547.806 8  86977830.804 8  21240872.937    21240873.050    21240876.503
  21240876.759          52.500          53.750
 105680848.220 8  82348712.99347  20110395.497    20110394.534
  20110395.993          48.250          45.7504
 110434774.497 8  86053073.80847  21015038.582    21015037.634
  21015039.100          50.500          46.0004
 127527622.050 7  99372086.436 7  24267677.783    24267677.155    24267682.104
  24267682.836          42.500          42.250
 132076728.934 6 102916935.35842  25133365.588    25133364.982
  25133366.154          37.500          15.5004
 117079636.242 8  91230886.152 8  22279514.542    22279514.227    22279517.877
  22279518.106          48.500          49.750
 122398708.010 7  95375613.129 7  23291699.520    23291699.922    23291703.145
  23291703.489          43.750          44.250
 20  1  2  1 43  0.0000000  0  9G24G15G10G20G21G08G13G27G32
 120033559.380 7  93532640.889 7  22841627.258    22841626.148    22841630.469
  22841630.598          42.000          46.250
 118352636.104 7  92222833.093 7  22521756.474    22521756.668    22521758.145
  22521758.072          47.500          45.000
 111576616.027 8  86942819.023 8  21232322.867    21232322.921    21232326.004
  21232326.568          52.750          53.750
 105680067.420 8  82348104.57647  20110246.721    20110246.028
  20110247.428          48.500          46.0004
 110460876.680 8  86073413.17147  21020005.416    21020004.690
  21020006.042          50.000          46.0004
 127456717.003 7  99316835.754 7  24254185.851    24254185.098    24254189.325
  24254189.600          42.500          42.500
 132185717.052 6 103001861.18143  25154105.939    25154105.523
  25154106.420          39.000          18.5004
 117062980.220 8  91217907.429 8  22276345.104    22276344.717    22276348.197
  22276348.348          48.000          49.750
 122295468.118 7  95295166.450 7  23272053.787    23272054.362    23272057.662
  23272057.449          44.250          44.250
 20  1  2  1 43 30.0000000  0  9G24G15G10G20G21G08G13G27G32
 119973009.042 6  93485458.871 7  22830103.397    22830104.023    22830108.395
  22830108.407          41.500          46.000
 118445784.360 7  92295416.153 7  22539482.370    22539482.397    22539483.761
  22539483.237          47.750          44.750
 111531925.232 8  86907995.023 9  21223818.345    21223818.561    21223821.746
  21223822.190          53.000          54.000
 105679596.501 8  82347737.62747  20110157.205    20110156.395
  20110157.783          48.500          46.0004
 110487353.949 8  86094044.80847  21025043.842    21025043.212
  21025044.586          50.000          46.0004
 127386231.295 7  99261911.834 7  24240772.199    24240772.508    24240776.188
  24240775.840          43.250          42.000
 132294824.800 6 103086880.20742  25174867.218    25174868.296
  25174868.866          38.500          16.5004
 117046927.554 8  91205398.853 8  22273290.190    22273289.956    22273293.805
  22273293.689          48.000          49.750
 122192427.153 7  95214874.780 7  23252446.072    23252446.385    23252449.832
  23252449.578          44.250          45.000
 20  1  2  1 44  0.0000000  0  9G24G15G10G20G21G08G13G27G32
 119912889.815 6  93438612.688 7  22818663.670    22818663.428    22818667.038
  22818666.687          41.250          44.750
 118539225.574 7  92368227.488 7  22557263.703    22557263.844    22557265.211
  22557264.795          47.750          44.500
 111487476.407 8  86873359.586 8  21215360.015    21215360.153    21215363.418
  21215363.809          52.250          53.750
 105679435.939 8  82347612.51047  20110126.598    20110125.857
  20110127.391          48.250          45.7504
 110514207.567 8  86114969.70447  21030153.834    21030153.199
  21030154.713          50.250          46.0004
 127316167.883 7  99207316.979 7  24227439.506    24227439.329    24227444.564
  24227443.533          43.000          43.000
 132404050.545 6 103171991.17942  25195653.185    25195651.620
  25195653.681          38.500          16.2504
 117031479.456 7  91193361.370 8  22270350.264    22270350.023    22270353.976
  22270353.853          47.500          49.750
 122089587.877 7  95134740.275 7  23232876.101    23232877.059    23232880.229
  23232880.954          44.500          45.500
 20  1  2  1 44 30.0000000  0  9G24G15G10G20G21G08G13G27G32
 119853206.861 6  93392106.490 7  22807306.716    22807306.401    22807309.597
  22807310.655          41.750          45.750
 118632959.128 8  92441266.623 7  22575100.752    22575100.876    22575102.271
  22575101.517          48.000          44.750
 111443271.901 8  86838914.513 8  21206948.255    21206948.276    21206951.501
  21206952.011          52.250          53.750
 105679588.025 7  82347731.02447  20110155.652    20110154.803
  20110156.180          47.750          45.7504
 110541440.432 8  86136190.10547  21035336.079    21035335.454
  21035336.898          49.500          46.0004
 127246531.137 7  99153054.583 7  24214187.424    24214186.828    24214192.324
  24214192.829          42.000          43.500
 132513393.899 6 103257193.78242  25216459.936    25216459.814
  25216460.966          38.750          16.7504
 117016638.556 7  91181797.022 8  22267526.339    22267526.213    22267529.721
  22267529.922          47.500          49.500
 121986954.448 7  95054766.178 7  23213345.166    23213346.134    23213350.037
  23213349.719          43.750          45.750
 20  1  2  1 45  0.0000000  0  9G24G15G10G20G21G08G13G27G32
 119793961.290 7  93345941.111 7  22796032.290    22796032.367    22796035.915
  22796035.806          42.500          46.250
 118726981.226 7  92514530.588 7  22592992.341    22592992.537    22592993.193
  22592993.443          47.750          44.750
 111399310.628 8  86804658.978 8  21198582.733    21198582.838    21198585.999
  21198586.507          53.250          53.750
 105680051.443 8  82348092.13347  20110243.545    20110242.902
  20110244.466          48.750          45.7504
 110569051.560 8  86157705.25747  21040590.172    21040589.588
  21040591.187          49.750          46.0004
 127177321.727 7  99099125.152 7  24201017.499    24201017.627    24201022.925
  24201021.693          42.250          43.500
 132622851.235 6 103342485.26242  25237289.126    25237288.887
  25237290.389          38.000          15.5004
 117002404.034 8  91170705.182 8  22264817.812    22264817.532    22264820.974
  22264821.137          48.000          49.750
 121884527.594 7  94974953.058 7  23193854.419    23193854.683    23193858.550
  23193858.800          43.750          45.750
 20  1  2  1 45 30.0000000  0  9G24G15G10G20G21G08G13G27G32
 119735156.008 7  93300118.812 7  22784842.045    22784842.294    22784845.217
  22784845.936          42.750          45.750
 118821288.493 8  92588016.753 7  22610938.803    22610938.346    22610939.490
  22610939.935          48.250          44.750
 111355592.334 8  86770592.779 8  21190263.240    21190263.511    21190266.610
  21190267.196          53.000          53.750
 105680825.747 8  82348695.48847  20110391.242    20110390.342
  20110391.819          49.250          45.5004
 110597040.572 8  86179514.86547  21045916.343    21045915.798
  21045917.163          49.750          46.0004
 127108542.152 7  99045530.667 7  24187929.565    24187929.045    24187933.963
  24187933.717          42.750          43.000
 132732419.507 6 103427863.15842  25258139.586    25258139.108
  25258139.202          36.500          14.5004
 116988775.783 8  91160085.759 8  22262224.358    22262224.185    22262227.722
  22262227.783          48.250          49.500
 121782308.825 7  94895302.071 7  23174401.858    23174403.094    23174406.917
  23174406.737          43.250          45.500
 20  1  2  1 46  0.0000000  0  9G24G15G10G20G21G08G13G27G32
 119676793.757 6  93254641.748 7  22773735.275    22773736.192    22773739.998
  22773740.029          41.500          46.250
 118915878.259 7  92661723.053 7  22628938.289    22628938.269    22628939.487
  22628939.251          47.750          45.000
 111312117.122 8  86736716.005 8  21181990.464    21181990.382    21181993.398
  21181994.105          52.750          53.500
 105681910.884 8  82349541.05147  20110597.321    20110596.819
  20110598.180          48.500          45.7504
 110625407.549 8  86201619.00347  21051314.439    21051313.907
  21051315.263          49.750          46.0004
 127040194.042 7  98992272.377 7  24174922.897    24174922.610    24174928.170
  24174927.081          42.000          42.750
 132842096.187 6 103513325.49442  25279010.085    25279010.379
  25279010.878          36.500          15.7504
 116975754.116 8  91149939.000 8  22259746.366    22259746.342    22259749.682
  22259749.873          48.250          49.750
 121680300.064 7  94815814.732 7  23154990.618    23154991.348    23154995.251
  23154995.380          43.250          45.500
 20  1  2  1 46 30.0000000  0  9G24G15G10G20G21G08G13G27G32
 119618877.083 6  93209511.887 7  22762714.636    22762714.445    22762718.828
  22762719.014          41.500          46.500
 119010748.099 8  92735647.605 7  22646991.693    22646991.893    22646992.617
  22646991.992          48.250          44.500
 111268885.502 8  86703029.028 9  21173763.621    21173763.721    21173766.978
  21173767.303          52.750          54.000
 105683307.136 8  82350629.03947  20110863.257    20110862.530
  20110863.883          48.000          45.7504
 110654153.448 8  86224018.40347  21056784.700    21056784.155
  21056785.361          50.000          46.0004
 126972279.829 7  98939352.197 7  24161999.536    24161999.186    24162004.034
  24162003.859          42.250          43.000
 132951884.315 6                  25299901.443
                        36.250
 116963339.669 8  91140265.396 8  22257384.246    22257383.793    22257387.535
  22257387.502          48.250          49.500
 121578503.632 7  94736492.848 7  23135619.782    23135619.888    23135623.614
  23135624.106          43.750          45.250
 20  1  2  1 47  0.0000000  0  8G24G15G10G20G21G08G27G32
 119561408.383 6  93164731.075 7  22751778.388    22751778.683    22751782.955
  22751783.099          41.250          46.500
 119105895.039 8  92809788.081 7  22665097.388    22665097.516    22665098.203
  22665097.967          48.000          44.250
 111225897.180 8  86669531.643 9  21165583.196    21165583.366    21165586.426
  21165586.897          53.000          54.000
 105685013.908 7  82351958.99047  20111188.170    20111187.354
  20111188.749          47.000          45.7504
 110683278.141 8  86246712.96747  21062327.013    21062326.272
  21062327.709          49.500          45.7504
 126904801.508 7  98886771.690 7  24149159.316    24149159.214    24149163.269
  24149162.586          43.250          42.500
 116951532.244 7  91131064.808 8  22255136.910    22255136.788    22255140.374
  22255140.600          47.750          49.500
 121476920.939 7  94657337.500 7  23116289.427    23116289.641    23116293.089
  23116293.273          44.000          45.000
 20  1  2  1 47 30.0000000  0  8G24G15G10G20G21G08G27G32
 119504391.516 6  93120302.375 7  22740928.372    22740928.961    22740933.399
  22740933.541          41.750          46.500
 119201317.255 8  92884143.032 7  22683255.825    22683255.652    22683256.059
  22683255.978          48.000          44.000
 111183153.039 8  86636224.538 9  21157449.112    21157449.278    21157452.458
  21157452.934          52.750          54.250
 105687031.855 7  82353531.41647  20111572.048    20111571.314
  20111572.698          47.250          45.7504
 110712782.406 8  86269703.30047  21067941.429    21067940.827
  21067942.276          49.750          46.0004
 126837761.739 7  98834532.923 7  24136402.102    24136401.465    24136406.475
  24136406.051          43.250          42.500
 116940332.847 8  91122337.993 8  22253006.180    22253005.887    22253009.505
  22253009.293          48.500          49.250
 121375554.728 7  94578350.836 7  23097000.115    23097000.335    23097003.938
  23097004.005          43.750          45.000
 20  1  2  1 48  0.0000000  0  8G24G15G10G20G21G08G27G32
 119447828.012 7  93076226.914 7  22730165.139    22730165.245    22730169.429
  22730169.266          42.000          46.250
 119297010.808 7  92958709.435 7  22701465.279    22701465.238    22701467.177
  22701466.388          47.500          44.500
 111140652.454 8  86603107.212 9  21149361.707    21149361.775    21149364.877
  21149365.501          52.750          54.000
 105689360.176 7  82355345.68747  20112015.143    20112014.509
  20112015.835          47.000          45.7504
 110742665.848 8  86292989.09847  21073628.238    21073627.435
  21073628.781          49.750          46.0004
 126771161.929 7  98782636.963 7  24123728.406    24123728.280    24123732.708
  24123733.025          43.000          43.250
 116929740.946 8  91114084.546 8  22250990.425    22250990.246    22250993.572
  22250993.545          48.250          49.250
 121274406.070 7  94499533.690 7  23077752.325    23077752.418    23077755.751
  23077755.424          44.500          44.750
 20  1  2  1 48 30.0000000  0  8G24G15G10G20G21G08G27G32
 119391721.001 7  93032507.166 7  22719488.274    22719488.288    22719492.243
  22719492.798          42.250          46.000
 119392973.669 7  93033485.702 7  22719726.128    22719726.979    22719727.685
  22719727.827          47.250          44.500
 111098395.791 8  86570179.947 9  21141320.315    21141320.388    21141323.581
  21141324.100          53.000          54.000
 105691999.036 7  82357401.93747  20112517.360    20112516.614
  20112518.107          47.750          45.7504
 110772928.929 8  86316570.71547  21079387.040    21079386.481
  21079387.809          50.250          46.0004
 126705004.358 7  98731085.624 7  24111138.733    24111138.358    24111143.212
  24111142.530          42.500          43.000
 116919756.927 8  91106304.792 8  22249090.196    22249090.061    22249093.757
  22249093.697          48.000          49.500
 121173477.173 7  94420887.799 7  23058546.403    23058546.337    23058549.638
  23058550.256          44.750          45.250
 20  1  2  1 49  0.0000000  0  8G24G15G10G20G21G08G27G32
 119336073.017 7  92989145.108 7  22708899.223    22708899.181    22708903.292
  22708903.413          42.750          46.500
 119489203.278 8  93108469.804 7  22738039.015    22738038.917    22738039.390
  22738039.406          48.250          44.250
 111056383.856 8  86537443.358 9  21133325.715    21133325.844    21133329.149
  21133329.697          53.000          54.000
 105694949.048 8  82359700.64747  20113078.594    20113077.939
  20113079.385          48.000          45.7504
 110803572.524 8  86340448.84247  21085218.301    21085217.755
  21085218.985          49.750          46.2504
 126639291.822 7  98679881.049 7  24098634.165    24098634.403    24098638.949
  24098638.905          42.500          43.500
 116910381.638 8  91098999.360 8  22247306.339    22247306.347    22247310.034
  22247309.958          48.250          49.750
 121072770.572 7  94342415.130 7  23039381.888    23039382.332    23039386.269
  23039385.977          43.750          45.500
 20  1  2  1 49 30.0000000  0  8G24G15G10G20G21G08G27G32
 119280886.661 6  92946142.732 7  22698395.997    22698397.333    22698401.077
  22698401.136          40.500          45.750
 119585696.258 7  93183659.107 7  22756400.544    22756400.700    22756401.453
  22756401.931          47.250          44.250
 111014615.572 8  86504896.635 9  21125377.586    21125377.653    21125380.934
  21125381.339          53.000          54.000
 105698208.956 8  82362240.83547  20113698.737    20113698.345
  20113699.777          48.500          45.7504
 110834595.626 8  86364622.68147  21091121.953    21091121.159
  21091122.466          50.000          46.2504
 126574025.351 7  98629024.043 7  24086214.492    24086213.884    24086218.793
  24086218.625          42.750          43.250
 116901613.946 8  91092167.391 8  22245637.683    22245637.831    22245641.297
  22245641.520          48.000          49.500
 120972286.927 7  94264116.210 7  23020260.328    23020260.640    23020264.666
  23020265.319          43.750          46.250
 20  1  2  1 50  0.0000000  0  8G24G15G10G20G21G08G27G32
 119226164.263 7  92903501.942 7  22687984.003    22687984.013    22687987.569
  22687988.385          42.500          45.750
 119682450.662 7  93259052.131 7  22774812.139    22774812.562    22774813.209
  22774813.303          47.250          43.750
 110973092.004 8  86472540.592 9  21117475.829    21117475.998    21117479.200
  21117479.801          53.500          54.000
 105701779.250 8  82365022.87147  20114378.240    20114377.657
  20114379.149          48.750          46.0004
 110865999.210 8  86389093.00047  21097097.876    21097097.132
  21097098.473          50.250          46.0004
 126509207.684 7  98578516.769 7  24073879.783    24073879.097    24073884.333
  24073884.633          43.000          43.000
 116893454.954 8  91085809.708 8  22244085.342    22244085.272    22244088.795
  22244088.641          48.500          49.250
 120872029.064 7  94185993.225 7  23001182.052    23001182.458    23001186.807
  23001186.519          44.000          46.250
 20  1  2  1 50 30.0000000  0  8G24G15G10G20G21G08G27G32
 119171910.346 7  92861226.190 7  22677659.183    22677660.200    22677663.862
  22677663.538          42.250          46.500
 119779464.470 7  93334647.310 7  22793272.872    22793273.708    22793274.577
  22793274.201          47.000          43.750
 110931814.189 8  86440376.071 9  21109620.870    21109621.066    21109624.382
  21109624.853          53.250          54.000
 105705661.046 8  82368047.64547  20115117.145    20115116.337
  20115117.783          49.000          45.7504
 110897784.391 8  86413860.66847  21103146.233    21103145.690
  21103146.911          50.500          46.0004
 126444841.486 7  98528361.285 7  24061632.161    24061631.596    24061635.329
  24061635.522          43.500          43.250
 116885905.512 8  91079927.033 8  22242648.906    22242648.778    22242651.870
  22242652.157          49.250          49.500
 120771999.698 7  94108048.267 7  22982147.195    22982147.325    22982150.837
  22982151.020          44.250          45.500
 20  1  2  1 51  0.0000000  0  8G24G15G10G20G21G08G27G32
 119118124.963 7  92819315.485 7  22667424.489    22667424.686    22667428.054
  22667428.826          43.000          46.250
 119876733.115 7  93410441.062 7  22811783.179    22811783.383    22811783.846
  22811783.650          47.500          43.750
 110890780.263 8  86408401.596 9  21101812.536    21101812.663    21101815.954
  21101816.242          53.500          54.000
 105709852.206 8  82371313.48347  20115914.752    20115914.013
  20115915.294          48.750          45.7504
 110929949.264 8  86438924.19947  21109266.990    21109266.451
  21109267.593          50.250          46.2504
 126380927.479 7  98478558.181 7  24049468.744    24049468.923    24049473.719
  24049473.957          42.750          43.000
 116878963.708 8  91074517.837 8  22241327.701    22241327.615    22241331.134
  22241331.573          48.500          49.750
 120672198.710 7  94030281.271 7  22963155.450    22963156.042    22963159.480
  22963159.066          44.750          45.000
 20  1  2  1 51 30.0000000  0  8G24G15G10G20G21G08G27G32
 119064811.479 7  92777772.538 7  22657279.223    22657279.513    22657282.627
  22657283.178          43.000          45.000
 119974254.941 7  93486432.110 7  22830340.929    22830341.282    22830341.793
  22830341.622          47.500          43.500
 110849991.368 8  86376618.043 9  21094050.598    21094050.736    21094053.928
  21094054.444          53.250          54.000
 105714353.605 8  82374821.06747  20116771.188    20116770.504
  20116771.883          48.500          45.7504
 110962495.146 8  86464284.62147  21115460.327    21115459.640
  21115460.953          50.000          45.7504
 126317468.409 7  98429109.551 7  24037393.699    24037392.821    24037397.807
  24037397.588          43.000          43.000
 116872630.587 8  91069582.924 8  22240122.686    22240122.456    22240126.383
  22240126.176          49.250          50.000
 120572629.015 7  93952694.491 7  22944208.102    22944208.656    22944211.932
  22944211.839          44.750          45.500
 20  1  2  1 52  0.0000000  0  8G24G15G10G20G21G08G27G32
 119011973.324 7  92736599.972 7  22647224.628    22647224.834    22647228.144
  22647228.121          43.750          45.750
 120072027.525 7  93562618.526 7  22848946.490    22848946.471    22848947.580
  22848946.984          47.250          43.750
 110809448.071 8  86345025.867 9  21086335.460    21086335.620    21086338.863
  21086339.309          53.250          54.250
 105719165.676 8  82378570.73347  20117686.921    20117686.232
  20117687.662          48.500          45.5004
 110995423.106 8  86489942.77347  21121726.270    21121725.670
  21121726.965          50.250          45.7504
 126254466.610 7  98380017.216 7  24025404.689    24025404.257    24025408.625
  24025408.428          43.500          42.750
 116866906.601 8  91065122.669 8  22239033.635    22239033.425    22239036.864
  22239036.699          49.750          49.250
 120473292.880 7  93875289.729 7  22925305.146    22925305.449    22925309.003
  22925309.149          44.750          46.000
 20  1  2  1 52 30.0000000  0  8G24G15G10G20G21G08G27G32
 118959612.771 7  92695799.542 7  22637259.993    22637260.601    22637264.468
  22637264.970          42.000          45.500
 120170048.813 7  93638998.739 7  22867599.106    22867598.911    22867600.279
  22867600.456          46.750          43.750
 110769150.744 8  86313625.363 9  21078667.171    21078667.215    21078670.488
  21078670.832          53.250          54.000
 105724288.502 7  82382562.53847  20118661.738    20118661.109
  20118662.528          47.750          45.5004
 111028732.471 8  86515898.12247  21128064.831    21128064.266
  21128065.573          50.250          46.0004
 126191924.028 7  98331282.719 7  24013503.121    24013501.995    24013507.444
  24013506.794          42.500          43.500
 116861791.873 8  91061137.176 8  22238059.691    22238059.793    22238063.516
  22238063.497          48.500          49.250
 120374192.424 7  93798068.594 7  22906447.171    22906447.853    22906450.754
  22906450.648          45.000          46.250
 20  1  2  1 53  0.0000000  0  8G24G15G10G20G21G08G27G32
 118907732.129 7  92655373.081 7  22627388.152    22627388.294    22627391.235
  22627392.153          43.000          45.000
 120268314.891 7  93715569.692 7  22886298.133    22886298.785    22886299.478
  22886299.364          46.750          43.750
 110729098.794 8  86282416.056 9  21071045.529    21071045.542    21071048.830
  21071049.410          53.500          54.250
 105729721.292 8  82386795.87947  20119695.782    20119694.948
  20119696.315          48.250          45.7504
 111062422.979 8  86542150.46147  21134475.936    21134475.241
  21134476.643          50.250          45.7504
 126129842.248 7  98282907.308 7  24001689.257    24001689.050    24001693.403
  24001692.768          43.000          42.500
 116857285.659 8  91057625.822 8  22237202.590    22237202.404    22237205.945
  22237205.794          49.500          49.250
 120275328.711 7  93721031.950 7  22887633.815    22887633.602    22887638.036
  22887638.058          44.250          46.500
 20  1  2  1 53 30.0000000  0  8G24G15G10G20G21G08G27G32
 118856334.409 7  92615322.928 7  22617606.646    22617607.337    22617611.374
  22617611.466          43.250          46.500
 120366824.657 7  93792330.557 7  22905044.390    22905044.883    22905046.032
  22905045.523          47.000          44.000
 110689293.546 8  86251398.987 9  21063470.623    21063470.863    21063474.149
  21063474.577          53.000          54.000
 105735465.171 8  82391271.62447  20120788.544    20120787.975
  20120789.239          49.000          45.7504
 111096496.385 8  86568701.16747  21140960.032    21140959.285
  21140960.628          50.750          45.7504
 126068224.171 7  98234893.231 7  23989963.456    23989963.222    23989967.726
  23989967.817          42.250          43.250
 116853388.952 8  91054589.428 8  22236460.919    22236460.781    22236464.108
  22236464.444          48.750          49.250
 120176704.662 7  93644182.064 7  22868866.348    22868866.166    22868870.762
  22868870.585          44.500          47.000
 20  1  2  1 54  0.0000000  0  8G24G15G10G20G21G08G27G32
 118805420.029 7  92575649.422 7  22607919.444    22607919.111    22607923.582
  22607923.287          44.500          47.250
 120465573.192 7  93869277.470 7  22923835.633    22923835.899    22923836.428
  22923836.662          47.250          43.250
 110649732.873 8  86220572.501 9  21055942.483    21055942.714    21055946.020
  21055946.527          53.500          54.000
 105741517.876 8  82395988.02047  20121940.413    20121939.731
  20121941.168          48.750          45.7504
 111130950.051 8  86595548.17947  21147516.194    21147515.480
  21147516.867          50.000          45.5004
 126007069.760 6  98187240.436 7  23978326.122    23978326.155    23978330.630
  23978330.552          41.750          43.250
 116850099.521 8  91052026.231 8  22235835.045    22235834.924    22235838.481
  22235838.873          49.250          49.250
 120078320.009 7  93567518.713 7  22850144.361    22850144.780    22850148.231
  22850148.578          45.000          46.750
 20  1  2  1 54 30.0000000  0  8G24G15G10G20G21G08G27G32
 118754992.902 7  92536355.550 7  22598323.008    22598323.230    22598326.659
  22598326.946          44.750          46.250
 120564558.671 7  93946408.996 7  22942671.456    22942672.131    22942673.183
  22942672.966          46.500          43.500
 110610418.023 8  86189937.562 9  21048461.268    21048461.407    21048464.486
  21048464.930          53.000          54.000
 105747880.238 8  82400945.70447  20123151.224    20123150.397
  20123151.846          49.250          45.5004
 111165785.267 8  86622692.49447  21154144.886    21154144.413
  21154145.806          50.750          45.7504
 125946382.211 7  98139951.431 7  23966777.556    23966777.502    23966782.641
  23966782.138          42.000          43.500
 116847418.296 8  91049936.948 8  22235325.071    22235324.968    22235328.492
  22235328.559          50.000          50.000
 119980177.723 7  93491044.201 7  22831468.647    22831468.794    22831472.945
  22831472.865          45.000          47.000
 20  1  2  1 55  0.0000000  0  8G24G15G10G20G21G08G27G32
 118705056.015 7  92497443.720 7  22588819.581    22588820.647    22588824.874
  22588824.240          43.750          47.500
 120663779.324 7  94023723.800 7  22961552.772    22961552.870    22961553.983
  22961554.374          46.000          43.500
 110571350.110 8  86159495.035 9  21041026.707    21041027.032    21041030.327
  21041030.720          53.000          54.000
 105754553.071 8  82406145.31147  20124421.004    20124420.310
  20124421.681          49.000          45.7504
 111201003.060 8  86650134.93247  21160846.777    21160846.367
  21160847.501          50.500          45.5004
 125886163.701 7  98093027.925 7  23955318.474    23955318.319    23955323.674
  23955323.104          42.000          43.750
 116845346.073 8  91048322.225 8  22234930.401    22234930.277    22234934.077
  22234934.166          48.750          49.500
 119882280.493 7  93414760.648 7  22812839.075    22812839.531    22812843.278
  22812843.201          45.000          46.250
 20  1  2  1 55 30.0000000  0  8G24G15G10G20G21G08G27G32
 118655612.270 7  92458916.115 7  22579411.627    22579411.339    22579415.503
  22579415.223          44.750          47.000
 120763233.207 7  94101220.312 7  22980478.551    22980478.432    22980479.313
  22980479.131          46.250          43.000
 110532529.563 8  86129245.253 9  21033639.576    21033639.802    21033643.016
  21033643.340          53.000          54.250
 105761536.400 8  82411586.86247  20125749.826    20125749.170
  20125750.515          49.500          45.7504
 111236603.835 8  86677875.79547  21167621.458    21167620.765
  21167622.074          51.000          45.5004
 125826417.092 7  98046472.123 7  23943949.028    23943948.897    23943953.854
  23943953.558          42.000          43.750
 116843882.936 8  91047182.108 8  22234652.281    22234652.287    22234655.689
  22234655.626          48.250          50.000
 119784630.450 7  93338669.702 7  22794256.920    22794256.936    22794261.167
  22794261.249          44.000          46.500
 20  1  2  1 56  0.0000000  0  8G24G15G10G20G21G08G27G32
 118606662.812 7  92420773.666 7  22570097.032    22570096.663    22570099.607
  22570100.671          44.750          44.750
 120862915.802 7  94178895.049 7  22999447.566    22999447.388    22999448.350
  22999448.814          47.000          44.000
 110493954.929 8  86099187.092 9  21026298.920    21026299.171    21026302.414
  21026302.899          53.000          54.250
 105768829.121 8  82417269.49447  20127137.693    20127136.955
  20127138.405          48.500          45.7504
 111272586.022 8  86705913.85647  21174468.820    21174468.050
  21174469.339          50.750          45.5004
 125767142.369 7  98000284.024 7  23932670.087    23932669.490    23932674.221
  23932673.297          42.750          43.750
 116843027.056 7  91046515.178 8  22234489.244    22234488.946    22234492.739
  22234492.841          47.000          49.250
 119687227.820 7  93262771.560 7  22775721.950    22775722.181    22775726.056
  22775725.993          45.500          46.500
 20  1  2  1 56 30.0000000  0  8G24G15G10G20G21G08G27G32
 118558209.556 7  92383017.913 7  22560875.592    22560876.653    22560879.624
  22560880.518          43.250          45.750
 120962824.610 7  94256746.078 7  23018459.832    23018459.510    23018460.387
  23018460.768          47.000          43.250
 110455626.379 8  86069320.704 9  21019005.376    21019005.512    21019008.624
  21019009.204          53.250          54.250
 105776430.572 8  82423192.69947  20128584.068    20128583.297
  20128584.774          48.750          45.5004
 111308949.539 8  86734249.06047  21181388.455    21181387.797
  21181389.240          50.750          45.5004
 125708341.159 7  97954464.905 7  23921479.847    23921479.415    23921484.501
  23921484.723          42.250          43.250
 116842778.191 7  91046321.239 8  22234442.196    22234441.942    22234445.702
  22234445.680          46.750          49.750
 119590074.397 7  93187067.593 7  22757234.109    22757234.850    22757238.007
  22757238.174          45.000          46.250
 20  1  2  1 57  0.0000000  0  8G24G15G10G20G21G08G27G32
 118510257.003 7  92345652.281 7  22551751.092    22551751.261    22551754.583
  22551755.274          44.500          46.500
 121062958.981 7  94334772.841 7  23037514.362    23037515.056    23037516.158
  23037515.718          46.500          43.500
 110417546.136 8  86039647.790 9  21011759.058    21011758.979    21011762.182
  21011762.759          53.250          54.250
 105784343.145 8  82429358.33847  20130089.772    20130089.099
  20130090.535          48.750          45.7504
 111345696.820 8  86762883.30147  21188381.019    21188380.401
  21188381.939          50.250          45.5004
 125650017.902 7  97909018.212 7  23910381.388    23910381.524    23910385.973
  23910385.587          42.750          43.500
 116843138.179 7  91046601.744 8  22234510.529    22234510.531    22234514.476
  22234514.074          47.500          50.000
 119493174.073 7  93111560.844 7  22738794.662    22738795.119    22738798.181
  22738798.670          45.250          46.250
 20  1  2  1 57 30.0000000  0  8G24G15G10G20G21G08G27G32
 118462804.890 7  92308676.613 7  22542722.290    22542721.218    22542725.136
  22542725.317          45.750          46.500
 121163313.786 7  94412971.385 7  23056611.931    23056611.238    23056612.611
  23056611.805          46.750          43.000
 110379711.899 8  86010166.572 9  21004559.316    21004559.404    21004562.597
  21004563.057          53.000          54.250
 105792564.277 8  82435764.40947  20131654.332    20131653.639
  20131654.928          48.750          45.7504
 111382825.289 8  86791814.56347  21195446.294    21195445.763
  21195447.199          50.500          45.5004
 125592171.969 7  97863943.455 7  23899373.820    23899373.499    23899378.986
  23899378.313          42.500          43.750
 116844104.242 8  91047354.515 8  22234694.631    22234694.469    22234697.642
  22234697.802          48.750          49.500
 119396526.182 7  93036250.797 7  22720403.140    22720403.110    22720407.566
  22720407.407          44.750          47.000
 20  1  2  1 58  0.0000000  0  8G24G15G10G20G21G08G27G32
 118415857.065 7  92272093.901 7  22533786.884    22533786.852    22533791.305
  22533791.576          44.000          47.000
 121263888.076 7  94491340.947 7  23075750.136    23075750.379    23075751.609
  23075751.119          46.000          43.000
 110342125.531 8  85980878.491 9  20997406.928    20997406.932    20997410.282
  20997410.768          53.250          54.500
 105801095.609 8  82442412.19947  20133277.951    20133276.968
  20133278.341          49.250          45.5004
 111420336.304 8  86821043.91547  21202584.761    21202583.954
  21202585.336          50.750          45.5004
 125534806.882 7  97819243.382 7  23888457.034    23888457.689    23888462.055
  23888462.342          42.250          43.500
 116845677.826 8  91048580.676 8  22234993.866    22234993.770    22234997.465
  22234997.393          49.500          49.750
 119300134.231 7  92961140.189 7  22702060.361    22702060.698    22702064.513
  22702064.533          45.500          47.250
 20  1  2  1 58 30.0000000  0  8G24G15G10G20G21G08G27G32
 118369416.874 7  92235906.760 7  22524949.444    22524950.152    22524953.917
  22524954.356          44.500          47.000
 121364679.810 7  94569879.957 7  23094930.254    23094929.958    23094931.147
  23094931.431          45.750          43.000
 110304787.772 8  85951784.139 9  20990301.661    20990301.844    20990304.903
  20990305.437          53.500          54.500
 105809937.511 8  82449301.98547  20134960.502    20134959.704
  20134961.030          48.500          45.7504
 111458230.854 8  86850572.14047  21209795.656    21209795.059
  21209796.377          50.250          45.5004
 125477924.234 7  97774919.232 7  23877632.662    23877632.956    23877638.159
  23877637.621          42.750          43.500
 116847859.132 8  91050280.378 8  22235408.913    22235408.661    22235412.217
  22235412.616          49.250          49.750
 119204000.598 7  92886230.870 7  22683766.902    22683767.015    22683771.397
  22683771.236          45.750          47.500
 20  1  2  1 59  0.0000000  0  8G24G15G10G20G21G08G27G32
 118323485.266 7  92200115.898 7  22516209.297    22516209.796    22516214.197
  22516213.545          44.500          47.750
 121465684.804 7  94648585.117 7  23114150.205    23114150.689    23114151.351
  23114151.936          45.250          42.500
 110267697.396 8  85922882.556 9  20983243.504    20983243.754    20983247.110
  20983247.463          53.000          54.250
 105819088.113 8  82456432.32847  20136701.598    20136700.864
  20136702.318          48.500          45.7504
 111496507.215 8  86880397.86847  21217079.385    21217078.837
  21217080.054          50.500          45.2504
 125421525.462 7  97730972.139 7  23866901.100    23866900.443    23866905.389
  23866905.464          43.250          43.500
 116850646.373 8  91052452.250 8  22235939.097    22235939.023    22235942.877
  22235942.764          49.000          49.500
 119108125.647 7  92811523.130 7  22665522.397    22665522.590    22665526.682
  22665526.479          45.250          47.500
 20  1  2  1 59 30.0000000  0  8G24G15G10G20G21G08G27G32
 118278064.590 7  92164723.166 7  22507567.206    22507566.453    22507569.966
  22507570.480          45.000          47.000
 121566900.865 7  94727454.763 7  23133411.403    23133411.451    23133412.585
  23133412.022          45.750          43.000
 110230854.342 8  85894173.688 9  20976232.739    20976232.885    20976236.208
  20976236.521          53.750          54.500
 105828547.623 8  82463803.36647  20138501.736    20138500.950
  20138502.288          48.500          45.7504
 111535165.464 8  86910521.17447  21224435.821    21224435.290
  21224436.431          50.250          45.5004
 125365611.813 7  97687403.054 7  23856260.908    23856260.790    23856265.563
  23856265.637          43.000          43.750
 116854039.003 8  91055095.846 8  22236585.142    22236584.783    22236588.673
  22236588.579          49.750          49.500
 119012510.973 7  92737018.174 7  22647327.459    22647327.940    22647332.160
  22647331.851          45.500          47.250
 20  1  2  2  0  0.0000000  0  8G24G15G10G20G21G08G27G32
 118233157.272 7  92129730.434 7  22499021.228    22499020.831    22499023.916
  22499024.796          45.250          46.500
 121668326.390 7  94806487.630 7  23152712.363    23152712.707    23152712.852
  23152713.271          46.250          42.250
 110194259.884 8  85865658.542 9  20969269.253    20969269.258    20969272.423
  20969272.755          53.500          54.500
 105838317.185 8  82471416.01347  20140360.631    20140360.077
  20140361.453          49.000          45.5004
 111574206.425 8  86940942.69847  21231865.173    21231864.480
  21231866.050          50.750          45.7504
 125310186.246 7  97644214.295 7  23845713.729    23845714.170    23845718.115
  23845717.575          43.500          43.500
 116858037.656 8  91058211.666 8  22237345.563    22237345.615    22237349.352
  22237349.403          49.750          49.500
 118917159.430 7  92662718.276 7  22629182.811    22629183.349    22629186.985
  22629186.664          46.000          47.000
 20  1  2  2  0 30.0000000  0  8G24G15G10G20G21G08G27G32
 118188765.244 7  92095139.274 7  22490572.432    22490572.981    22490576.943
  22490577.685          44.000          46.750
 121769957.751 7  94885680.911 7  23172051.975    23172051.743    23172052.734
  23172052.942          45.500          43.000
 110157913.555 8  85837336.737 9  20962352.509    20962352.587    20962355.832
  20962356.360          53.250          54.250
 105848395.884 8  82479269.54047  20142278.516    20142277.875
  20142279.416          48.500          45.7504
 111613629.532 8  86971661.99547  21239367.393    21239366.588
  21239367.944          50.500          45.2504
 125255249.388 7  97601406.343 7  23835259.107    23835258.931    23835263.973
  23835264.044          43.000          43.750
 116862641.261 8  91061798.882 8  22238221.960    22238221.648    22238225.325
  22238225.444          49.750          49.500
 118822072.152 7  92588624.299 7  22611088.262    22611088.673    22611092.478
  22611092.346          45.500          46.750
 20  1  2  2  1  0.0000000  0  8G24G15G10G20G21G08G27G32
 118144891.287 7  92060951.791 7  22482223.964    22482224.402    22482228.175
  22482228.472          45.000          47.500
 121871792.962 7  94965032.996 7  23191430.304    23191430.952    23191431.150
  23191431.440          44.500          42.250
 110121815.931 8  85809208.732 9  20955483.319    20955483.453    20955486.530
  20955487.077          53.250          54.250
 105858783.850 8  82487364.05247  20144255.440    20144254.712
  20144256.116          48.500          45.5004
 111653435.237 8  87002679.42047  21246941.856    21246941.276
  21246942.658          50.500          45.5004
 125200803.909 7  97558981.287 7  23824899.842    23824898.642    23824903.254
  23824903.416          44.250          43.500
 116867849.753 8  91065857.432 8  22239212.959    22239212.802    22239216.767
  22239216.622          49.000          49.500
 118727251.311 7  92514737.918 7  22593044.511    22593044.859    22593048.356
  22593048.394          45.750          47.000
 20  1  2  2  1 30.0000000  0  8G24G15G10G20G21G08G27G32
 118101537.912 7  92027169.918 8  22473973.917    22473974.192    22473978.744
  22473978.951          45.000          48.000
 121973829.318 7  95044541.832 7  23210847.652    23210847.378    23210848.824
  23210848.122          46.000          43.000
 110085967.028 8  85781274.526 9  20948661.541    20948661.643    20948664.855
  20948665.350          53.250          54.500
 105869481.063 8  82495699.53147  20146291.060    20146290.274
  20146291.732          49.000          45.5004
 111693623.402 8  87033994.86947  21254589.411    21254588.672
  21254590.120          50.500          45.5004
 125146851.516 7  97516940.462 7  23814632.192    23814632.221    23814637.139
  23814636.583          43.000          43.750
 116873662.541 8  91070386.881 8  22240319.378    22240318.877    22240322.675
  22240322.869          48.750          49.500
 118632698.528 7  92441060.423 7  22575051.463    22575052.119    22575056.234
  22575055.835          45.000          47.750
 20  1  2  2  2  0.0000000  0  8G24G15G10G20G21G08G27G32
 118058707.747 7  91993795.765 8  22465823.559    22465824.081    22465829.101
  22465828.717          44.750          48.500
 122076065.284 7  95124206.196 7  23230302.498    23230302.384    23230303.396
  23230303.005          45.500          42.250
 110050367.876 8  85753534.929 9  20941887.089    20941887.392    20941890.571
  20941890.981          53.500          54.500
 105880488.358 8  82504276.64147  20148385.520    20148384.913
  20148386.447          49.000          45.5004
 111734194.563 8  87065608.75947  21262309.737    21262309.085
  21262310.530          50.750          45.2504
 125093394.199 7  97475285.408 7  23804459.696    23804459.132    23804464.216
  23804463.724          42.500          43.500
 116880079.918 8  91075387.419 8  22241539.958    22241540.222    22241543.899
  22241543.815          49.000          49.750
 118538416.336 7  92367593.788 7  22557110.184    22557110.451    22557114.388
  22557114.339          45.750          47.500
 20  1  2  2  2 30.0000000  0  8G24G15G10G20G21G08G27G32
 118016401.626 7  91960829.962 7  22457773.362    22457773.963    22457776.968
  22457777.737          45.000          46.500
 122178496.534 7  95204022.757 7  23249794.251    23249794.260    23249795.603
  23249794.881          45.750          42.500
 110015017.331 8  85725989.058 9  20935160.160    20935160.363    20935163.469
  20935164.005          53.250          54.500
 105891804.115 8  82513094.10747  20150538.828    20150538.286
  20150539.693          49.500          45.5004
 111775147.257 8  87097519.94147  21270102.920    21270102.130
  21270103.485          50.750          45.0004
 125040432.823 7  97434016.797 7  23794381.381    23794380.629    23794386.021
  23794385.086          42.750          43.500
 116887100.008 8  91080857.608 8  22242876.297    22242876.192    22242879.829
  22242879.961          49.500          49.500
 118444405.222 7  92294338.374 7  22539220.374    22539220.816    22539224.665
  22539224.569          45.750          47.000
 20  1  2  2  3  0.0000000  0  8G24G15G10G20G21G08G27G32
 117974622.321 7  91928274.650 7  22449823.006    22449823.664    22449827.204
  22449826.985          45.500          47.500
 122281121.405 7  95283990.185 7  23269323.194    23269323.200    23269324.037
  23269324.047          44.750          42.000
 109979916.141 8  85698637.494 9  20928480.801    20928480.808    20928484.093
  20928484.459          53.000          54.500
 105903428.756 8  82522152.25947  20152751.191    20152750.310
  20152751.819          49.250          45.7504
 111816481.860 8  87129728.71247  21277968.693    21277968.030
  21277969.440          50.250          45.0004
 124987969.164 7  97393136.013 7  23784397.744    23784397.707    23784401.826
  23784402.086          42.500          42.750
 116894722.789 8  91086797.418 8  22244326.517    22244326.672    22244330.733
  22244330.533          48.750          49.750
 118350667.413 7  92221295.923 7  22521382.475    22521382.701    22521387.018
  22521386.996          45.000          47.500
 20  1  2  2  3 30.0000000  0  8G24G15G10G20G21G08G27G32
 117933371.883 7  91896131.446 7  22441973.805    22441973.567    22441976.778
  22441977.473          45.750          46.250
 122383937.459 7  95364106.591 7  23288888.124    23288888.169    23288888.818
  23288889.570          44.500          42.250
 109945064.452 8  85671480.340 9  20921848.561    20921848.748    20921851.761
  20921852.420          53.250          54.500
 105915362.473 8  82531451.24547  20155021.961    20155021.389
  20155022.744          49.250          45.5004
 111858198.533 8  87162235.21247  21285907.129    21285906.433
  21285907.835          50.250          44.7504
 124936005.109 7  97352644.544 7  23774509.633    23774509.175    23774513.504
  23774513.472          43.000          42.750
 116902947.662 8  91093206.412 8  22245891.994    22245891.787    22245895.239
  22245895.542          49.000          49.250
 118257204.682 7  92148467.816 7  22503597.668    22503597.716    22503601.732
  22503601.701          46.250          47.750
 20  1  2  2  4  0.0000000  0  8G24G15G10G20G21G08G27G32
 117892651.763 7  91864401.474 7  22434224.628    22434224.991    22434228.560
  22434228.668          45.500          47.250
 122486941.365 7  95444369.347 7  23308489.202    23308489.717    23308491.529
  23308490.948          44.500          42.750
 109910461.923 8  85644517.335 9  20915263.859    20915264.096    20915267.360
  20915267.773          53.000          55.000
 105927604.818 8  82540990.73047  20157351.866    20157350.903
  20157352.270          49.500          45.5004
 111900296.356 8  87195038.70747  21293918.146    21293917.381
  21293918.992          50.500          45.2504
 124884541.732 7  97312543.206 7  23764716.705    23764716.279    23764721.034
  23764720.785          43.250          43.250
 116911773.523 8  91100083.689 8  22247571.488    22247571.105    22247575.278
  22247574.901          49.500          49.750
 118164018.237 7  92075855.001 7  22485864.805    22485864.938    22485868.790
  22485868.753          46.250          47.250
 20  1  2  2  4 30.0000000  0  8G24G15G10G20G21G08G27G32
 117852464.584 7  91833086.796 7  22426577.248    22426577.643    22426581.532
  22426581.631          45.250          47.000
 122590131.243 7  95524777.031 7  23328125.767    23328125.754    23328126.913
  23328126.360          44.250          42.250
 109876109.344 8  85617749.105 9  20908726.920    20908727.004    20908730.205
  20908730.657          53.250          54.500
 105940155.699 8  82550770.64247  20159740.130    20159739.423
  20159740.776          48.500          45.7504
 111942775.823 8  87228139.58447  21302001.804    21302000.860
  21302002.324          50.000          45.0004
 124833581.450 7  97272833.886 7  23755019.194    23755019.297    23755023.065
  23755023.549          43.250          43.750
 116921200.218 8  91107429.167 8  22249365.216    22249364.980    22249368.745
  22249368.804          48.750          49.250
 118071110.292 7  92003459.187 7  22468184.854    22468185.113    22468189.060
  22468188.796          46.500          47.500
 20  1  2  2  5  0.0000000  0  8G24G15G10G20G21G08G27G32
 117812813.550 7  91802189.911 7  22419031.171    22419031.848    22419036.427
  22419036.165          44.750          47.750
 122693505.248 7  95605328.194 6  23347797.004    23347797.655    23347798.020
  23347798.592          43.750          41.750
 109842007.532 8  85591176.273 9  20902237.580    20902237.573    20902240.917
  20902241.295          53.250          54.500
 105953015.885 8  82560791.56447  20162187.525    20162186.536
  20162187.999          49.000          45.7504
 111985637.874 8  87261538.58147  21310157.911    21310157.234
  21310158.673          50.000          44.7504
 124783126.451 7  97233518.303 7  23745417.854    23745417.541    23745422.468
  23745421.921          43.250          44.000
 116931227.826 8  91115242.871 8  22251273.589    22251273.451    22251277.151
  22251276.879          49.250          49.500
 117978483.280 7  91931282.295 7  22450558.462    22450558.899    22450562.651
  22450562.689          45.750          47.750
 20  1  2  2  5 30.0000000  0  8G24G15G10G20G21G08G27G32
 117773699.580 7  91771711.480 7  22411588.296    22411588.642    22411592.581
  22411592.967          44.750          47.000
 122797060.276 7  95686020.402 6  23367502.885    23367502.926    23367503.870
  23367503.861          43.500          41.250
 109808155.879 8  85564798.366 9  20895795.756    20895795.900    20895798.936
  20895799.511          53.250          54.500
 105966184.970 8  82571053.18647  20164693.153    20164692.541
  20164694.045          48.250          45.7504
 112028880.912 8  87295234.45547  21318386.560    21318386.095
  21318387.474          49.250          44.5004
 124733177.425 7  97194596.976 7  23735912.936    23735912.653    23735918.010
  23735917.128          43.500          43.750
 116941854.787 8  91123523.621 8  22253295.855    22253295.509    22253299.580
  22253299.296          49.000          49.750
 117886138.087 7  91859325.011 8  22432985.656    22432986.119    22432990.123
  22432990.137          45.750          48.000
 20  1  2  2  6  0.0000000  0  8G24G15G10G20G21G08G27G32
 117735124.506 7  91741652.971 7  22404248.175    22404248.197    22404251.978
  22404252.216          46.000          46.750
 122900792.859 7  95766850.964 6  23387242.743    23387242.676    23387243.945
  23387243.511          43.500          41.500
 109774553.993 8  85538615.082 9  20889401.347    20889401.631    20889404.889
  20889405.415          53.250          55.000
 105979661.917 8  82581554.69447  20167257.706    20167257.121
  20167258.550          48.250          45.7504
 112072504.214 8  87329226.63547  21326688.079    21326687.354
  21326688.824          49.750          44.7504
 124683735.176 7  97156070.535 7  23726504.374    23726503.935    23726508.175
  23726508.994          42.750          43.500
 116953079.812 8  91132270.376 8  22255431.892    22255431.752    22255435.717
  22255435.660          49.000          50.000
 117794075.798 7  91787588.157 7  22415467.415    22415467.470    22415470.765
  22415471.137          46.750          47.750
 20  1  2  2  6 30.0000000  0  8G24G15G10G20G21G08G27G32
 117697090.597 7  91712016.195 7  22397010.686    22397010.977    22397015.269
  22397015.086          45.750          47.250
 123004702.085 7  95847819.180 6  23407015.545    23407016.139    23407017.077
  23407016.333          43.250          41.250
 109741203.514 8  85512627.707 9  20883055.117    20883055.219    20883058.365
  20883058.882          53.250          54.750
 105993448.156 8  82592297.21847  20169881.244    20169880.590
  20169882.084          48.000          45.5004
 112116509.410 8  87363516.39447  21335062.008    21335061.363
  21335062.716          49.500          44.7504
 124634802.999 7  97117941.560 7  23717192.982    23717192.448    23717196.694
  23717197.092          42.750          43.750
 116964903.583 7  91141483.695 8  22257681.700    22257681.612    22257685.682
  22257685.548          47.250          49.750
 117702299.598 7  91716074.227 8  22398002.724    22398003.101    22398006.703
  22398006.757          46.500          48.000
 20  1  2  2  7  0.0000000  0  8G24G15G10G20G21G08G27G32
 117659599.807 7  91682802.568 7  22389876.786    22389876.891    22389880.206
  22389880.134          45.000          46.750
 123108784.779 7  95928922.586 6  23426822.469    23426822.528    23426823.616
  23426823.340          44.000          41.000
 109708103.774 8  85486835.706 9  20876756.424    20876756.517    20876759.901
  20876760.222          53.000          54.750
 106007542.808 8  82603280.07147  20172563.201    20172562.708
  20172564.208          49.250          45.2504
 112160895.292 8  87398102.78747  21343508.508    21343507.849
  21343509.089          49.750          44.7504
 124586381.624 7  97080210.603 7  23707978.598    23707978.342    23707982.925
  23707983.204          42.750          44.000
 116977324.427 8  91151162.262 8  22260045.461    22260045.116    22260048.953
  22260048.872          48.250          49.500
 117610810.269 7  91644783.836 8  22380592.842    22380593.204    22380596.585
  22380596.880          46.250          48.000
 20  1  2  2  7 30.0000000  0  8G24G15G10G20G21G08G27G32
 117622654.640 7  91654014.118 7  22382846.208    22382845.803    22382850.014
  22382849.666          46.500          47.000
 123213038.712 7  96010159.391 6  23446661.823    23446661.659    23446662.450
  23446662.127          44.000          41.250
 109675255.297 8  85461239.497 9  20870505.626    20870505.613    20870508.791
  20870509.272          52.750          54.750
 106021946.035 8  82614503.36447  20175304.104    20175303.553
  20175305.005          48.750          45.5004
 112205661.829 8  87432985.80147  21352027.005    21352026.479
  21352028.037          49.750          44.7504
 124538472.640 7  97042878.921 7  23698861.313    23698861.469    23698866.489
  23698865.966          42.250          43.750
 116990342.004 8  91161305.816 8  22262522.792    22262522.444    22262526.348
  22262526.298          48.500          49.750
 117519609.805 7  91573718.532 7  22363237.828    22363238.341    22363241.713
  22363242.058          46.750          47.750
 20  1  2  2  8  0.0000000  0  8G24G15G10G20G21G08G27G32
 117586255.827 7  91625651.422 7  22375918.579    22375919.068    22375923.417
  22375923.414          46.000          47.250
 123317460.207 7  96091526.787 6  23466531.667    23466531.929    23466532.563
  23466533.408          43.250          41.750
 109642657.320 8  85435838.477 9  20864302.219    20864302.496    20864305.545
  20864306.192          53.000          54.500
 106036656.813 8  82625966.30947  20178103.580    20178102.832
  20178104.386          49.250          45.7504
 112250807.967 8  87468164.60047  21360618.262    21360617.500
  21360618.916          49.750          44.7504
 124491077.089 7  97005947.320 7  23689842.347    23689842.200    23689846.875
  23689846.702          42.500          43.500
 117003954.431 7  91171912.904 8  22265112.939    22265113.000    22265116.456
  22265116.446          47.750          49.500
 117428698.920 7  91502878.874 8  22345937.897    22345938.449    22345942.367
  22345942.438          45.750          48.250
 20  1  2  2  8 30.0000000  0  8G24G15G10G20G21G08G27G32
 117550407.569 8  91597717.735 7  22369097.549    22369097.602    22369101.557
  22369101.880          48.000          47.250
 123422049.664 7  96173025.066 6  23486434.840    23486434.629    23486436.372
  23486435.469          43.500          41.750
 109610312.529 8  85410634.739 9  20858147.369    20858147.477    20858150.635
  20858151.100          52.750          54.750
 106051677.427 7  82637670.69247  20180961.753    20180961.208
  20180962.722          47.000          45.7504
 112296336.107 8  87503641.06047  21369281.737    21369281.235
  21369282.693          49.750          44.7504
 124444198.283 7  96969418.375 7  23680921.792    23680921.196    23680925.944
  23680925.936          42.750          43.750
 117018163.371 7  91182984.791 8  22267816.942    22267816.814    22267820.531
  22267820.362          46.000          49.750
 117338081.748 7  91432268.094 8  22328694.445    22328694.700    22328698.327
  22328698.675          46.250          48.000
 20  1  2  2  9  0.0000000  0  8G24G15G10G20G21G08G27G32
 117515109.144 8  91570212.449 7  22362380.391    22362380.525    22362384.669
  22362385.055          48.000          47.500
 123526801.679 7  96254649.980 6  23506368.045    23506368.272    23506369.894
  23506369.167          43.250          41.250
 109578218.228 8  85385626.191 9  20852040.120    20852040.249    20852043.418
  20852043.839          53.250          55.000
 106067004.863 7  82649614.13547  20183878.422    20183877.925
  20183879.460          45.500          45.7504
 112342243.199 8  87539412.81647  21378017.900    21378017.230
  21378018.524          49.750          44.7504
 124397835.124 7  96933291.224 7  23672099.156    23672098.553    23672103.998
  23672103.973          42.500          44.250
 117032965.038 7  91194518.542 8  22270633.506    22270633.352    22270636.976
  22270637.136          44.750          49.250
 117247757.080 7  91361885.232 7  22311505.837    22311506.069    22311509.851
  22311510.098          45.500          47.750
 20  1  2  2  9 30.0000000  0  8G24G15G10G20G21G08G27G32
 117480363.831 7  91543138.193 7  22355768.707    22355768.634    22355772.996
  22355773.193          46.500          47.500
 123631715.070 7  96336400.661 6  23526333.088    23526333.116    23526334.258
  23526333.467          44.000          41.250
 109546376.289 8  85360814.281 9  20845980.758    20845980.785    20845983.858
  20845984.307          52.750          54.500
 106082640.926 7  82661798.06547  20186853.994    20186853.267
  20186854.864          45.750          45.2504
 112388530.219 8  87575480.61247  21386826.038    21386825.275
  21386826.842          50.000          44.7504
 124351990.529 7  96897568.174 7  23663375.117    23663374.445    23663379.831
  23663379.889          42.500          44.250
 117048360.214 7  91206514.781 8  22273563.057    22273562.938    22273566.819
  22273566.683          44.500          49.250
 117157728.162 7  91291732.833 8  22294374.370    22294374.570    22294378.060
  22294378.405          47.000          48.250
 20  1  2  2 10  0.0000000  0  8G24G15G10G20G21G08G27G32
 117446173.745 7  91516496.580 7  22349262.764    22349262.352    22349266.600
  22349266.924          47.250          47.500
 123736787.569 7  96418275.337 6  23546327.463    23546327.610    23546328.308
  23546328.606          43.500          41.000
 109514786.803 8  85336199.106 9  20839969.472    20839969.654    20839972.745
  20839973.256          53.000          55.000
 106098585.442 7  82674222.37247  20189888.285    20189887.466
  20189888.990          45.750          45.2504
 112435196.747 8  87611844.14047  21395706.195    21395705.577
  21395706.912          49.250          44.5004
 124306666.281 7  96862250.567 7  23654750.701    23654750.294    23654754.572
  23654754.428          43.000          44.000
 117064347.837 7  91218972.667 8  22276605.595    22276605.256    22276609.154
  22276609.219          44.500          49.250
 117067996.568 7  91221812.109 8  22277299.132    22277299.411    22277302.994
  22277303.035          47.000          48.250
 20  1  2  2 10 30.0000000  0  8G24G15G10G20G21G08G27G32
 117412540.681 7  91490288.985 7  22342862.637    22342862.148    22342866.839
  22342866.601          47.500          47.500
 123842017.163 7  96500272.400 7  23566352.005    23566351.862    23566353.965
  23566352.111          43.750          42.000
 109483450.320 8  85311781.060 9  20834006.356    20834006.498    20834009.671
  20834010.053          52.750          54.750
 106114838.614 7  82686887.18547  20192980.910    20192980.356
  20192981.821          45.500          45.5004
 112482243.052 8  87648503.58647  21404658.918    21404658.173
  21404659.578          49.500          44.7504
 124261863.660 7  96827339.422 7  23646224.379    23646224.304    23646229.107
  23646228.895          42.250          43.500
 117080927.325 7  91231891.734 8  22279760.386    22279760.325    22279764.047
  22279764.079          44.500          49.250
 116978564.241 7  91152124.580 8  22260280.628    22260280.913    22260284.328
  22260284.614          47.000          48.000
 20  1  2  2 11  0.0000000  0  8G24G15G10G20G21G08G27G32
 117379465.350 7  91464516.008 7  22336567.846    22336568.399    22336572.440
  22336572.608          47.000          47.750
 123947400.283 7  96582389.087 6  23586405.892    23586405.908    23586407.396
  23586406.933          43.000          41.250
 109452365.786 8  85287559.343 9  20828091.222    20828091.186    20828094.290
  20828094.861          52.750          54.750
 106131399.145 7  82699791.48447  20196132.415    20196131.694
  20196133.186          46.500          45.5004
 112529667.722 8  87685457.87047  21413683.615    21413682.905
  21413684.234          49.750          44.7504
 124217582.980 7  96792834.996 7  23637798.597    23637797.886    23637802.647
  23637802.460          42.500          43.750
 117098096.406 7  91245270.230 8  22283027.708    22283027.704    22283031.231
  22283031.337          45.500          49.500
 116889431.543 7  91082670.526 8  22243318.974    22243319.497    22243323.290
  22243323.148          46.250          48.500
 20  1  2  2 11 30.0000000  0  9G24G15G10G20G21G08G27G32G14
 117346950.119 7  91439179.469 7  22330380.654    22330380.915    22330385.283
  22330385.125          46.750          47.750
 124052934.712 7  96664623.673 6  23606487.916    23606488.381    23606489.661
  23606489.544          42.500          41.500
 109421533.965 8  85263534.549 9  20822224.002    20822224.148    20822227.268
  20822227.745          53.000          54.750
 106148267.437 8  82712935.59747  20199342.217    20199341.726
  20199343.299          48.250          45.5004
 112577470.942 8  87722707.13247  21422780.280    21422779.497
  21422781.075          50.000          44.5004
 124173826.293 7  96758738.858 7  23629471.766    23629471.466    23629476.389
  23629476.380          42.750          44.000
 117115854.644 7  91259107.800 8  22286406.819    22286406.501    22286410.285
  22286410.412          47.500          49.500
 116800600.616 7  91013451.619 8  22226415.140    22226415.611    22226418.961
  22226419.090          47.250          48.750
 128847803.011 6                  24518921.935
                        36.750
 20  1  2  2 12  0.0000000  0  9G24G15G10G20G21G08G27G32G14
 117314996.449 7  91414280.506 7  22324300.337    22324300.194    22324304.465
  22324304.623          47.000          47.500
 124158617.983 7  96746974.257 6  23626599.428    23626599.275    23626600.710
  23626600.244          43.750          41.000
 109390954.824 8  85239706.644 9  20816404.650    20816405.089    20816408.236
  20816408.820          52.750          55.000
 106165443.109 8  82726319.23747  20202610.930    20202610.126
  20202611.729          49.250          45.5004
 112625651.987 8  87760250.80247  21431948.625    21431948.087
  21431949.480          50.000          44.5004
 124130594.807 7  96725051.979 7  23621245.264    23621245.203    23621249.396
  23621249.336          42.250          43.500
 117134200.772 8  91273403.474 8  22289897.906    22289897.680    22289901.718
  22289901.790          48.000          49.500
 116712072.835 7  90944468.939 8  22209568.767    22209569.365    22209572.919
  22209572.991          47.750          48.750
 128743295.944 6 100319452.13243  24499034.590    24499034.546
  24499034.766          36.750          20.0004
 20  1  2  2 12 30.0000000  0  8G24G15G10G20G21G08G27G32
 117283607.904 7  91389821.908 7  22318327.189    22318327.480    22318331.545
  22318331.756          46.750          47.500
 124264449.022 7  96829439.974 6  23646738.060    23646738.490    23646740.017
  23646739.225          43.750          41.000
 109360629.990 8  85216076.904 9  20810634.535    20810634.498    20810637.718
  20810638.012          53.000          54.750
 106182927.640 8  82739943.54847  20205937.831    20205937.350
  20205938.980          49.000          45.5004
 112674211.904 8  87798089.69047  21441189.291    21441188.635
  21441190.097          50.000          44.5004
 124087890.968 7  96691776.260 7  23613118.926    23613118.466    23613123.913
  23613123.496          42.500          44.000
 117153135.147 8  91288157.523 8  22293501.053    22293500.813    22293504.755
  22293505.015          48.500          49.250
 116623851.191 7  90875724.799 8  22192780.930    22192781.220    22192784.846
  22192784.905          47.000          49.000
 20  1  2  2 13  0.0000000  0  8G24G15G10G20G21G08G27G32
 117252784.840 7  91365803.914 7  22312461.958    22312461.862    22312465.854
  22312466.199          46.750          47.750
 124370424.585 7  96912018.300 6  23666904.567    23666905.037    23666906.260
  23666906.033          44.500          41.000
 109330558.681 8  85192644.725 9  20804912.147    20804912.112    20804915.142
  20804915.790          53.000          55.000
 106200719.966 8  82753807.68847  20209323.904    20209322.935
  20209324.644          48.750          45.5004
 112723149.710 8  87836223.04347  21450502.172    21450501.300
  21450502.632          49.750          44.2504
 124045715.050 7  96658911.894 7  23605092.842    23605093.614    23605098.069
  23605098.020          42.000          44.750
 117172655.704 7  91303368.339 8  22297215.802    22297215.638    22297219.206
  22297219.274          47.750          49.000
 116535936.295 7  90807219.690 8  22176051.013    22176051.338    22176055.025
  22176055.281          47.250          48.750
 20  1  2  2 13 30.0000000  0  9G24G15G10G20G21G08G27G32G14
 117222528.664 7  91342227.697 7  22306703.734    22306704.295    22306708.789
  22306708.910          46.250          47.750
 124476542.155 7  96994707.279 6  23687097.398    23687098.171    23687099.390
  23687098.510          43.500          40.500
 109300741.142 8  85169410.282 9  20799237.868    20799237.998    20799241.073
  20799241.555          53.000          55.000
 106218820.095 8  82767911.68147  20212768.025    20212767.464
  20212769.124          48.750          45.5004
 112772464.551 8  87874650.19247  21459886.350    21459885.578
  21459886.925          49.750          44.2504
 124004068.884 7  96626460.336 7  23597168.241    23597168.503    23597172.906
  23597172.061          42.500          44.000
 117192761.380 7  91319035.090 8  22301041.808    22301041.362    22301045.327
  22301045.469          47.250          49.250
 116448329.727 7  90738954.831 8  22159379.961    22159380.402    22159384.169
  22159383.991          47.250          49.000
 128430502.852 6                  24439512.829
                        37.500
 20  1  2  2 14  0.0000000  0  9G24G15G10G20G21G08G27G32G14
 117192840.579 7  91319094.121 7  22301054.639    22301054.914    22301059.152
  22301059.236          46.500          47.500
 124582798.548 7  97077504.461 6  23707318.807    23707318.042    23707318.429
  23707318.506          45.250          39.250
 109271176.771 8  85146373.115 9  20793611.931    20793612.165    20793615.327
  20793615.735          53.000          55.000
 106237226.870 8  82782254.62247  20216270.726    20216270.028
  20216271.619          49.250          45.5004
 112822155.643 8  87913370.52247  21469341.996    21469341.488
  21469342.993          49.250          43.7504
 123962952.451 7  96594421.549 7  23589343.765    23589343.471    23589347.809
  23589348.099          42.500          44.000
 117213450.176 8  91335156.219 8  22304978.552    22304978.556    22304982.226
  22304982.380          48.000          49.000
 116361032.236 7  90670930.825 8  22142767.847    22142768.211    22142772.344
  22142772.022          47.000          48.500
 128326487.694 6  99994669.53543  24419719.407    24419718.546
  24419720.233          37.250          20.0004
 20  1  2  2 14 30.0000000  0  9G24G15G10G20G21G08G27G32G14
 117163723.356 7  91296405.378 7  22295514.325    22295514.127    22295517.937
  22295518.515          47.250          47.250
 124689192.915 7  97160409.174 6  23727564.128    23727564.628    23727564.578
  23727565.119          43.750          38.750
 109241867.272 8  85123534.540 9  20788034.401    20788034.601    20788037.777
  20788038.418          52.500          55.000
 106255941.829 8  82796837.70047  20219831.993    20219831.484
  20219833.011          49.250          45.5004
 112872223.667 8  87952384.56247  21478869.954    21478869.123
  21478870.600          49.500          44.2504
 123922368.678 7  96562797.832 7  23581621.046    23581620.725    23581625.646
  23581624.846          42.500          44.000
 117234722.482 8  91351732.024 8  22309026.908    22309026.526    22309030.438
  22309030.445          48.250          48.750
 116274046.877 7  90603150.023 8  22126215.188    22126215.792    22126219.141
  22126219.432          47.750          49.000
 128222600.381 6  99913718.34443  24399950.239    24399949.937
  24399951.572          37.250          20.5004
 20  1  2  2 15  0.0000000  0  9G24G15G10G20G21G08G27G32G14
 117135178.893 7  91274162.942 8  22290082.200    22290082.048    22290086.517
  22290086.332          46.500          48.000
 124795722.541 7  97243419.252 6  23747835.843    23747836.236    23747837.663
  23747836.991          43.750          40.000
 109212812.519 8  85100894.469 9  20782505.707    20782505.775    20782508.915
  20782509.323          52.750          55.000
 106274964.540 8  82811660.59147  20223451.973    20223451.430
  20223452.897          48.500          45.7504
 112922668.128 8  87991691.93847  21488468.838    21488468.432
  21488469.785          49.000          44.0004
 123882318.375 7  96531589.790 7  23573999.543    23574000.117    23574003.746
  23574003.869          42.500          43.750
 117256576.719 7  91368761.297 8  22313185.528    22313185.327    22313189.088
  22313189.045          47.750          49.250
 116187374.840 7  90535613.359 8  22109721.939    22109722.010    22109726.312
  22109726.046          47.000          49.250
 128118842.441 6  99832868.00743  24380204.645    24380205.760
  24380207.688          37.750          20.7504
 20  1  2  2 15 30.0000000  0  9G24G15G10G20G21G08G27G32G14
 117107206.974 7  91252366.650 7  22284759.424    22284759.624    22284763.216
  22284763.525          47.250          47.500
 124902383.690 7  97326531.812 6  23768133.822    23768133.706    23768135.564
  23768134.277          44.750          41.250
 109184011.370 8  85078452.018 9  20777024.987    20777025.150    20777028.118
  20777028.658          53.000          55.000
 106294293.521 8  82826722.12847  20227130.430    20227129.585
  20227131.057          48.750          45.7504
 112973487.393 8  88031291.35947  21498139.425    21498138.917
  21498140.234          49.000          43.7504
 123842801.086 7  96500797.080 7  23566479.857    23566479.715    23566484.304
  23566483.464          42.500          44.000
 117279010.357 8  91386242.039 8  22317454.381    22317454.217    22317458.032
  22317457.936          48.250          48.750
 116101016.275 7  90468320.982 8  22093288.451    22093288.968    22093292.868
  22093292.809          47.250          49.000
 128015214.486 6  99752118.92743  24360486.625    24360485.576
  24360487.772          37.750          21.0004
 20  1  2  2 16  0.0000000  0  9G24G15G10G20G21G08G27G32G14
 117079811.423 7  91231019.476 8  22279545.999    22279546.028    22279550.301
  22279550.546          46.750          48.000
 125009176.237 7  97409746.751 6  23788455.186    23788454.956    23788457.848
  23788456.578          44.250          41.750
 109155466.107 8  85056208.959 9  20771592.989    20771593.104    20771596.271
  20771596.730          52.750          55.000
 106313930.778 8  82842023.88347  20230867.186    20230866.452
  20230867.903          49.500          45.7504
 113024682.932 8  88071183.98847  21507881.900    21507881.092
  21507882.460          49.500          43.7504
 123803820.733 7  96470422.786 7  23559061.916    23559061.373    23559066.382
  23559065.854          42.000          43.250
 117302024.246 8  91404174.926 8  22321834.144    22321833.798    22321837.371
  22321837.414          48.750          48.750
 116014974.835 7  90401275.693 8  22076915.342    22076915.721    22076919.629
  22076919.518          47.750          49.250
 127911720.347 6  99671474.13643  24340792.219    24340792.320
  24340793.479          38.250          21.2504
 20  1  2  2 16 30.0000000  0  9G24G15G10G20G21G08G27G32G14
 117052992.372 7  91210121.534 7  22274441.984    22274442.586    22274446.778
  22274446.924          46.500          47.750
 125116096.855 7  97493061.455 6  23808800.348    23808801.389    23808802.938
  23808802.242          42.250          41.000
 109127175.990 8  85034164.706 9  20766209.706    20766209.761    20766212.877
  20766213.296          53.250          55.250
 106333875.222 8  82857564.98847  20234662.575    20234661.681
  20234663.391          49.500          45.5004
 113076253.272 8  88111368.66147  21517695.204    21517694.565
  21517695.960          49.500          43.7504
 123765377.049 7  96440466.665 7  23551746.557    23551746.059    23551750.927
  23551750.856          42.750          44.000
 117325616.135 8  91422558.213 8  22326323.372    22326323.407    22326326.445
  22326326.867          48.000          48.750
 115929251.030 7  90334477.921 8  22060602.413    22060603.231    22060606.173
  22060606.526          47.750          48.500
 127808360.590 6  99590934.04843  24321122.932    24321121.834
  24321123.995          37.750          21.2504
