     2.11           OBSERVATION DATA    M (MIXED)           RINEX VERSION / TYPE
teqc  2008Oct2                          20220908 07:50:36UTCPGM / RUN BY / DATE
MSXP|IAx86-PII|bcc32 5.0|MSWin95->XP|486/DX+                COMMENT
BIT 2 OF LLI FLAGS DATA COLLECTED UNDER A/S CONDITION       COMMENT
-Unknown-                                                   MARKER NAME
-Unknown-           -Unknown-                               OBSERVER / AGENCY
235-1829            TPS E_GGD           2.3 Aug,01,2003 p2  REC # / TYPE / VERS
-Unknown-           -Unknown-                               ANT # / TYPE
  1240234.6096  4530662.5077  4302599.6018                  APPROX POSITION XYZ
        0.0000        0.0000        0.0000                  ANTENNA: DELTA H/E/N
     1     1                                                WAVELENGTH FACT L1/2
     7    L1    L2    C1    P1    P2    S1    S2            # / TYPES OF OBSERV
 SNR is mapped to RINEX snr flag value [0-9]                COMMENT
  L1 & L2: min(max(int(snr_dBHz/6), 0), 9)                  COMMENT
pseudorange smoothing corrections not applied               COMMENT
rx board ID = AGUS451XLHC                                   COMMENT
  2020     5     2     0     0    0.0000000     GPS         TIME OF FIRST OBS
    14                                                      LEAP SECONDS
                                                            END OF HEADER
 20  5  2  0  0  0.0000000  0 11R 7G 3G14R 1R 8G31G 9G16G 4G22G26
 114194995.992 7  88818302.030 7  21370026.960    21370026.984    21370030.788
        47.000          42.000
 109483658.66948  85311954.13948  20834043.836    20834044.151    20834049.752
        48.000          51.000
 125453494.71645  97755975.55742  23873000.759    23873001.974    23873005.435
        35.000          16.000
 111180621.853 7  86473821.656 6  20798632.188    20798644.209    20798650.810
        47.000          38.000
 102894419.937 8  80028983.727 8  19255279.518    19255280.680    19255282.452
        49.000          49.000
 118993902.51847  92722540.70546  22643785.380    22643785.179    22643787.698
        43.000          41.000
 125527867.95446  97813938.95645  23887155.907    23887156.634    23887162.112
        39.000          34.000
 112368026.03447  87559509.19845  21382921.958    21382921.453    21382924.635
        45.000          35.000
 111724629.88747  87058146.15046  21260479.132    21260479.093    21260483.479
        46.000          36.000
 115890734.81147  90304486.30745  22053267.314    22053266.471    22053267.714
        46.000          35.000
 109941634.02948  85668811.84748  20921193.691    20921193.774    20921199.911
        48.000          49.000
 20  5  2  0  0 30.0000000  0 11R 7G 3G14R 1R 8G31G 9G16G 4G22G26
 114366869.507 7  88951981.409    21402191.098    21402190.693    21402193.222
        46.000           3.000
 109593315.43948  85397400.96648  20854910.731    20854911.002    20854916.738
        48.000          51.000
 125607486.44946  97875969.07742  23902305.887    23902305.298    23902307.604
        36.000          15.000
 111164341.662 7  86461159.281 5  20795587.562    20795598.687    20795606.880
        47.000          30.000
 102966821.023 8  80085295.714    19268828.337    19268829.430    19268829.752
        50.000           2.000
 119157607.68247  92850103.13146  22674936.616    22674937.049    22674939.791
        44.000          40.000
 125510189.36146  97800163.44645  23883792.366    23883791.922    23883798.143
        39.000          34.000
 112365262.30847  87557355.65345  21382396.350    21382395.551    21382398.704
        46.000          35.000
 111742022.56547  87071698.89746  21263788.271    21263788.668    21263792.772
        46.000          36.000
 116041345.12747  90421844.98245  22081927.343    22081926.541    22081927.750
        46.000          35.000
 110018611.36048  85728794.18348  20935842.034    20935841.918    20935848.158
        48.000          49.000
 20  5  2  0  1  0.0000000  0 11R 7G 3G14R 1R 8G31G 9G16G 4G22G26
 114740270.792 7                  21434437.133
        47.000
 109703569.65548  85483313.33548  20875891.273    20875891.604    20875897.390
        48.000          51.000
 125761658.33945  97996102.96142  23931643.073    23931644.202    23931646.874
        35.000          14.000
 111148427.767 7  86448781.837    20792609.547    20792621.712    20792629.022
        47.000           5.000
 103039881.992 8  80142120.862    19282500.470    19282501.888    19282503.415
        50.000           3.000
 119321458.04047  92977778.69846  22706116.937    22706117.209    22706119.443
        44.000          40.000
 125492582.05946  97786443.47245  23880441.100    23880440.863    23880447.872
        38.000          34.000
 112363026.65647  87555613.58745  21381970.643    21381970.089    21381973.077
        46.000          35.000
 111759672.24747  87085451.91146  21267147.206    21267147.382    21267151.371
        46.000          36.000
 116192353.55447  90539513.87345  22110663.157    22110662.384    22110663.778
        47.000          35.000
 110096232.30648  85789278.03248  20950612.777    20950612.654    20950618.924
        48.000          49.000
 20  5  2  0  1 30.0000000  0 11R 7G 3G14R 1R 8G31G 9G16G 4G22G26
 114913335.148 7                  21466767.231
        47.000
 109814428.12848  85569696.55548  20896987.091    20896987.372    20896993.083
        49.000          51.000
 125916017.76345  98116382.97242  23961016.780    23961016.451    23961022.188
        35.000          15.000
 111132891.765 7  86436698.375    20789702.644    20789714.976    20789731.451
        47.000           3.000
 103330846.065 8                  19296298.574
        50.000
 119485459.71547  93105572.16746  22737325.369    22737325.423    22737328.054
        44.000          41.000
 125475054.89346  97772785.95245  23877105.393    23877105.631    23877112.129
        38.000          34.000
 112361329.92347  87554291.45945  21381647.708    21381647.242    21381650.422
        46.000          35.000
 111777588.09847  87099412.31946  21270556.421    21270556.495    21270560.345
        46.000          36.000
 116343765.87647  90657497.49845  22139476.056    22139475.262    22139476.577
        46.000          35.000
 110174504.59748  85850269.42148  20965507.500    20965507.412    20965513.674
        48.000          49.000
 20  5  2  0  2  0.0000000  0 11R 7G 3G14R 1R 8G31G 9G16G 4G22G26
 115086839.961 8                  21499180.064
        48.000
 109925884.68048  85656545.80848  20918196.304    20918196.786    20918202.538
        49.000          51.000
 126070559.10946  98236804.72942  23990425.223    23990425.390    23990428.895
        36.000          15.000
 111117731.635 7                  20786866.561
        47.000
 103405398.327 8  80426408.307 7  19310220.674    19310219.625    19310234.709
        50.000          44.000
 119649605.53447  93233477.96146  22768561.063    22768561.817    22768563.866
        44.000          41.000
 125457603.94246  97759187.83045  23873784.632    23873784.884    23873791.701
        38.000          34.000
 112360169.39147  87553387.15445  21381427.133    21381426.332    21381429.796
        46.000          35.000
 111795766.31447  87113577.17146  21274015.769    21274015.806    21274019.842
        46.000          36.000
 116495574.76547  90775790.12345  22168364.494    22168363.272    22168365.005
        46.000          35.000
 110253422.72947  85911764.05848  20980525.129    20980524.943    20980531.324
        47.000          49.000
 20  5  2  0  2 30.0000000  0 11R 7G 3G14R 1R 8G31G 9G16G 4G22G26
 115260776.799 7  89647251.483 7  21531672.470    21531671.443    21531675.842
        47.000          42.000
 110037931.58648  85743855.07748  20939518.200    20939518.499    20939524.363
        48.000          51.000
 126225276.19746  98357363.43542  24019866.413    24019865.995    24019869.544
        36.000          15.000
 111102944.508 7                  20784101.073
        47.000
 103480612.181 8  80484907.974 8  19324265.981    19324267.236    19324269.212
        50.000          49.000
 119813887.51047  93361489.86946  22799823.083    22799823.351    22799825.551
        44.000          40.000
 125440223.59746  97745644.71545  23870478.045    23870477.660    23870484.113
        38.000          34.000
 112359541.32747  87552897.75945  21381307.153    21381306.964    21381310.258
        46.000          35.000
 111814201.51547  87127942.27846  21277524.029    21277524.101    21277527.872
        46.000          36.000
 116647771.52647  90894384.99445  22197326.247    22197325.491    22197327.095
        46.000          35.000
 110332979.80548  85973756.58448  20995664.298    20995664.277    20995670.597
        48.000          49.000
 20  5  2  0  3  0.0000000  0 11R 7G 3G14R 1R 8G31G 9G16G 4G22G26
 115435146.361 7  89782872.230 7  21564245.681    21564245.893    21564248.990
        47.000          42.000
 110150570.37448  85831625.55948  20960952.870    20960952.920    20960958.786
        48.000          51.000
 126380170.80445  98478060.46842  24049343.190    24049341.096    24049346.146
        35.000          15.000
 111088536.012 7  86402218.360 6  20781406.899    20781417.430    20781423.954
        47.000          38.000
 103556491.496 8  80543925.214 8  19338435.909    19338437.255    19338439.090
        50.000          49.000
 119978306.44447  93489608.47746  22831111.671    22831111.330    22831113.790
        43.000          41.000
 125422917.66146  97732159.57545  23867184.342    23867184.481    23867190.581
        38.000          34.000
 112359451.01747  87552827.39145  21381290.145    21381289.672    21381292.913
        46.000          35.000
 111832897.64047  87142510.69546  21281081.675    21281081.609    21281085.615
        46.000          37.000
 116800356.46847  91013282.34345  22226362.108    22226361.230    22226362.925
        46.000          35.000
 110413178.01648  86036248.69248  21010925.560    21010925.465    21010931.745
        48.000          49.000
 20  5  2  0  3 30.0000000  0 11R 7G 3G14R 1R 8G31G 9G16G 4G22G26
 115609957.086 7  89918836.112 7  21596902.213    21596901.875    21596905.436
        47.000          42.000
 110263810.23248  85919864.40148  20982501.463    20982501.890    20982507.726
        49.000          51.000
 126535252.99645  98598903.67942  24078853.195    24078852.595    24078855.844
        35.000          14.000
 111074520.307 7  86391317.256 6  20778783.711    20778795.352    20778802.465
        47.000          38.000
 103633048.265 8  80603469.362 8  19352732.431    19352733.838    19352735.477
        50.000          48.000
 120142871.37847  93617840.85546  22862426.989    22862426.870    22862429.234
        43.000          40.000
 125405697.45946  97718741.24945  23863907.439    23863907.526    23863913.629
        38.000          34.000
 112359911.37147  87553186.11646  21381377.598    21381377.377    21381380.348
        46.000          36.000
 111851866.31947  87157291.49346  21284691.229    21284691.421    21284695.421
        46.000          37.000
 116953337.60147  91132488.41145  22255473.815    22255472.571    22255474.535
        46.000          35.000
 110494027.29248  86099248.12448  21026310.844    21026310.517    21026316.809
        48.000          49.000
 20  5  2  0  4  0.0000000  0 11R 7G 3G14R 1R 8G31G 9G16G 4G22G26
 115785197.594 8  90055134.255 7  21629638.625    21629638.885    21629641.708
        48.000          42.000
 110377640.15048  86008563.02748  21004162.658    21004163.123    21004168.790
        49.000          51.000
 126690512.33045  98719884.90142  24108398.035    24108397.694    24108400.357
        34.000          14.000
 111060890.701 7  86380716.467 6  20776232.549    20776245.583    20776252.802
        47.000          38.000
 103710273.573 8  80663533.478 8  19367153.958    19367155.170    19367156.715
        50.000          48.000
 120307570.44647  93746177.75746  22893767.901    22893768.118    22893770.285
        43.000          39.000
 125388554.25346  97705382.91845  23860645.374    23860645.211    23860651.216
        39.000          34.000
 112360915.22147  87553968.33846  21381568.883    21381568.308    21381571.472
        46.000          36.000
 111871098.98447  87172277.99546  21288351.383    21288351.330    21288355.302
        46.000          37.000
 117106702.88347  91251993.81645  22284657.936    22284657.003    22284658.787
        46.000          35.000
 110575517.31848  86162746.84048  21041817.540    21041817.505    21041823.961
        48.000          49.000
 20  5  2  0  4 30.0000000  0 11R 7G 3G14R 1R 8G31G 9G16G 4G22G26
 114356060.539 7  88943583.189 7  21362663.517    21362664.192    21362667.585
        47.000          42.000
 108916644.50648  84870124.85448  20726144.535    20726144.856    20726150.583
        48.000          51.000
 125270535.25245  97613409.20542  23838185.965    23838184.385    23838189.653
        35.000          13.000
 109445089.414 7  85123982.130 6  20473966.022    20473976.818    20473983.959
        47.000          38.000
 102182798.210 8  79475497.077 8  19081908.640    19081909.731    19081911.579
        50.000          49.000
 118896989.19447  92647023.52446  22625343.527    22625343.586    22625345.566
        44.000          40.000
 123796070.30746  96464486.36245  23557605.891    23557605.891    23557611.392
        39.000          34.000
 110787046.97247  86327577.50746  21082071.274    21082071.120    21082074.292
        46.000          36.000
 110315179.34847  85959873.09446  20992269.654    20992269.612    20992273.590
        46.000          37.000
 115685036.75547  90144202.01445  22014124.080    22014123.180    22014125.195
        46.000          35.000
 109082232.18048  84999148.02248  20757655.193    20757654.955    20757661.030
        48.000          49.000
 20  5  2  0  5  0.0000000  0 11R 7G 3G14R 1R 8G31G 9G16G 4G22G26
 114532158.393 7  89080548.150 7  21395560.673    21395560.539    21395563.910
        47.000          42.000
 109031655.22948  84959743.58748  20748030.116    20748030.566    20748036.323
        48.000          51.000
 125426152.21145  97734669.12742  23867798.676    23867799.097    23867802.978
        34.000          13.000
 109432246.615 7  85113993.280 6  20471563.819    20471574.418    20471581.223
        47.000          39.000
 102261369.052 8  79536607.724 8  19096581.173    19096582.345    19096584.209
        50.000          49.000
 119061955.71047  92775568.82346  22656735.328    22656735.620    22656738.144
        44.000          40.000
 123779088.74446  96451253.99845  23554373.708    23554374.009    23554379.878
        38.000          34.000
 110789150.29747  86329216.46546  21082471.865    21082471.266    21082474.576
        46.000          36.000
 110334948.18747  85975277.38846  20996031.190    20996031.663    20996035.612
        46.000          37.000
 115839167.88147  90264304.18445  22043453.991    22043453.368    22043454.971
        46.000          35.000
 109165006.62048  85063647.57948  20773406.523    20773406.263    20773412.710
        48.000          49.000
 20  5  2  0  5 30.0000000  0 11R 7G 3G14R 1R 8G31G 9G16G 4G22G26
 114708687.942 7  89217848.880 7  21428537.542    21428536.700    21428541.049
        47.000          42.000
 109147260.15648  85049825.34448  20770028.917    20770029.448    20770035.150
        49.000          50.000
 125581953.08845  97856072.33242  23897446.219    23897446.943    23897452.479
        35.000          14.000
 109419808.097 7  85104318.878 6  20469237.601    20469247.227    20469254.253
        47.000          39.000
 102340620.543 8  79598247.760 8  19111380.887    19111382.051    19111383.702
        50.000          49.000
 119227059.29847  92904220.93046  22688153.629    22688153.800    22688156.293
        43.000          40.000
 123762195.31046  96438090.28545  23551159.397    23551159.622    23551165.020
        39.000          35.000
 110791812.89547  86331291.20946  21082978.444    21082977.807    21082981.223
        46.000          36.000
 110354992.71147  85990896.50446  20999845.792    20999845.842    20999849.886
        46.000          37.000
 115993684.08047  90384706.40745  22072857.743    22072856.655    22072858.474
        46.000          34.000
 109248428.13448  85128651.34848  20789281.129    20789280.936    20789287.406
        48.000          49.000
 20  5  2  0  6  0.0000000  0 11R 7G 3G14R 1R 8G31G 9G16G 4G22G26
 114885643.656 7  89355481.076 7  21461594.195    21461593.956    21461598.046
        47.000          42.000
 109263454.83448  85140366.64548  20792140.593    20792140.671    20792146.305
        48.000          51.000
 125737934.11445  97977615.95142  23927129.198    23927129.671    23927131.711
        35.000          14.000
 109407773.806 8  85094958.885 6  20466985.889    20466996.252    20467003.086
        48.000          39.000
 102420550.563 8  79660415.542 8  19126306.823    19126308.305    19126310.123
        49.000          49.000
 119392295.02947  93032976.00246  22719596.996    22719597.008    22719599.546
        43.000          40.000
 123745387.90346  96424993.62345  23547961.145    23547961.028    23547966.623
        38.000          35.000
 110795033.88647  86333801.07946  21083591.137    21083590.686    21083594.260
        46.000          36.000
 110375310.98347  86006728.92546  21003712.066    21003712.176    21003716.066
        46.000          37.000
 116148579.91547  90505404.44445  22102333.206    22102332.443    22102333.956
        46.000          34.000
 109332492.97347  85194156.41148  20805277.815    20805277.843    20805284.288
        47.000          49.000
 20  5  2  0  6 30.0000000  0 11R 7G 3G14R 1R 8G31G 9G16G 4G22G26
 115063017.768 7  89493438.694 7  21494729.257    21494729.509    21494733.054
        47.000          42.000
 109380232.00748  85231361.83048  20814362.482    20814362.727    20814368.296
        49.000          51.000
 125894089.12646  98099295.12542  23956844.302    23956844.719    23956848.127
        36.000          13.000
 109396141.258 8  85085911.344 6  20464809.096    20464820.048    20464827.073
        48.000          39.000
 102501153.912 8  79723107.026 8  19141359.468    19141360.491    19141362.370
        49.000          49.000
 119557655.03447  93161827.93046  22751063.624    22751064.110    22751066.376
        43.000          39.000
 123728661.69546  96411960.23145  23544778.673    23544778.010    23544783.557
        39.000          34.000
 110798810.00047  86336743.50746  21084310.077    21084309.531    21084312.768
        46.000          36.000
 110395898.38847  86022771.06946  21007629.575    21007629.850    21007633.881
        46.000          37.000
 116303847.07047  90626391.82745  22131879.836    22131878.700    22131880.387
        46.000          34.000
 109417194.55548  85260157.63848  20821396.285    20821396.007    20821402.711
        48.000          49.000
 20  5  2  0  7  0.0000000  0 11R 7G 3G14R 1R 8G31G 9G16G 4G22G26
 115240800.762 7  89631714.317 7  21527940.918    21527940.536    21527944.818
        47.000          42.000
 109497583.24248  85322804.34448  20836693.779    20836693.953    20836699.434
        49.000          51.000
 126050410.36546  98221103.80342  23986591.420    23986590.608    23986594.574
        36.000          13.000
 109384906.810 7  85077173.453 6  20462707.413    20462718.245    20462725.343
        47.000          39.000
 102582424.545 8  79786317.505 8  19156536.324    19156537.263    19156539.043
        49.000          49.000
 119723130.75547  93290770.00746  22782553.209    22782553.172    22782555.765
        43.000          40.000
 123712010.74046  96398985.46445  23541609.558    23541609.540    23541615.357
        39.000          35.000
 110803136.80447  86340115.05146  21085133.367    21085132.826    21085136.297
        46.000          36.000
 110416749.08747  86039018.37746  21011597.795    21011597.643    21011601.831
        47.000          37.000
 116459475.98847  90747661.10145  22161494.936    22161493.609    22161495.626
        46.000          34.000
 109502525.23948  85326649.06848  20837634.083    20837633.869    20837640.488
        48.000          49.000
 20  5  2  0  7 30.0000000  0 11R 7G 3G14R 1R 8G31G 9G16G 4G22G26
 115419000.209 7  89770313.866 5  21561230.325    21561229.700    21561233.485
        46.000          32.000
 109615516.60548  85414700.45948  20859135.716    20859135.879    20859141.434
        49.000          51.000
 126206907.10946  98343049.21942  24016371.913    24016372.521    24016374.365
        36.000          13.000
 109374083.084 8  85068754.996 6  20460682.372    20460693.439    20460700.485
        48.000          39.000
 102664373.187 8  79850055.329 8  19171839.344    19171840.652    19171842.301
        49.000          49.000
 119888730.00747  93419808.35346  22814065.960    22814065.740    22814068.447
        43.000          40.000
 123695445.52746  96386077.51345  23538457.132    23538457.066    23538462.822
        39.000          35.000
 110808026.06647  86343924.86546  21086063.829    21086063.270    21086066.603
        47.000          36.000
 110437873.76547  86055479.17146  21015617.284    21015617.583    21015621.606
        47.000          37.000
 116615473.87247  90869217.88645  22191180.354    22191179.120    22191180.870
        46.000          34.000
 109588493.70948  85393637.48048  20853993.160    20853993.179    20853999.714
        48.000          49.000
 20  5  2  0  8  0.0000000  0 11R 7G 3G14R 1R 8G31G 9G16G 4G22G26
 115597600.914 7  89909225.488 7  21594594.651    21594594.222    21594598.123
        47.000          42.000
 109734017.60648  85507038.89048  20881685.699    20881685.938    20881691.423
        49.000          51.000
 126363565.57346  98465120.69642  24046183.923    24046184.234    24046186.967
        36.000          14.000
 109363660.247 8  85060648.344 6  20458732.009    20458743.447    20458750.714
        48.000          39.000
 102746987.753 8  79914311.097 8  19187266.765    19187268.258    19187269.964
        49.000          49.000
 120054438.01047  93548931.42046  22845598.549    22845598.608    22845601.526
        42.000          39.000
 123678954.07946  96373227.05145  23535318.623    23535318.989    23535325.048
        39.000          35.000
 110813467.22047  86348164.72646  21087099.280    21087098.734    21087101.919
        47.000          36.000
 110459260.64947  86072144.28446  21019687.381    21019687.164    21019691.326
        47.000          37.000
 116771825.35647  90991050.20345  22220932.703    22220932.169    22220933.686
        45.000          34.000
 109675086.18547  85461112.13348  20870471.363    20870471.328    20870477.786
        47.000          49.000
 20  5  2  0  8 30.0000000  0 11R 7G 3G14R 1R 8G31G 9G16G 4G22G26
 115776615.783 7  90048459.257 7  21628035.764    21628035.425    21628038.917
        47.000          42.000
 109853099.92148  85599830.29348  20904346.331    20904346.544    20904351.970
        48.000          51.000
 126520400.32746  98587329.52342  24076027.581    24076028.747    24076031.407
        36.000          14.000
 109353657.240 7  85052868.234 6  20456860.551    20456872.587    20456879.411
        47.000          39.000
 102830284.417 8  79979097.380 8  19202822.126    19202823.232    19202825.185
        49.000          49.000
 120220268.00847  93678149.56546  22877154.921    22877155.046    22877157.930
        42.000          39.000
 123662552.58946  96360446.68645  23532197.668    23532198.021    23532203.788
        39.000          35.000
 110819477.95347  86352848.41646  21088242.788    21088242.585    21088245.605
        47.000          36.000
 110480926.06447  86089026.42646  21023809.750    21023810.113    21023813.992
        46.000          37.000
 116928543.02947  91113167.85845  22250755.662    22250754.448    22250756.054
        45.000          34.000
 109762317.04648  85529084.22948  20887070.908    20887070.615    20887077.319
        48.000          49.000
 20  5  2  0  9  0.0000000  0 11R 7G 3G14R 1R 8G31G 9G16G 4G22G26
 115956034.981 7  90188007.492 7  21661552.254    21661552.330    21661556.295
        47.000          42.000
 109972754.14548  85693067.34348  20927115.785    20927115.930    20927121.474
        48.000          51.000
 126677402.98645  98709669.23042  24105904.055    24105905.055    24105907.942
        35.000          14.000
 109344069.106 8  85045410.794 6  20455067.434    20455078.517    20455085.769
        48.000          39.000
 102914256.168 8  80044408.726 8  19218503.512    19218504.403    19218506.376
        49.000          48.000
 120386210.58047  93807455.42246  22908732.867    22908732.915    22908735.748
        42.000          38.000
 123646234.25146  96347731.12145  23529092.776    23529092.327    23529098.408
        38.000          35.000
 110826052.69647  86357971.59146  21089494.108    21089493.745    21089496.801
        47.000          37.000
 110502863.35747  86106120.43346  21027984.435    21027984.287    21027988.405
        46.000          37.000
 117085616.10247  91235562.45045  22280645.347    22280644.708    22280646.361
        46.000          34.000
 109850177.59348  85597546.98648  20903790.232    20903790.053    20903796.409
        48.000          49.000
 20  5  2  0  9 30.0000000  0 11R 7G 3G14R 1R 8G31G 9G16G 4G22G26
 116135853.758 7  90327866.517 7  21695143.771    21695144.743    21695148.079
        47.000          42.000
 110092976.38748  85786746.99848  20949993.189    20949993.522    20949999.092
        49.000          50.000
 126834570.87646  98832137.62642  24135812.953    24135810.607    24135815.635
        36.000          15.000
 109334896.788 7  85038276.776 6  20453352.095    20453362.872    20453369.939
        47.000          39.000
 102998901.662 8  80110244.105 8  19234310.509    19234311.514    19234313.026
        49.000          49.000
 120552261.55147  93936845.74946  22940331.146    22940331.266    22940334.394
        42.000          38.000
 123629997.73346  96335079.29745  23526002.763    23526002.546    23526008.584
        38.000          35.000
 110833191.21147  86363534.07446  21090852.658    21090852.238    21090855.303
        47.000          37.000
 110525071.34347  86123425.36546  21032210.136    21032210.496    21032214.455
        46.000          37.000
 117243040.44247  91358230.75045  22310602.278    22310601.270    22310603.066
        46.000          34.000
 109938664.47748  85666497.80548  20920628.711    20920628.581    20920635.018
        48.000          49.000
 20  5  2  0 10  0.0000000  0 11R 7G 3G14R 1R 8G31G 9G16G 4G22G26
 116316078.569 7  90468041.344 6  21728811.469    21728812.208    21728815.228
        47.000          41.000
 110213773.71448  85880874.76848  20972980.108    20972980.496    20972986.067
        48.000          50.000
 126991911.96546  98954741.02042  24165753.777    24165752.758    24165757.955
        36.000          14.000
 109326152.480 7  85031475.667 6  20451715.035    20451727.283    20451734.325
        47.000          39.000
 103084230.209 8  80176610.744 8  19250244.764    19250245.810    19250247.633
        49.000          49.000
 120718427.76647  94066325.87646  22971951.974    22971952.289    22971954.705
        43.000          39.000
 123613852.71346  96322498.77045  23522930.921    23522930.441    23522936.642
        40.000          35.000
 110840904.33847  86369544.30146  21092320.436    21092319.921    21092323.213
        47.000          37.000
 110547559.85947  86140948.89146  21036489.871    21036489.856    21036493.937
        46.000          37.000
 117400822.02847  91481177.42745  22340627.154    22340626.301    22340628.436
        46.000          34.000
 110027785.67447  85735942.88648  20937587.681    20937587.777    20937594.280
        47.000          49.000
 20  5  2  0 10 30.0000000  0 11R 7G 3G14R 1R 8G31G 9G16G 4G22G26
 116496714.591 7  90608535.988 6  21762556.334    21762556.134    21762559.813
        47.000          41.000
 110335151.63548  85975454.95948  20996077.492    20996078.015    20996083.553
        48.000          50.000
 127149432.55345  99077484.29442  24195729.533    24195728.312    24195732.877
        35.000          13.000
 109317846.777 7  85025015.669 6  20450162.634    20450173.023    20450180.499
        47.000          39.000
 103170249.988 8  80243515.010 8  19266308.011    19266309.424    19266311.399
        49.000          49.000
 120884714.80846  94195900.15646  23003595.305    23003595.478    23003598.069
        41.000          39.000
 123597807.32446  96309995.88046  23519877.872    23519877.668    23519883.053
        39.000          36.000
 110849201.81047  86376009.87246  21093899.342    21093899.070    21093901.860
        47.000          37.000
 110570337.17947  86158697.46246  21040824.096    21040824.277    21040828.281
        46.000          38.000
 117558965.32247  91604405.95645  22370721.297    22370719.926    22370722.064
        46.000          34.000
 110117547.26347  85805886.97648  20954668.919    20954668.852    20954675.237
        47.000          49.000
 20  5  2  0 11  0.0000000  0 11R 7G 3G14R 1R 8G31G 9G16G 4G22G26
 116677743.287 7  90749336.062 6  21796373.511    21796374.108    21796377.346
        46.000          41.000
 110457092.51948  86070473.81748  21019282.322    21019282.538    21019288.157
        48.000          50.000
 127307116.24245  99200354.62242  24225736.241    24225734.272    24225740.617
        34.000          14.000
 109309966.576 7  85018886.635 6  20448687.684    20448699.025    20448706.341
        47.000          39.000
 103256945.763 8  80310945.055 8  19282497.929    19282499.262    19282501.194
        49.000          49.000
 121051104.83546  94325554.67646  23035258.340    23035258.049    23035260.971
        41.000          38.000
 123581846.64746  96297559.00846  23516840.484    23516840.461    23516845.947
        40.000          36.000
 110858069.70847  86382919.92846  21095586.792    21095586.325    21095589.182
        46.000          37.000
 110593388.55647  86176659.58046  21045210.600    21045210.718    21045214.882
        46.000          38.000
 117717451.75147  91727901.85745  22400879.764    22400879.072    22400880.880
        45.000          33.000
 110207932.25448  85876316.84948  20971868.690    20971868.408    20971874.809
        48.000          49.000
 20  5  2  0 11 30.0000000  0 11R 7G 3G14R 1R 8G31G 9G16G 4G22G26
 116859156.836 7  90890435.446 6  21830263.824    21830263.005    21830266.871
        46.000          40.000
 110579589.48748  86165925.99048  21042592.432    21042592.904    21042598.589
        49.000          50.000
 127464957.08945  99323347.43842  24255771.444    24255769.546    24255774.438
        34.000          13.000
 109302509.909 7  85013087.014 6  20447292.785    20447303.855    20447310.991
        47.000          39.000
 103344312.527 8  80378896.974 8  19298813.402    19298814.434    19298816.327
        49.000          49.000
 121217590.82647  94455283.98546  23066939.200    23066939.289    23066942.416
        42.000          38.000
 123565966.50246  96285184.87946  23513818.370    23513818.677    23513823.923
        40.000          36.000
 110867505.11547  86390272.19346  21097382.480    21097381.838    21097385.051
        47.000          37.000
 110616709.88747  86194832.05746  21049648.389    21049648.597    21049652.627
        46.000          38.000
 117876273.46947  91851659.02645  22431102.465    22431101.597    22431103.553
        46.000          33.000
 110298934.50548  85947227.68448  20989185.366    20989185.672    20989192.042
        48.000          49.000
 20  5  2  0 12  0.0000000  0 11R 7G 3G14R 1R 8G31G 9G16G 4G22G26
 117040966.190 7  91031842.698 6  21864226.665    21864226.867    21864230.396
        45.000          40.000
 110702653.36448  86261819.90648  21066010.723    21066011.219    21066016.849
        48.000          50.000
 127622967.26545  99446472.23742  24285838.646    24285839.464    24285845.717
        34.000          12.000
 109295492.623 7  85007629.132 6  20445979.369    20445990.643    20445998.540
        47.000          39.000
 103432364.100 8  80447381.520 8  19315256.429    19315257.666    19315259.372
        49.000          49.000
 121384183.65547  94585096.53346  23098641.061    23098641.382    23098643.895
        42.000          39.000
 123550180.46446  96272884.08146  23510815.055    23510814.426    23510819.703
        39.000          36.000
 110877522.74447  86398078.14146  21099288.569    21099288.201    21099291.356
        47.000          37.000
 110640314.85747  86213225.55146  21054140.477    21054140.426    21054144.621
        46.000          38.000
 118035440.69247  91975685.41445  22461391.306    22461390.063    22461391.801
        46.000          33.000
 110390565.47648  86018628.44148  21006622.445    21006622.470    21006628.749
        48.000          49.000
 20  5  2  0 12 30.0000000  0 11R 7G 3G14R 1R 8G31G 9G16G 4G22G26
 117223168.702 7  91173555.717 6  21898264.065    21898263.959    21898267.017
        46.000          40.000
 110826282.93248  86358154.62148  21089536.696    21089537.082    21089542.843
        49.000          50.000
 127781146.06145  99569728.40542  24315940.635    24315939.428    24315944.186
        34.000          13.000
 109288918.566 7  85002515.979 6  20444749.986    20444761.409    20444768.852
        47.000          39.000
 103521101.196 8  80516399.260 8  19331827.610    19331828.544    19331830.557
        48.000          49.000
 121550882.08047  94714991.38346  23130362.756    23130362.993    23130365.749
        42.000          38.000
 123534490.02546  96260657.78246  23507828.056    23507828.212    23507833.670
        39.000          36.000
 110888125.16447  86406339.76646  21101306.112    21101305.757    21101308.998
        47.000          37.000
 110664205.19047  86231841.40446  21058686.584    21058686.930    21058690.877
        47.000          38.000
 118194951.18547  92099979.29145  22491745.455    22491744.130    22491745.722
        45.000          33.000
 110482824.60147  86090518.66648  21024178.806    21024178.797    21024185.080
        47.000          49.000
 20  5  2  0 13  0.0000000  0 11R 7G 3G14R 1R 8G31G 9G16G 4G22G26
 117405756.275 7  91315568.251 6  21932373.009    21932372.825    21932376.725
        46.000          41.000
 110950470.31248  86454924.00148  21113168.967    21113169.209    21113174.910
        49.000          50.000
 127939486.97445  99693110.87842  24346071.412    24346072.422    24346075.027
        35.000          13.000
 109282784.627 8  84997745.138 6  20443603.082    20443613.911    20443621.149
        48.000          40.000
 103610518.852 8  80585946.313 8  19348525.633    19348526.685    19348528.537
        49.000          49.000
 121717678.13546  94844962.28946  23162103.141    23162103.490    23162105.703
        41.000          38.000
 123518890.11246  96248502.02146  23504859.560    23504859.451    23504865.089
        39.000          36.000
 110899308.40647  86415053.98446  21103434.190    21103433.802    21103436.835
        47.000          37.000
 110688375.87047  86250675.69746  21063286.144    21063286.513    21063290.342
        46.000          38.000
 118354795.84847  92224533.56645  22522162.571    22522161.623    22522163.190
        45.000          33.000
 110575704.67248  86162892.75148  21041853.310    21041853.206    21041859.724
        48.000          49.000
 20  5  2  0 13 30.0000000  0 11R 7G 3G14R 1R 8G31G 9G16G 4G22G26
 117588721.612 7  91457874.596 6  21966552.337    21966552.127    21966556.088
        45.000          41.000
 111075208.88548  86552122.88248  21136905.957    21136906.228    21136911.926
        48.000          50.000
 128097984.78445  99816615.61842  24376233.937    24376232.841    24376235.588
        35.000          12.000
 109277089.485 8  84993315.590 6  20442536.792    20442548.949    20442555.888
        48.000          40.000
 103700612.230 8  80656018.931 8  19365349.968    19365351.117    19365352.782
        49.000          48.000
 121884565.47847  94975004.34446  23193860.696    23193860.640    23193863.093
        42.000          38.000
 123503376.94246  96236413.84546  23501907.108    23501907.257    23501912.763
        40.000          36.000
 110911069.51147  86424218.49546  21105672.364    21105671.652    21105674.963
        47.000          37.000
 110712823.19147  86269725.56946  21067938.499    21067938.797    21067942.460
        47.000          38.000
 118514967.43147  92349342.56945  22552642.254    22552641.358    22552642.579
        44.000          33.000
 110669199.70348  86235746.01548  21059645.193    21059644.788    21059651.190
        48.000          49.000
 20  5  2  0 14  0.0000000  0 11R 7G 3G14R 1R 8G31G 9G16G 4G22G26
 117772068.461 7  91600477.669 6  22000802.650    22000802.726    22000806.967
        45.000          41.000
 111200502.98848  86649754.63448  21160748.460    21160748.813    21160754.573
        49.000          49.000
 128256644.77145  99940246.76442  24406424.424    24406424.967    24406429.674
        34.000          12.000
 109271842.178 8  84989234.350 6  20441556.309    20441567.706    20441573.912
        48.000          40.000
 103791388.479 8  80726622.673 8  19382301.907    19382302.845    19382304.646
        49.000          49.000
 122051548.46847  95105120.91946  23225636.348    23225636.861    23225639.271
        42.000          38.000
 123487957.68146  96224398.86246  23498973.559    23498973.074    23498978.774
        39.000          36.000
 110923416.75647  86433839.72346  21108021.953    21108021.291    21108024.468
        47.000          37.000
 110737554.51947  86288996.73646  21072644.852    21072644.795    21072648.809
        46.000          38.000
 118675469.85447  92474409.38845  22583184.759    22583183.853    22583185.720
        45.000          33.000
 110763314.71348  86309082.39248  21077554.467    21077554.371    21077560.699
        48.000          49.000
 20  5  2  0 14 30.0000000  0 11R 7G 3G14R 1R 8G31G 9G16G 4G22G26
 117955794.424 7  91743375.609 6  22035124.462    22035124.286    22035128.294
        45.000          41.000
 111326350.58047  86747817.68048  21184696.450    21184696.730    21184702.537
        47.000          50.000
 128415466.00845 100064003.44442  24436646.938    24436646.487    24436650.723
        34.000          12.000
 109267045.852 8  84985503.867 6  20440659.187    20440670.097    20440677.085
        48.000          39.000
 103882847.826 8  80797757.708 8  19399380.657    19399381.932    19399384.000
        48.000          49.000
 122218625.10447  95235310.47646  23257430.635    23257430.460    23257432.842
        43.000          38.000
 123472633.17946  96212457.70445  23496056.431    23496056.861    23496062.922
        39.000          35.000
 110936352.06047  86443919.18446  21110483.152    21110482.806    21110486.137
        47.000          38.000
 110762570.73347  86308489.89246  21077404.886    21077405.117    21077409.245
        46.000          38.000
 118836300.08447  92599731.62645  22613790.018    22613788.626    22613790.733
        45.000          32.000
 110858048.28547  86382900.76148  21095581.464    21095581.486    21095587.859
        47.000          49.000
 20  5  2  0 15  0.0000000  0 11R 7G 3G14R 1R 8G31G 9G16G 4G22G26
 116535076.006 7  90638372.356 6  21769722.780    21769721.956    21769726.483
        45.000          41.000
 109877319.88748  85618702.84548  20908955.177    20908955.401    20908961.193
        48.000          50.000
 126999019.16045  98960278.52842  24167105.926    24167104.280    24167110.731
        34.000          12.000
 107660126.914 8  83735678.038 6  20140051.491    20140062.453    20140069.277
        48.000          40.000
 102369604.250 8  79620790.470 8  19116792.910    19116794.427    19116796.369
        49.000          48.000
 120810365.25947  94137965.10446  22989446.981    22989447.404    22989449.976
        42.000          38.000
 121881969.82946  94972979.78146  23193364.344    23193364.037    23193369.511
        39.000          36.000
 109374443.97348  85226847.95146  20813262.046    20813261.679    20813265.104
        48.000          38.000
 109212439.71147  85100595.59146  20782424.801    20782424.929    20782429.179
        46.000          38.000
 117422026.66147  91497700.36945  22344662.641    22344661.708    22344662.933
        45.000          33.000
 109377968.26847  85229591.65848  20813931.764    20813931.637    20813937.985
        47.000          49.000
 20  5  2  0 15 30.0000000  0 11R 7G 3G14R 1R 8G31G 9G16G 4G22G26
 116719523.749 7  90781831.682 6  21804179.271    21804179.299    21804183.024
        45.000          41.000
 110004240.88648  85717602.31048  20933107.539    20933107.801    20933113.505
        48.000          50.000
 127158133.05245  99084263.36541  24197384.966    24197388.713    24197389.369
        33.000          10.000
 107656214.137 8  83732634.765 6  20139320.097    20139330.353    20139337.175
        48.000          40.000
 102462402.296 8  79692966.719 8  19134123.174    19134124.411    19134125.836
        48.000          49.000
 120977596.26747  94268274.95446  23021270.211    23021270.581    23021273.124
        42.000          38.000
 121866809.95346  94961166.90346  23190479.056    23190479.260    23190485.010
        40.000          36.000
 109388533.51647  85237826.81946  20815943.395    20815942.903    20815945.958
        47.000          37.000
 109238001.16147  85120513.61546  20787288.953    20787288.995    20787293.317
        46.000          38.000
 117583476.24347  91623505.23145  22375385.204    22375384.365    22375386.414
        45.000          32.000
 109473907.35147  85304349.38648  20832188.265    20832188.043    20832194.548
        47.000          49.000
 20  5  2  0 16  0.0000000  0 11R 7G 3G14R 1R 8G31G 9G16G 4G22G26
 116904340.642 7  90925578.113 6  21838704.351    21838704.486    21838707.865
        45.000          41.000
 110131707.29348  85816926.76948  20957363.684    20957363.940    20957369.585
        48.000          50.000
 127317403.59145  99208370.21241  24227693.467    24227693.096    24227695.268
        33.000          10.000
 107652759.487 8  83729947.819 6  20138672.962    20138684.148    20138691.272
        48.000          40.000
 102555882.396 8  79765673.450 8  19151579.884    19151580.933    19151582.533
        49.000          48.000
 121144913.21447  94398651.75346  23053109.735    23053109.839    23053112.536
        42.000          37.000
 121851745.53746  94949428.40646  23187613.035    23187612.599    23187618.278
        40.000          36.000
 109403214.55647  85249266.59946  20818737.114    20818736.733    20818739.821
        47.000          38.000
 109263848.52547  85140654.41346  20792207.732    20792207.701    20792211.677
        46.000          38.000
 117745243.08547  91749557.30045  22406168.489    22406167.406    22406169.683
        45.000          32.000
 109570458.84948  85379584.31748  20850561.353    20850561.332    20850567.787
        48.000          49.000
 20  5  2  0 16 30.0000000  0 11R 7G 3G14R 1R 8G31G 9G16G 4G22G26
 117089519.202 7  91069605.850 6  21873297.342    21873297.169    21873300.866
        46.000          40.000
 110259712.25148  85916670.88148  20981722.211    20981722.457    20981728.146
        48.000          50.000
 127476825.15545  99332594.79041  24258031.049    24258032.577    24258032.241
        32.000           8.000
 107649761.505 8  83727616.058 6  20138112.730    20138123.487    20138130.517
        49.000          40.000
 102650039.872 8  79838907.027 8  19169162.734    19169164.082    19169165.935
        49.000          49.000
 121312309.61747  94529090.46946  23084964.379    23084964.355    23084967.255
        42.000          38.000
 121836772.73746  94937761.31446  23184763.337    23184763.436    23184768.861
        40.000          36.000
 109418484.27447  85261165.08446  20821642.884    20821642.428    20821645.525
        47.000          38.000
 109289978.02047  85161015.06646  20797179.982    20797179.972    20797183.873
        46.000          38.000
 117907319.61047  91875850.67045  22437010.206    22437009.409    22437012.035
        44.000          32.000
 109667616.56047  85455291.62548  20869049.710    20869049.829    20869056.300
        47.000          49.000
 20  5  2  0 17  0.0000000  0 11R 7G 3G14R 1R 8G31G 9G16G 4G22G26
 117275061.269 7  91213916.316 6  21907958.392    21907957.136    21907961.691
        45.000          40.000
 110388258.11048  86016836.46548  21006183.457    21006183.855    21006189.563
        49.000          50.000
 127636401.32845  99456939.87141  24288397.587    24288393.442    24288401.914
        31.000           7.000
 107647227.190 8  83725644.943 6  20137636.830    20137648.908    20137656.199
        48.000          40.000
 102744879.216 8  79912670.944 8  19186873.792    19186874.824    19186876.371
        49.000          49.000
 121479788.23947  94659593.23746  23116834.433    23116834.397    23116837.427
        43.000          38.000
 121821896.84046  94926169.72346  23181932.799    23181933.107    23181938.270
        40.000          37.000
 109434348.83047  85273527.07346  20824661.696    20824661.226    20824664.440
        47.000          38.000
 109316395.01947  85181599.75046  20802206.827    20802207.328    20802210.998
        46.000          38.000
 118069707.17747  92002386.42345  22467911.915    22467910.856    22467913.221
        44.000          32.000
 109765383.43247  85531473.59948  20887654.567    20887654.338    20887660.828
        47.000          49.000
 20  5  2  0 17 30.0000000  0 11R 7G 3G14R 1R 8G31G 9G16G 4G22G26
 117460962.152 7  91358505.865 6  21942686.592    21942686.065    21942689.491
        46.000          40.000
 110517340.99948  86117420.52848  21030747.331    21030747.532    21030753.202
        48.000          50.000
 127796129.46545  99581403.3124   24318791.276    24318791.127    24318795.786
        30.000           5.000
 107645158.264 8  83724035.781 6  20137250.835    20137261.952    20137269.182
        48.000          40.000
 102840399.233 8  79986964.270 8  19204711.279    19204712.421    19204714.067
        49.000          49.000
 121647345.13447  94790157.01146  23148719.233    23148719.414    23148722.287
        42.000          38.000
 121807117.09546  94914653.04746  23179119.974    23179120.536    23179125.441
        41.000          37.000
 109450808.23048  85286352.58546  20827793.714    20827793.437    20827796.359
        48.000          38.000
 109343098.84947  85202407.92646  20807288.509    20807288.636    20807292.571
        46.000          38.000
 118232401.51947  92129161.21945  22498871.495    22498870.411    22498872.773
        45.000          32.000
 109863756.25848  85608127.74848  20906374.142    20906374.106    20906380.447
        48.000          49.000
 20  5  2  0 18  0.0000000  0 11R 7G 3G14R 1R 8G31G 9G16G 4G22G26
 117647226.247 7  91503377.913 6  21977481.870    21977482.123    21977485.148
        46.000          40.000
 110646965.33948  86218426.49048  21055413.909    21055414.194    21055419.869
        48.000          50.000
 127956015.20245  99705989.5064   24349217.099    24349215.576    24349221.791
        30.000           4.000
 107643564.295 8  83722796.026 6  20136952.843    20136963.734    20136971.291
        48.000          40.000
 102936606.667 8  80061792.264 8  19222677.506    19222678.595    19222680.459
        49.000          49.000
 121814985.27647  94920785.65546  23180620.554    23180620.196    23180623.303
        42.000          37.000
 121792440.91546  94903217.08646  23176327.697    23176327.462    23176332.551
        40.000          37.000
 109467870.80447  85299648.09346  20831040.585    20831040.361    20831043.305
        47.000          38.000
 109370096.99847  85223445.45546  20812425.919    20812426.038    20812430.189
        47.000          38.000
 118395405.99147  92256177.67345  22529890.066    22529889.102    22529891.614
        44.000          32.000
 109962740.02948  85685257.95248  20925210.075    20925210.136    20925216.480
        48.000          49.000
 20  5  2  0 18 30.0000000  0 11R 7G 3G14R 1R 8G31G 9G16G 4G22G26
 117833857.023 7  91648535.147 6  22012346.104    22012345.108    22012349.385
        45.000          40.000
 110777135.14248  86319857.49248  21080184.362    21080184.710    21080190.379
        48.000          49.000
 128116063.87745                  24379672.019
        31.000
 107642454.606 8  83721932.932 6  20136746.435    20136756.446    20136763.555
        48.000          40.000
 103033507.559 8  80137159.606 8  19240773.331    19240773.955    19240776.042
        49.000          49.000
 121982712.93347  95051482.48746  23212537.635    23212537.876    23212540.544
        42.000          37.000
 121777875.44146  94891867.38446  23173555.617    23173555.654    23173561.043
        40.000          38.000
 109485544.17048  85313419.55146  20834403.793    20834403.193    20834406.394
        48.000          37.000
 109397396.67247  85244717.92846  20817620.761    20817621.083    20817625.263
        47.000          38.000
 118558723.91847  92383438.37545  22560968.162    22560967.579    22560969.786
        44.000          31.000
 110062339.41048  85762867.86148  20944163.445    20944163.259    20944169.642
        48.000          49.000
 20  5  2  0 19  0.0000000  0 11R 7G 3G14R 1R 8G31G 9G16G 4G22G26
 118020839.620 7  91793966.026 6  22047276.609    22047276.000    22047280.037
        45.000          40.000
 110907836.33348  86421702.56648  21105055.924    21105056.328    21105062.006
        48.000          50.000
 128276262.97745                  24410158.044
        31.000
 107641820.315 8  83721439.590 6  20136626.628    20136637.762    20136645.056
        48.000          40.000
 103131090.253 8  80213057.247 8  19258995.553    19258997.057    19258998.789
        49.000          49.000
 122150514.47146  95182236.89846  23244469.662    23244469.416    23244472.193
        41.000          36.000
 121763409.74646  94880595.43946  23170802.795    23170802.831    23170808.223
        40.000          37.000
 109503818.23547  85327659.07346  20837881.292    20837880.752    20837883.961
        47.000          38.000
 109424986.96147  85266216.85946  20822871.392    20822871.242    20822875.507
        47.000          38.000
 118722340.79047  92510932.03045  22592103.541    22592102.566    22592105.213
        44.000          31.000
 110162540.94548  85840946.97548  20963231.063    20963230.769    20963237.512
        48.000          49.000
 20  5  2  0 19 30.0000000  0 11R 7G 3G14R 1R 8G31G 9G16G 4G22G26
 118208172.969 7  91939669.700 6  22082272.027    22082272.036    22082274.997
        45.000          40.000
 111039068.35148  86523961.26748  21130028.600    21130029.022    21130034.642
        48.000          49.000
 128436613.03845                  24440673.314
        30.000
 107641665.883 8  83721319.483 6  20136597.314    20136608.752    20136616.061
        48.000          40.000
 103229356.655 8  80289486.655 8  19277345.894    19277347.309    19277349.333
        49.000          49.000
 122318389.64546  95313048.67246  23276414.972    23276414.978    23276418.212
        41.000          36.000
 121749046.35846  94869403.20446  23168069.180    23168069.391    23168075.049
        40.000          38.000
 109522696.54147  85342369.43646  20841473.496    20841473.016    20841476.219
        47.000          38.000
 109452870.52747  85287944.31246  20828177.047    20828177.203    20828181.450
        46.000          38.000
 118886255.45447  92638657.72745  22623296.191    22623294.956    22623297.081
        45.000          31.000
 110263344.67248  85919495.32448  20982413.279    20982413.235    20982419.422
        48.000          49.000
 20  5  2  0 20  0.0000000  0 11R 7G 3G14R 1R 8G31G 9G16G 4G22G26
 118395847.140 7  92085638.457 6  22117330.566    22117329.957    22117333.724
        44.000          39.000
 111170821.72947  86626626.22148  21155100.677    21155100.897    21155106.456
        47.000          49.000
 128597105.74445                  24471211.634
        30.000
 107641987.287 8  83721569.456 6  20136657.705    20136669.238    20136675.910
        49.000          40.000
 103328298.909 8  80366441.733 8  19295823.151    19295824.313    19295826.399
        49.000          49.000
 122486329.52447  95443910.87346  23308372.782    23308372.988    23308376.135
        42.000          36.000
 121734779.01146  94858285.80746  23165354.458    23165354.646    23165360.148
        41.000          38.000
 109542172.97347  85357545.88046  20845179.711    20845179.160    20845182.340
        47.000          38.000
 109481041.06647  85309895.38546  20833537.796    20833538.085    20833542.031
        47.000          39.000
 119050457.31147  92766607.21045  22654542.792    22654541.669    22654543.738
        44.000          31.000
 110364741.71547  85998506.00348  21001708.345    21001708.402    21001714.898
        47.000          49.000
 20  5  2  0 20 30.0000000  0 11R 7G 3G14R 1R 8G31G 9G16G 4G22G26
 118583856.853 7  92231868.177 6  22152452.509    22152451.983    22152456.272
        45.000          40.000
 111303091.85447  86729693.83848  21180270.565    21180271.060    21180276.685
        47.000          50.000
 128757737.85045                  24501777.383
        31.000
 107642784.749 8  83722189.704 6  20136806.985    20136818.159    20136825.158
        49.000          40.000
 103427914.495 8  80443920.511 8  19314425.921    19314426.640    19314428.667
        49.000          49.000
 122654329.89247  95574820.20546  23340342.992    23340342.799    23340345.442
        42.000          36.000
 121720606.33646  94847242.18546  23162657.899    23162657.780    23162663.004
        41.000          38.000
 109562247.10247  85373188.05946  20848999.901    20848999.315    20849002.579
        47.000          38.000
 109509497.29747  85332069.07846  20838952.935    20838953.324    20838956.992
        47.000          39.000
 119214941.17947  92894776.44545  22685842.763    22685841.877    22685844.013
        44.000          31.000
 110466728.11648  86077975.92148  21021115.895    21021115.783    21021122.201
        48.000          49.000
 20  5  2  0 21  0.0000000  0 11R 7G 3G14R 1R 8G31G 9G16G 4G22G26
 118772199.934 7  92378357.204 6  22187636.388    22187636.716    22187640.417
        45.000          39.000
 111435876.89948  86833162.69248  21205538.850    21205539.311    21205544.863
        48.000          49.000
 128918508.95645                  24532373.930
        32.000
 107644062.007 8  83723183.139 6  20137044.661    20137057.277    20137064.301
        49.000          40.000
 103528204.299 8  80521923.679 8  19333154.010    19333155.259    19333157.026
        49.000          49.000
 122822389.36546  95705775.60645  23372323.318    23372323.143    23372326.072
        41.000          35.000
 121706529.69246  94836273.38746  23159979.062    23159978.966    23159984.386
        40.000          38.000
 109582920.82548  85389297.45746  20852933.791    20852933.620    20852936.584
        48.000          38.000
 109538240.59247  85354466.45546  20844423.028    20844423.172    20844426.796
        47.000          38.000
 119379704.76947  93023163.64545  22717196.307    22717195.008    22717197.029
        44.000          31.000
 110569302.62647  86157904.10448  21040635.313    21040634.973    21040641.405
        47.000          49.000
 20  5  2  0 21 30.0000000  0 11R 7G 3G14R 1R 8G31G 9G16G 4G22G26
 118960877.923 7  92525106.707 6  22222882.724    22222883.186    22222885.922
        45.000          39.000
 111569178.77048  86937034.26548  21230905.564    21230905.911    21230911.364
        48.000          49.000
 129079422.30445                  24562994.886
        32.000
 107645825.940 8  83724555.083 6  20137375.080    20137387.242    20137394.449
        48.000          40.000
 103629172.477 8  80600454.474 8  19352009.487    19352010.342    19352012.157
        49.000          49.000
 122990510.45946  95836779.00245  23404315.798    23404315.561    23404318.775
        41.000          35.000
 121692554.21746  94825383.42346  23157320.191    23157319.437    23157325.060
        41.000          39.000
 109604199.92447  85405878.56646  20856983.204    20856982.842    20856985.751
        47.000          38.000
 109567276.15147  85377091.56646  20849948.276    20849948.127    20849951.901
        47.000          39.000
 119544749.27947  93151769.73245  22748603.238    22748601.977    22748604.583
        44.000          31.000
 110672467.72048  86238292.47848  21060267.057    21060266.891    21060273.089
        48.000          49.000
 20  5  2  0 22  0.0000000  0 11R 7G 3G14R 1R 8G31G 9G16G 4G22G26
 119149896.554 7  92672121.163 6  22258193.304    22258193.666    22258197.413
        45.000          40.000
 111703003.78248  87041313.48148  21256371.708    21256372.040    21256377.457
        48.000          49.000
 129240485.73945                  24593643.532
        33.000
 107648088.648 8  83726314.960 6  20137798.541    20137810.495    20137817.717
        49.000          41.000
 103730827.697 8  80679519.635 8  19370992.601    19370993.869    19370995.520
        49.000          49.000
 123158700.05046  95967835.77845  23436321.172    23436321.226    23436323.949
        40.000          35.000
 121678689.53046  94814579.79046  23154680.951    23154681.118    23154686.917
        41.000          38.000
 109626094.36947  85422939.17546  20861149.386    20861149.007    20861152.169
        47.000          38.000
 109596613.55847  85399951.88846  20855530.676    20855530.677    20855534.626
        46.000          38.000
 119710080.60647  93280599.32145  22780064.481    22780063.644    22780066.221
        43.000          31.000
 110776230.34347  86319146.46148  21080012.290    21080012.090    21080018.431
        47.000          49.000
 20  5  2  0 22 30.0000000  0 11R 7G 3G14R 1R 8G31G 9G16G 4G22G26
 119339236.722 7  92819385.697 6  22293563.291    22293563.524    22293567.872
        44.000          40.000
 111837333.45048  87145985.93648  21281933.328    21281934.138    21281939.645
        48.000          49.000
 129401681.91745                  24624317.870
        32.000
 107650836.778 8  83728452.400 6  20138313.514    20138324.868    20138331.906
        49.000          40.000
 103833153.484 8  80759106.352 8  19390101.092    19390102.327    19390104.111
        49.000          49.000
 123326940.17246  96098931.94345  23468336.272    23468336.022    23468339.136
        40.000          34.000
 121664920.44646  94803850.64846  23152060.668    23152060.499    23152066.435
        40.000          38.000
 109648589.78447  85440468.05946  20865430.293    20865429.842    20865432.994
        47.000          39.000
 109626237.71947  85423035.65146  20861167.931    20861167.959    20861172.042
        47.000          39.000
 119875679.72347  93409637.58145  22811576.932    22811576.184    22811578.142
        44.000          31.000
 110880572.62648  86400452.13348  21099868.187    21099868.069    21099874.209
        48.000          49.000
 20  5  2  0 23  0.0000000  0 11R 7G 3G14R 1R 8G31G 9G16G 4G22G26
 119528902.022 7  92966903.124 6  22328994.870    22328994.286    22328998.583
        44.000          40.000
 111972171.59348  87251054.60048  21307592.381    21307592.939    21307598.580
        48.000          49.000
 129563016.54145                  24655019.864
        32.000
 107654079.373 8  83730974.426 6  20138919.652    20138931.331    20138938.364
        49.000          40.000
 103936155.686 8  80839219.164 8  19409336.204    19409337.383    19409339.059
        49.000          49.000
 123495235.23646  96230070.90545  23500361.180    23500361.730    23500364.433
        40.000          35.000
 121651254.15346  94793201.60246  23149459.906    23149459.433    23149465.571
        40.000          38.000
 109671693.43348  85458470.90346  20869826.950    20869826.300    20869829.505
        48.000          38.000
 109656155.73247  85446348.38146  20866861.214    20866861.132    20866865.377
        47.000          39.000
 120041549.40247  93538886.66745  22843141.124    22843140.104    22843142.508
        44.000          31.000
 110985498.92848  86482212.87748  21119834.635    21119834.817    21119840.899
        48.000          49.000
 20  5  2  0 23 30.0000000  0 11R 7G 3G14R 1R 8G31G 9G16G 4G22G26
 119718886.281 7  93114668.634 6  22364484.779    22364485.110    22364489.367
        43.000          40.000
 112107512.65248  87356515.14948  21333347.130    21333347.496    21333353.170
        48.000          49.000
 129724484.78845                  24685744.955
        32.000
 107657816.350 8  83733880.959 6  20139619.030    20139630.210    20139637.280
        49.000          40.000
 104039830.797 8  80919855.351 8  19428696.859    19428697.923    19428699.747
        49.000          49.000
 123663580.22446  96361248.77745  23532396.568    23532396.989    23532399.494
        41.000          35.000
 121637688.35346  94782630.85746  23146877.903    23146877.858    23146884.056
        39.000          37.000
 109695403.78347  85476946.50146  20874338.493    20874338.066    20874341.603
        47.000          38.000
 109686365.43747  85469888.40446  20872609.855    20872610.011    20872613.883
        47.000          39.000
 120207683.66747  93668341.90545  22874755.146    22874754.390    22874756.682
        43.000          31.000
 111091004.25648  86564424.82148  21139911.939    21139911.888    21139917.844
        48.000          49.000
 20  5  2  0 24  0.0000000  0 11R 7G 3G14R 1R 8G31G 9G16G 4G22G26
 119909192.154 7  93262684.283 6  22400036.679    22400035.910    22400040.644
        43.000          41.000
 112243359.73648  87462370.01048  21359197.764    21359198.309    21359203.972
        48.000          49.000
 129886091.52345                  24716499.386
        32.000
 107662056.199 8  83737178.624 6  20140411.999    20140423.170    20140430.484
        49.000          40.000
 104144184.294 8  81001019.169 8  19448184.038    19448185.113    19448187.013
        50.000          49.000
 123831979.09346  96492468.61846  23564442.070    23564442.028    23564445.227
        41.000          36.000
 121624229.63846  94772143.57246  23144317.061    23144317.054    23144322.923
        40.000          38.000
 109719727.69947  85495900.19946  20878967.507    20878966.945    20878969.961
        47.000          38.000
 109716873.31947  85493660.78246  20878415.513    20878415.672    20878419.266
        47.000          39.000
 120374085.24747  93798005.46545  22906420.560    22906419.461    22906421.849
        44.000          30.000
 111197092.32547  86647090.84448  21160099.752    21160099.511    21160105.794
        47.000          48.000
 20  5  2  0 24 30.0000000  0 10R 7G 3R 1R 8G31G 9G16G 4G22G26
 120099813.496 7  93410945.278 6  22435645.970    22435646.143    22435650.476
        44.000          40.000
 112379706.93947  87568614.56948  21385143.842    21385144.248    21385150.035
        47.000          49.000
 107666798.366 8  83740866.975 6  20141299.383    20141310.149    20141317.656
        48.000          40.000
 104249212.648 8  81082707.882 8  19467797.219    19467798.457    19467800.293
        49.000          49.000
 124000425.94946  96623725.86746  23596496.208    23596496.637    23596499.554
        41.000          36.000
 121610875.49246  94761737.76446  23141776.191    23141776.221    23141781.719
        41.000          38.000
 109744663.15047  85515330.41746  20883712.516    20883711.853    20883715.136
        47.000          39.000
 109747676.86547  85517663.54646  20884277.457    20884277.269    20884281.325
        46.000          39.000
 120540747.15347  93927871.86345  22938135.441    22938133.955    22938136.630
        43.000          30.000
 111303757.86748  86730206.84548  21180397.057    21180397.452    21180403.561
        48.000          48.000
 20  5  2  0 25  0.0000000  0 10R 7G 3R 1R 8G31G 9G16G 4G22G26
 118685943.092 7  92311268.254 6  22171523.272    22171523.774    22171527.635
        45.000          40.000
 110941138.18348  86447651.88648  21111393.478    21111393.818    21111399.524
        48.000          49.000
 106069485.124 8  82498512.238 6  19842488.547    19842499.698    19842506.984
        48.000          41.000
 102749545.593 8  79916300.160 8  19187745.090    19187746.323    19187748.050
        49.000          48.000
 122593506.80946  95527425.18946  23328768.309    23328768.510    23328771.706
        41.000          36.000
 120022208.21446  93523815.21546  22839462.590    22839462.778    22839468.053
        41.000          38.000
 108194793.85547  84307640.05646  20588782.216    20588781.664    20588785.090
        47.000          39.000
 108203359.90747  84314299.67946  20590403.746    20590403.659    20590407.692
        47.000          39.000
 119132254.10647  92830344.80444  22670107.927    22670107.072    22670109.280
        44.000          29.000
 109835584.31847  85586175.50348  20901013.222    20901013.189    20901019.530
        47.000          48.000
 20  5  2  0 25 30.0000000  0 10R 7G 3R 1R 8G31G 9G16G 4G22G26
 118877190.935 7  92460016.549 6  22207249.718    22207249.963    22207254.217
        44.000          40.000
 111078482.64747  86554673.52348  21137529.218    21137529.605    21137535.229
        47.000          49.000
 106075245.105 8  82502992.222 6  19843565.499    19843577.379    19843585.056
        48.000          41.000
 102855926.599 8  79999040.937 8  19207611.240    19207612.490    19207613.753
        49.000          48.000
 122762049.80246  95658757.35245  23360840.700    23360841.385    23360844.448
        41.000          35.000
 120009070.48046  93513578.04246  22836962.474    22836962.513    22836968.029
        40.000          38.000
 108220960.44547  84328029.60046  20593761.431    20593761.136    20593764.440
        47.000          39.000
 108234762.06147  84338768.88446  20596378.990    20596379.141    20596383.261
        47.000          39.000
 119299433.02647  92960614.06545  22701921.393    22701920.209    22701922.450
        43.000          30.000
 109943403.40447  85670190.36948  20921530.677    20921530.292    20921536.702
        47.000          48.000
 20  5  2  0 26  0.0000000  0 10R 7G 3R 1R 8G31G 9G16G 4G22G26
 119068749.739 7  92609006.685 6  22243034.501    22243035.210    22243039.008
        44.000          39.000
 111216324.07747  86662082.42048  21163759.653    21163759.844    21163765.653
        47.000          49.000
 106081520.340 8  82507872.963 6  19844739.883    19844751.236    19844758.765
        48.000          41.000
 102962985.456 8  80082308.921 8  19227603.759    19227604.765    19227606.373
        49.000          49.000
 122930640.48046  95790126.65945  23392922.999    23392923.188    23392926.132
        40.000          35.000
 119996044.54746  93503427.98046  22834483.828    22834483.728    22834489.451
        40.000          38.000
 108247746.60547  84348901.92546  20598858.706    20598858.250    20598861.628
        47.000          39.000
 108266467.04747  84363474.06246  20602412.226    20602412.335    20602416.549
        46.000          39.000
 119466867.86847  93091082.75545  22733783.168    22733781.869    22733784.154
        44.000          30.000
 110051798.50047  85754654.07448  20942157.122    20942157.314    20942163.762
        47.000          48.000
 20  5  2  0 26 30.0000000  0 10R 7G 3R 1R 8G31G 9G16G 4G22G26
 119260604.033 7  92758226.655 6  22278874.207    22278874.551    22278879.066
        45.000          39.000
 111354647.36947  86769866.78548  21190081.594    21190081.870    21190087.632
        47.000          49.000
 106088300.988 8  82513146.791 6  19846008.398    19846019.749    19846026.811
        49.000          41.000
 103070708.927 8  80166093.833 8  19247719.948    19247721.244    19247723.047
        49.000          48.000
 123099264.04046  95921521.59545  23425011.494    23425011.078    23425014.071
        40.000          34.000
 119983118.73046  93493355.92246  22832024.641    22832023.877    22832030.141
        40.000          38.000
 108275141.09447  84370248.28046  20604071.817    20604071.140    20604074.312
        47.000          39.000
 108298463.21847  84388406.14346  20608500.771    20608501.109    20608505.161
        46.000          39.000
 119634542.98247  93221738.66745  22765690.509    22765689.576    22765691.719
        43.000          30.000
 110160755.00347  85839555.23948  20962891.294    20962891.133    20962897.414
        47.000          48.000
 20  5  2  0 27  0.0000000  0 10R 7G 3R 1R 8G31G 9G16G 4G22G26
 119452758.991 7  92907680.495 6  22314771.170    22314771.081    22314773.935
        44.000          38.000
 111493458.25447  86878031.09148  21216496.394    21216496.590    21216502.472
        47.000          48.000
 106095598.688 8  82518822.778 6  19847373.656    19847384.761    19847392.113
        49.000          40.000
 103179105.095 8  80250401.950 8  19267962.376    19267963.388    19267965.393
        50.000          49.000
 123267927.24046  96052947.41745  23457106.274    23457106.396    23457109.451
        40.000          34.000
 119970302.36946  93483369.16646  22829585.535    22829585.129    22829591.145
        40.000          38.000
 108303153.44648  84392076.08046  20609402.252    20609401.843    20609405.174
        48.000          39.000
 108330759.78747  84413572.30146  20614646.704    20614646.937    20614650.815
        47.000          39.000
 119802463.62347  93352585.89145  22797644.830    22797644.158    22797645.782
        43.000          30.000
 110270279.22847  85924898.77948  20983733.114    20983732.731    20983739.197
        47.000          48.000
 20  5  2  0 27 30.0000000  0 10R 7G 3R 1R 8G31G 9G16G 4G22G26
 119645214.719 7  93057368.230 6  22350723.380    22350722.553    22350726.607
        44.000          38.000
 111632757.08647  86986575.61948  21243003.946    21243004.331    21243010.202
        47.000          49.000
 106103419.007 8  82524905.247 6  19848837.075    19848848.143    19848854.938
        49.000          41.000
 103288176.428 8  80335235.195 8  19288330.579    19288331.604    19288333.801
        49.000          48.000
 123436631.50246  96184405.24845  23489209.711    23489209.932    23489213.177
        39.000          34.000
 119957599.35046  93473470.71446  22827168.574    22827167.991    22827173.864
        41.000          39.000
 108331787.29848  84414388.17546  20614851.220    20614850.864    20614853.995
        48.000          39.000
 108363360.63247  84438975.55146  20620850.520    20620850.624    20620854.459
        47.000          39.000
 119970629.68147  93483624.36544  22829645.955    22829644.840    22829646.496
        43.000          29.000
 110380372.07348  86010685.41248  21004682.833    21004682.711    21004689.217
        48.000          48.000
 20  5  2  0 28  0.0000000  0 10R 7G 3R 1R 8G31G 9G16G 4G22G26
 119837966.650 7  93207286.386 6  22386731.053    22386731.893    22386734.157
        45.000          37.000
 111772539.70748  87095497.11948  21269603.792    21269604.160    21269610.039
        48.000          48.000
 106111763.037 8  82531395.048 6  19850397.338    19850408.775    19850415.646
        49.000          41.000
 103397920.626 8  80420591.782 8  19308824.200    19308825.786    19308827.596
        49.000          49.000
 123605373.05846  96315892.12145  23521320.184    23521320.371    23521323.399
        39.000          33.000
 119945009.14147  93463660.16546  22824772.256    22824772.367    22824777.954
        42.000          39.000
 108361042.65248  84437184.55646  20620418.604    20620417.919    20620420.964
        48.000          39.000
 108396265.14947  84464615.44246  20627111.944    20627111.889    20627115.886
        47.000          39.000
 120139036.29747  93614850.28244  22861692.595    22861691.553    22861693.306
        43.000          29.000
 110491029.96947  86096912.33747  21025740.078    21025740.213    21025746.578
        47.000          47.000
 20  5  2  0 28 30.0000000  0 10R 7G 3R 1R 8G31G 9G16G 4G22G26
 120031005.472 7  93357427.643 6  22422791.576    22422791.819    22422795.433
        44.000          37.000
 111912797.27747  87204788.71748  21296293.993    21296294.283    21296300.228
        47.000          48.000
 106120627.434 8  82538289.570 6  19852056.119    19852067.478    19852074.597
        49.000          41.000
 103508330.682 8  80506466.259 8  19329442.737    19329443.915    19329446.041
        50.000          49.000
 123774144.21546  96447402.05345  23553436.219    23553436.521    23553439.442
        37.000          32.000
 119932526.43147  93453933.40046  22822397.257    22822397.099    22822402.277
        42.000          40.000
 108390914.34948  84460461.20446  20626102.610    20626102.421    20626105.649
        48.000          39.000
 108429467.99447  84490487.78746  20633430.201    20633430.336    20633434.257
        47.000          39.000
 120307674.39447  93746256.56244  22893783.311    22893782.127    22893784.430
        43.000          29.000
 110602244.61047  86183573.09148  21046903.802    21046903.712    21046910.137
        47.000          48.000
 20  5  2  0 29  0.0000000  0 10R 7G 3R 1R 8G31G 9G16G 4G22G26
 120224349.665 7  93507806.411 6  22458910.652    22458909.959    22458913.450
        44.000          37.000
 112053547.94747  87314464.54948  21323077.926    21323078.228    21323084.133
        47.000          49.000
 106130036.252 8  82545607.529 6  19853816.291    19853827.540    19853834.404
        49.000          41.000
 103619427.555 8  80592874.924 8  19350188.937    19350190.537    19350192.523
        50.000          48.000
 123942963.88946  96578949.80245  23585561.940    23585561.807    23585564.551
        37.000          31.000
 119920173.07847  93444307.41446  22820046.128    22820046.389    22820051.731
        42.000          40.000
 108421424.14248  84484235.06346  20631908.595    20631908.062    20631911.131
        48.000          39.000
 108462990.91747  84516609.54646  20639809.522    20639809.728    20639813.627
        47.000          40.000
 120476561.96447  93877857.26044  22925921.409    22925920.878    22925922.491
        43.000          29.000
 110714034.66447  86270682.22348  21068176.815    21068176.701    21068183.075
        47.000          48.000
 20  5  2  0 29 30.0000000  0 10R 7G 3R 1R 8G31G 9G16G 4G22G26
 120417982.226 7  93658409.477 6  22495082.684    22495083.216    22495086.224
        44.000          38.000
 112194775.81847  87424512.21948  21349952.518    21349952.935    21349958.958
        47.000          48.000
 106139978.541 8  82553340.425 6  19855675.455    19855687.686    19855694.558
        49.000          41.000
 103731196.594 8  80679806.383 8  19371061.458    19371062.507    19371064.618
        49.000          49.000
 124111817.08346  96710523.67245  23617693.402    23617693.494    23617696.499
        38.000          32.000
 119907936.77847  93434772.65046  22817717.970    22817717.926    22817723.371
        42.000          40.000
 108452559.72248  84508496.55946  20637833.485    20637832.984    20637835.971
        48.000          39.000
 108496821.55047  84542971.08146  20646247.484    20646247.485    20646251.357
        47.000          40.000
 120645682.21447  94009639.24244  22958104.179    22958103.088    22958104.546
        43.000          29.000
 110826384.80447  86358227.78248  21089556.601    21089556.442    21089562.653
        47.000          48.000
 20  5  2  0 30  0.0000000  0 10R 7G 3R 1R 8G31G 9G16G 4G22G26
 120611896.073 7  93809231.313 6  22531306.990    22531307.545    22531311.608
        44.000          38.000
 112336473.99247  87534926.36848  21376917.069    21376917.131    21376923.209
        47.000          48.000
 106150453.142 8  82561487.330 6  19857634.917    19857646.813    19857654.200
        49.000          41.000
 103843633.119 8  80767257.006 8  19392058.380    19392059.349    19392061.450
        50.000          49.000
 124280697.96346  96842119.10945  23649831.400    23649830.741    23649833.514
        39.000          32.000
 119895814.33046  93425326.60546  22815410.814    22815411.032    22815416.709
        41.000          40.000
 108484318.04748  84533243.30646  20643876.597    20643876.436    20643879.305
        48.000          39.000
 108530956.61247  84569569.82846  20652742.974    20652743.190    20652746.859
        47.000          39.000
 120815027.82747  94141596.83244  22990329.519    22990328.294    22990329.910
        44.000          29.000
 110939288.65148  86446204.80048  21111041.220    21111041.107    21111047.494
        48.000          48.000
 20  5  2  0 30 30.0000000  0 10R 7G 3R 1R 8G31G 9G16G 4G22G26
 120806096.443 7  93960276.001 6  22567586.025    22567585.966    22567590.503
        44.000          39.000
 112478647.86347  87645711.17948  21403971.914    21403972.097    21403977.963
        47.000          49.000
 106161470.842 8  82570056.638 6  19859696.881    19859707.739    19859714.883
        49.000          41.000
 103956744.798 8  80855232.742 8  19413180.689    19413182.364    19413184.150
        50.000          49.000
 124449612.99246  96973741.16545  23681974.456    23681974.511    23681977.157
        39.000          32.000
 119883814.80347  93415976.34346  22813127.766    22813127.470    22813133.078
        42.000          40.000
 108516708.23547  84558482.41346  20650040.478    20650040.111    20650043.219
        47.000          39.000
 108565405.08547  84596412.79546  20659298.311    20659298.477    20659302.138
        47.000          39.000
 120984604.06347  94273734.13544  23022598.472    23022597.261    23022599.844
        43.000          29.000
 111052752.14547  86534617.90648  21132632.530    21132632.340    21132638.776
        47.000          48.000
 20  5  2  0 31  0.0000000  0 10R 7G 3R 1R 8G31G 9G16G 4G22G26
 121000571.289 7  94111534.173 6  22603916.018    22603915.099    22603919.476
        44.000          39.000
 112621285.90247  87756857.68748  21431114.938    21431115.399    21431121.095
        47.000          48.000
 106173025.740 8  82579043.788 6  19861857.430    19861869.241    19861876.619
        49.000          41.000
 104070521.821 8  80943725.969 8  19434427.848    19434429.415    19434431.310
        50.000          48.000
 124618551.27646  97105381.35045  23714122.461    23714122.189    23714125.083
        39.000          32.000
 119871930.39147  93406715.77146  22810866.229    22810866.048    22810871.500
        42.000          41.000
 108549722.24947  84584207.61946  20656322.974    20656322.421    20656325.501
        47.000          40.000
 108600159.09447  84623493.84446  20665911.768    20665911.851    20665915.807
        47.000          39.000
 121154398.97447  94406041.83344  23054909.373    23054908.472    23054910.749
        42.000          28.000
 111166764.28847  86623458.53648  21154328.252    21154328.225    21154334.635
        47.000          48.000
 20  5  2  0 31 30.0000000  0 10R 7G 3R 1R 8G31G 9G16G 4G22G26
 121195326.431 7  94263010.339 6  22640297.629    22640297.334    22640302.112
        43.000          39.000
 112764394.30147  87868370.71348  21458347.826    21458348.134    21458353.756
        47.000          48.000
 106185129.352 8  82588457.705 6  19864121.091    19864133.469    19864140.698
        49.000          41.000
 104184972.254 8  81032742.960 8  19455801.051    19455802.004    19455804.162
        50.000          49.000
 124787520.32146  97237045.49945  23746276.186    23746276.223    23746278.599
        40.000          32.000
 119860171.09147  93397552.69746  22808628.089    22808628.370    22808634.056
        42.000          41.000
 108583370.05248  84610426.69246  20662726.186    20662725.472    20662728.528
        48.000          40.000
 108635228.47448  84650820.63546  20672585.169    20672585.278    20672589.271
        48.000          40.000
 121324418.23347  94538524.33944  23087263.049    23087261.627    23087264.189
        42.000          28.000
 111281331.82947  86712731.93747  21176129.739    21176129.661    21176136.217
        47.000          47.000
 20  5  2  0 32  0.0000000  0 10R 7G 3R 1R 8G31G 9G16G 4G22G26
 121390350.796 7  94414695.917 6  22676730.132    22676729.017    22676733.703
        43.000          39.000
 112907962.02247  87980241.64648  21485667.510    21485668.040    21485673.831
        47.000          48.000
 106197776.051 8  82598294.027 6  19866488.168    19866499.334    19866506.588
        48.000          41.000
 104300087.070 8  81122276.690 8  19477297.767    19477298.882    19477301.016
        50.000          49.000
 124956510.18246  97368725.88645  23778433.890    23778434.315    23778436.320
        40.000          32.000
 119848529.58547  93388481.41046  22806412.533    22806413.025    22806418.901
        42.000          41.000
 108617644.19248  84637133.81646  20669248.019    20669247.550    20669250.616
        48.000          39.000
 108670605.84347  84678387.41546  20679317.404    20679317.386    20679321.309
        47.000          40.000
 121494650.21147  94671172.61244  23119657.071    23119656.152    23119658.691
        42.000          28.000
 111396444.20947  86802429.89548  21198034.925    21198034.921    21198041.208
        47.000          48.000
 20  5  2  0 32 30.0000000  0 10R 7G 3R 1R 8G31G 9G16G 4G22G26
 121585651.557 7  94566596.470 6  22713213.333    22713213.819    22713217.462
        42.000          39.000
 113051996.71147  88092476.45348  21513076.543    21513076.921    21513082.727
        47.000          48.000
 106210979.298 8  82608563.216 6  19868958.745    19868969.486    19868976.745
        49.000          41.000
 104415875.913 8  81212334.670 8  19498920.639    19498921.744    19498923.802
        50.000          49.000
 125125529.32046  97500429.07845  23810597.095    23810597.123    23810599.554
        39.000          31.000
 119837017.29147  93379510.80946  22804222.379    22804222.199    22804228.137
        42.000          41.000
 108652555.88448  84664337.72846  20675891.401    20675890.808    20675894.132
        48.000          39.000
 108706302.47547  84706202.97646  20686110.185    20686110.232    20686114.297
        47.000          40.000
 121665102.56047  94803992.59844  23152093.101    23152091.705    23152094.515
        43.000          28.000
 111512109.61147  86892558.77748  21220045.522    21220045.359    21220051.784
        47.000          48.000
 20  5  2  0 33  0.0000000  0 10R 7G 3R 1R 8G31G 9G16G 4G22G26
 121781215.587 7  94718701.765 6  22749745.951    22749745.732    22749751.284
        42.000          39.000
 113196485.65248  88205065.21447  21540571.626    21540572.218    21540578.067
        48.000          47.000
 106224731.682 8  82619259.509 6  19871531.313    19871542.027    19871549.301
        49.000          41.000
 104532328.096 8  81302908.580 8  19520667.187    19520668.287    19520670.395
        49.000          49.000
 125294566.40546  97632146.23745  23842762.646    23842763.323    23842766.496
        39.000          31.000
 119825625.33746  93370633.97346  22802054.250    22802054.327    22802060.098
        41.000          40.000
 108688096.10048  84692031.40646  20682654.600    20682653.920    20682657.153
        48.000          40.000
 108742309.39148  84734260.31246  20692962.082    20692962.106    20692966.266
        48.000          40.000
 121835762.03447  94936973.97144  23184568.685    23184567.432    23184569.753
        42.000          28.000
 111628315.86647  86983109.09848  21242158.879    21242158.700    21242165.072
        47.000          48.000
 20  5  2  0 33 30.0000000  0 10R 7G 3R 1R 8G31G 9G16G 4G22G26
 121977059.720 6  94871024.956 6  22786330.607    22786331.553    22786335.710
        41.000          38.000
 113341445.64547  88318021.03348  21568156.899    21568157.151    21568163.021
        47.000          48.000
 106239055.619 8  82630400.351 6  19874210.284    19874221.904    19874228.706
        49.000          41.000
 104649462.052 8  81394012.748 8  19542541.243    19542542.343    19542544.320
        50.000          49.000
 125463639.16246  97763891.19545  23874937.407    23874936.930    23874940.529
        38.000          31.000
 119814374.36747  93361867.00246  22799913.423    22799912.918    22799918.981
        42.000          40.000
 108724285.23648  84720230.72346  20689541.019    20689540.450    20689543.602
        49.000          39.000
 108778647.05747  84762575.37846  20699876.957    20699877.016    20699880.940
        47.000          40.000
 122006644.96147  95070129.48844  23217086.284    23217085.117    23217087.557
        42.000          28.000
 111745080.23347  87074094.31648  21264378.495    21264378.261    21264384.551
        47.000          48.000
 20  5  2  0 34  0.0000000  0 10R 7G 3R 1R 8G31G 9G16G 4G22G26
 122173169.673 7  95023554.853 6  22822967.289    22822966.889    22822970.995
        42.000          38.000
 113486862.68547  88431332.99747  21595828.965    21595829.133    21595834.938
        46.000          47.000
 106253942.578 8  82641979.103 6  19876995.059    19877006.690    19877013.747
        49.000          41.000
 104767265.916 8  81485637.962 8  19564540.326    19564541.445    19564543.642
        50.000          49.000
 125632734.66646  97895653.86245  23907114.193    23907114.433    23907118.523
        37.000          30.000
 119803254.25946  93353201.99846  22797797.232    22797796.728    22797802.790
        41.000          40.000
 108761112.81648  84748927.55146  20696549.165    20696548.664    20696551.633
        48.000          40.000
 108815305.21647  84791140.16846  20706852.595    20706852.732    20706856.875
        47.000          40.000
 122177737.43047  95203448.25444  23249644.210    23249643.147    23249645.864
        42.000          27.000
 111862389.27547  87165503.95648  21286701.446    21286701.335    21286707.841
        47.000          48.000
 20  5  2  0 34 30.0000000  0 10R 7G 3R 1R 8G31G 9G16G 4G22G26
 122369527.202 7  95176277.317 6  22859648.774    22859648.123    22859651.543
        43.000          37.000
 113632719.36847  88544987.53648  21623584.538    21623584.838    21623590.552
        46.000          48.000
 106269380.428 8  82653986.313 6  19879883.938    19879894.614    19879901.944
        49.000          41.000
 104885723.480 8  81577771.612 8  19586661.636    19586662.715    19586664.515
        50.000          49.000
 125801836.76146  98027421.65345  23939293.396    23939293.832    23939297.455
        36.000          30.000
 119792251.37546  93344628.33846  22795703.088    22795703.004    22795708.884
        41.000          40.000
 108798565.11048  84778111.15846  20703675.914    20703675.449    20703678.683
        48.000          40.000
 108852270.15447  84819944.01746  20713886.856    20713887.045    20713891.082
        47.000          40.000
 122349021.67746  95336916.47344  23282238.806    23282237.442    23282239.630
        41.000          27.000
 111980226.08247  87257324.83048  21309125.139    21309125.038    21309131.556
        47.000          48.000
 20  5  2  0 35  0.0000000  0 10R 7G 3R 1R 8G31G 9G16G 4G22G26
 122566128.481 7  95329189.368 6  22896375.315    22896375.043    22896378.462
        44.000          37.000
 113779011.91947  88658981.71147  21651422.691    21651423.399    21651429.101
        46.000          47.000
 106285370.850 8  82666423.310 6  19882875.182    19882885.796    19882892.937
        49.000          41.000
 105004833.310 8  81670412.572 8  19608904.252    19608905.776    19608907.573
        50.000          48.000
 125970943.02846  98159192.72644  23971473.595    23971473.637    23971476.536
        36.000          29.000
 119781365.96146  93336146.21446  22793631.734    22793631.809    22793637.297
        41.000          40.000
 108836641.80348  84807781.31646  20710921.893    20710921.278    20710924.518
        48.000          40.000
 108889541.86147  84848986.90546  20720979.428    20720979.676    20720983.597
        47.000          40.000
 122520493.26047  95470530.67844  23314868.519    23314867.602    23314870.312
        42.000          28.000
 112098587.35147  87349554.38448  21331648.318    21331648.360    21331654.877
        47.000          48.000
 20  5  2  0 35 30.0000000  0 10R 7G 3R 1R 8G31G 9G16G 4G22G26
 121158169.282 7  94234109.944 6  22633357.026    22633356.305    22633360.598
        44.000          37.000
 112350327.52647  87545721.12547  21379553.307    21379553.738    21379559.415
        46.000          47.000
 104699359.892 8  81432859.231 6  19586177.386    19586189.768    19586196.790
        49.000          41.000
 103519228.343 8  80514942.027 8  19331478.263    19331479.323    19331481.115
        50.000          49.000
 124564642.13446  97063373.81145  23703863.943    23703863.573    23703867.004
        37.000          30.000
 118195183.83147  92100160.14446  22491791.661    22491791.479    22491796.798
        42.000          41.000
 107299930.09648  83610343.61846  20418495.331    20418494.539    20418498.054
        48.000          40.000
 107351707.66747  83650674.53746  20428339.397    20428339.443    20428343.372
        47.000          40.000
 121116740.11747  94376697.03344  23047743.578    23047742.517    23047744.453
        43.000          27.000
 110642059.89947  86214597.92448  21054480.554    21054480.487    21054486.943
        47.000          48.000
 20  5  2  0 36  0.0000000  0 10R 7G 3R 1R 8G31G 9G16G 4G22G26
 121355294.892 7  94387429.801 6  22670181.883    22670181.947    22670185.165
        45.000          37.000
 112497529.35947  87660423.83548  21407565.219    21407565.400    21407570.962
        46.000          48.000
 104716510.481 8  81446198.576 6  19589386.392    19589398.156    19589405.305
        49.000          41.000
 103639685.747 8  80608631.109 8  19353972.619    19353973.837    19353975.740
        50.000          48.000
 124733797.39346  97195183.04945  23736053.461    23736052.922    23736056.109
        37.000          30.000
 118184582.56847  92091899.43246  22489774.734    22489774.374    22489779.447
        43.000          41.000
 107339303.93248  83641024.53246  20425987.807    20425987.238    20425990.669
        48.000          40.000
 107389641.73047  83680233.54746  20435558.021    20435558.080    20435562.115
        47.000          40.000
 121288623.37247  94510632.02244  23080452.051    23080450.848    23080452.979
        42.000          27.000
 110761509.21447  86307675.30347  21077210.981    21077210.848    21077217.390
        47.000          47.000
 20  5  2  0 36 30.0000000  0 10R 7G 3R 1R 8G31G 9G16G 4G22G26
 121552670.367 7  94540944.008 6  22707053.899    22707053.632    22707056.426
        45.000          37.000
 112645173.37847  87775471.10347  21435660.642    21435661.183    21435666.756
        46.000          47.000
 104734236.763 8  81459985.684 6  19592701.816    19592714.310    19592721.334
        49.000          41.000
 103760807.293 8  80702836.740 8  19376591.181    19376592.232    19376594.208
        49.000          49.000
 124902966.55546  97327003.11945  23768244.486    23768245.013    23768247.773
        37.000          30.000
 118174116.90647  92083744.38446  22487782.687    22487782.650    22487787.927
        43.000          41.000
 107379319.11448  83672205.19546  20433602.364    20433602.107    20433605.228
        48.000          40.000
 107427900.20048  83710045.33146  20442838.383    20442838.324    20442842.166
        48.000          40.000
 121460699.67647  94644717.43044  23113196.491    23113196.402    23113197.542
        42.000          27.000
 110881490.83447  86401167.47047  21100042.438    21100042.447    21100048.959
        46.000          47.000
 20  5  2  0 37  0.0000000  0 10R 7G 3R 1R 8G31G 9G16G 4G22G26
 121750290.775 7  94694648.707 6  22743970.399    22743970.436    22743974.729
        44.000          37.000
 112793255.60347  87890859.83147  21463839.732    21463840.231    21463845.867
        46.000          47.000
 104752540.380 8  81474221.818 6  19596126.018    19596138.439    19596145.545
        49.000          41.000
 103882590.555 8  80797557.044 8  19399333.129    19399334.658    19399336.535
        50.000          48.000
 125072147.18746  97458832.12945  23800439.141    23800439.242    23800442.526
        38.000          30.000
 118163786.85847  92075695.00446  22485816.993    22485816.977    22485822.064
        42.000          41.000
 107419975.21948  83703885.27646  20441339.244    20441338.596    20441341.792
        48.000          40.000
 107466482.88447  83740109.76046  20450180.104    20450180.407    20450184.288
        47.000          40.000
 121632964.42047  94778949.67144  23145978.029    23145977.124    23145979.025
        42.000          27.000
 111002001.28247  86495071.71147  21122974.999    21122974.889    21122981.464
        46.000          47.000
 20  5  2  0 37 30.0000000  0 10R 7G 3R 1R 8G31G 9G16G 4G22G26
 121948156.450 7  94848544.186 6  22780933.976    22780933.194    22780936.941
        43.000          38.000
 112941776.33247  88006590.25647  21492102.444    21492102.688    21492108.460
        46.000          47.000
 104771427.182 8  81488911.553 6  19599659.700    19599671.455    19599678.366
        49.000          41.000
 104005037.652 8  80892793.664 8  19422199.174    19422200.635    19422202.701
        49.000          48.000
 125241340.72946  97590671.21245  23832635.664    23832635.732    23832638.970
        39.000          31.000
 118153596.65247  92067754.60246  22483877.853    22483877.659    22483883.055
        42.000          41.000
 107461276.06948  83736067.75846  20449198.470    20449198.153    20449201.155
        48.000          40.000
 107505393.88348  83770430.01946  20457584.892    20457584.828    20457588.863
        48.000          40.000
 121805418.18147  94913329.20744  23178794.941    23178793.825    23178795.783
        43.000          27.000
 111123041.35147  86589388.63647  21146008.206    21146008.072    21146014.550
        46.000          47.000
 20  5  2  0 38  0.0000000  0 10R 7G 3R 1R 8G31G 9G16G 4G22G26
 122146258.320 7  95002623.365 6  22817939.348    22817939.356    22817944.399
        42.000          37.000
 113090726.85747  88122655.57447  21520446.837    21520447.090    21520452.870
        46.000          47.000
 104790893.760 8  81504052.221 6  19603301.449    19603313.135    19603320.026
        49.000          41.000
 104128141.621 8  80988541.181 8  19445188.468    19445189.627    19445191.522
        50.000          48.000
 125410539.54846  97722514.40045  23864833.608    23864833.777    23864836.382
        39.000          31.000
 118143541.68447  92059919.56247  22481964.490    22481964.319    22481969.672
        43.000          42.000
 107503216.31548  83768748.46946  20457179.253    20457178.983    20457182.132
        48.000          40.000
 107544628.31248  83801002.29146  20465050.879    20465051.035    20465055.083
        48.000          40.000
 121978051.71747  95047848.80744  23211645.484    23211644.974    23211646.513
        42.000          27.000
 111244602.79347  86684111.83147  21169140.757    21169140.473    21169146.947
        46.000          47.000
 20  5  2  0 38 30.0000000  0 11R 7G 7G 3R 1R 8G31G 9G16G 4G22G26
 122344595.396 7  95156885.504 6  22854991.226    22854990.903    22854995.952
        42.000          37.000
 131453995.01946 102431674.93944  25014862.953    25014862.361    25014865.457
        36.000          27.000
 113240106.38847  88239055.19147  21548872.591    21548873.141    21548878.947
        46.000          47.000
 104810944.860 8  81519647.517 6  19607052.890    19607064.093    19607071.116
        49.000          41.000
 104251903.254 8  81084800.218 8  19468299.951    19468301.371    19468303.093
        50.000          49.000
 125579744.21446  97854362.15645  23897031.735    23897031.902    23897035.064
        38.000          30.000
 118133625.16347  92052192.42147  22480077.583    22480077.400    22480082.610
        43.000          42.000
 107545798.56248  83801929.44246  20465282.421    20465282.194    20465285.226
        49.000          40.000
 107584189.24347  83831828.98746  20472579.002    20472579.209    20472583.331
        47.000          41.000
 122150863.92547  95182507.66144  23244531.142    23244530.388    23244531.361
        42.000          27.000
 111366685.32247  86779241.06647  21192372.145    21192371.933    21192378.556
        46.000          47.000
 20  5  2  0 39  0.0000000  0 11R 7G 7G 3R 1R 8G31G 9G16G 4G22G26
 122543171.048 7  95311333.186 6  22892086.629    22892087.417    22892090.877
        42.000          37.000
 131445991.39446 102425438.28644  25013338.630    25013339.202    25013341.874
        36.000          26.000
 113389918.23647  88355791.67747  21577380.797    21577381.345    21577387.288
        46.000          47.000
 104831589.524 8  81535704.467 6  19610915.118    19610926.302    19610933.103
        49.000          41.000
 104376327.897 8  81181574.920 8  19491535.626    19491536.762    19491538.769
        50.000          48.000
 125748959.73946  97986218.36745  23929232.521    23929232.485    23929235.829
        37.000          30.000
 118123854.55547  92044578.97347  22478217.884    22478218.043    22478223.439
        43.000          42.000
 107589029.78048  83835616.10546  20473509.240    20473508.558    20473512.024
        48.000          40.000
 107624083.81348  83862915.66246  20480170.782    20480170.907    20480174.972
        48.000          41.000
 122323858.18647  95317308.33944  23277451.053    23277450.091    23277451.939
        42.000          27.000
 111489292.73547  86874779.29747  21215703.497    21215703.371    21215709.946
        46.000          47.000
 20  5  2  0 39 30.0000000  0 11R 7G 7G 3R 1R 8G31G 9G16G 4G22G26
 122741978.240 6  95465960.953 6  22929225.498    22929224.733    22929229.759
        41.000          37.000
 131438060.21446 102419258.10644  25011828.535    25011829.398    25011833.190
        36.000          26.000
 113540155.85747  88472859.93247  21605970.270    21605970.481    21605976.543
        46.000          47.000
 104852826.575 8  81552222.167 7  19614887.856    19614899.024    19614905.839
        50.000          42.000
 104501410.449 8  81278861.333 8  19514893.975    19514894.875    19514897.068
        50.000          48.000
 125918181.12446  98118079.13544  23961433.988    23961433.805    23961437.624
        37.000          29.000
 118114227.28947  92037077.22447  22476386.274    22476386.248    22476391.650
        43.000          42.000
 107632906.95648  83869806.10946  20481858.492    20481858.218    20481861.491
        48.000          40.000
 107664309.33748  83894260.22146  20487825.716    20487825.621    20487829.684
        48.000          41.000
 122497028.03047  95452245.86244  23310404.318    23310403.616    23310404.180
        42.000          27.000
 111612418.94947  86970721.79147  21239133.739    21239133.537    21239140.345
        46.000          47.000
 20  5  2  0 40  0.0000000  0 11R 7G 7G 3R 1R 8G31G 9G16G 4G22G26
 122940997.604 6  95620753.751 6  22966404.063    22966403.467    22966409.087
        41.000          37.000
 131430185.35746 102413121.84244  25010330.365    25010331.204    25010334.184
        37.000          26.000
 113690800.42347  88590245.29247  21634636.802    21634637.421    21634643.288
        46.000          47.000
 104874642.584 8  81569190.174 7  19618968.472    19618979.921    19618987.032
        49.000          42.000
 104627133.660 8  81376646.036 8  19538371.640    19538372.823    19538374.860
        49.000          49.000
 126087390.63446  98249930.63644  23993633.957    23993633.309    23993637.104
        37.000          28.000
 118104728.74947  92029675.77347  22474578.576    22474578.767    22474584.277
        44.000          42.000
 107677414.46848  83904487.29046  20490328.402    20490327.702    20490330.840
        48.000          40.000
 107704850.84548  83925850.99546  20495540.140    20495540.390    20495544.471
        48.000          41.000
 122670353.86247  95587304.91644  23343387.149    23343386.396    23343387.201
        42.000          27.000
 111736045.66847  87067054.28747  21262658.869    21262658.719    21262665.473
        46.000          47.000
 20  5  2  0 40 30.0000000  0 11R 7G 7G 3R 1R 8G31G 9G16G 4G22G26
 123140235.703 6  95775716.690 6  23003622.840    23003623.386    23003627.951
        41.000          36.000
 131422376.26946 102407036.80744  25008843.994    25008844.554    25008848.428
        36.000          26.000
 113841858.45947  88707952.83647  21663382.815    21663382.836    21663388.772
        46.000          47.000
 104897049.615 8  81586617.864 7  19623159.069    19623171.685    19623179.106
        49.000          42.000
 104753505.847 8  81474935.493 8  19561971.232    19561972.012    19561974.014
        49.000          48.000
 126256596.07046  98381778.99344  24025832.550    24025832.120    24025835.687
        36.000          29.000
 118095369.51747  92022382.88747  22472797.826    22472797.628    22472803.333
        43.000          42.000
 107722561.94347  83939667.13946  20498919.482    20498919.033    20498922.299
        47.000          40.000
 107745718.71547  83957696.08946  20503317.142    20503317.338    20503321.403
        47.000          41.000
 122843842.25147  95722490.64944  23376400.895    23376400.022    23376401.478
        42.000          27.000
 111860179.80147  87163782.17047  21286281.066    21286280.840    21286287.683
        47.000          47.000
 20  5  2  0 41  0.0000000  0 11R 7G 7G 3R 1R 8G31G 9G16G 4G22G26
 123339689.804 7  95930847.617 6  23040883.489    23040883.586    23040888.016
        42.000          36.000
 131414632.98745 102401003.05244  25007370.584    25007371.162    25007375.226
        35.000          27.000
 113993327.14747  88825980.36347  21692205.881    21692206.403    21692212.236
        46.000          47.000
 104920050.273 8  81604507.238 7  19627463.534    19627474.529    19627481.872
        50.000          42.000
 104880525.593 8  81573728.616 8  19585690.856    19585691.922    19585693.994
        49.000          48.000
 126425796.04946  98513623.07744  24058030.428    24058029.949    24058033.855
        37.000          29.000
 118086150.91047  92015199.56247  22471043.340    22471043.123    22471048.898
        43.000          42.000
 107768350.32248  83975346.39446  20507632.725    20507632.140    20507635.489
        48.000          40.000
 107786914.06047  83989796.34546  20511156.483    20511156.474    20511160.414
        47.000          40.000
 123017490.05447  95857800.58944  23409445.124    23409444.244    23409445.773
        43.000          27.000
 111984819.04147  87260903.64647  21309999.299    21309998.863    21310005.580
        46.000          47.000
 20  5  2  0 41 30.0000000  0 11R 7G 7G 3R 1R 8G31G 9G16G 4G22G26
 123539367.761 7  96086152.641 5  23078186.427    23078185.757    23078189.204
        43.000          35.000
 131406965.97246 102395028.74544  25005912.815    25005912.474    25005915.922
        36.000          27.000
 114145214.71347  88944334.29247  21721109.155    21721109.579    21721115.514
        46.000          47.000
 104943658.422 8  81622869.134 7  19631878.966    19631890.979    19631898.091
        49.000          42.000
 105008202.715 8  81673033.023 8  19609533.877    19609534.788    19609536.809
        49.000          48.000
 126595000.40746  98645470.56744  24090229.459    24090228.680    24090232.184
        37.000          29.000
 118077085.41747  92008135.55647  22469318.034    22469318.038    22469323.654
        43.000          42.000
 107814791.07448  84011533.99246  20516470.006    20516469.673    20516472.812
        49.000          40.000
 107828449.00648  84022161.22946  20519059.938    20519060.309    20519064.397
        48.000          41.000
 123191305.39046  95993241.07844  23442521.047    23442520.291    23442521.210
        41.000          27.000
 112109972.12847  87358425.51547  21333814.740    21333814.917    21333821.374
        46.000          47.000
 20  5  2  0 42  0.0000000  0 11R 7G 7G 3R 1R 8G31G 9G16G 4G22G26
 123739265.296 7  96241628.465 5  23115528.647    23115527.749    23115530.275
        42.000          34.000
 131399374.38645 102389113.18244  25004467.645    25004467.389    25004470.969
        35.000          27.000
 114297517.07847  89063011.44247  21750091.601    21750091.908    21750097.639
        46.000          47.000
 104967875.633 8  81641704.733 7  19636410.465    19636421.329    19636428.252
        50.000          42.000
 105136535.270 8  81772847.219 8  19633498.581    19633499.741    19633502.058
        49.000          48.000
 126764206.65146  98777319.52744  24122427.979    24122427.751    24122431.497
        37.000          29.000
 118068173.02447  92001190.84647  22467621.670    22467621.919    22467627.635
        43.000          42.000
 107861883.52648  84048229.41246  20525431.550    20525431.009    20525433.952
        48.000          40.000
 107870323.39548  84054790.61846  20527028.534    20527028.743    20527032.839
        48.000          41.000
 123365284.04047  96128808.81644  23475627.963    23475627.040    23475628.352
        43.000          26.000
 112235635.41147  87456344.94947  21357727.810    21357727.966    21357734.420
        47.000          47.000
 20  5  2  0 42 30.0000000  0 11R 7G 7G 3R 1R 8G31G 9G16G 4G22G26
 123939382.711 6  96397275.262 5  23152910.990    23152910.359    23152914.786
        41.000          35.000
 131391861.25245 102383258.77144  25003038.331    25003037.441    25003041.679
        35.000          27.000
 114450234.32147  89182011.86447  21779152.780    21779153.161    21779158.795
        46.000          46.000
 104992707.451 8  81661018.357 6  19641055.457    19641066.652    19641073.656
        49.000          41.000
 105265524.659 8  81873172.280 8  19657586.386    19657587.511    19657589.909
        49.000          49.000
 126933416.13946  98909171.03344  24154627.143    24154627.373    24154631.110
        38.000          29.000
 118059418.12147  91994368.85347  22465956.255    22465955.745    22465961.503
        43.000          42.000
 107909631.22847  84085435.41746  20534517.550    20534517.189    20534520.224
        47.000          40.000
 107912541.20447  84087687.60946  20535062.506    20535062.544    20535066.571
        47.000          41.000
 123539426.21246  96264504.00544  23508766.184    23508765.553    23508766.322
        41.000          26.000
 112361809.42047  87554662.35047  21381738.180    21381737.859    21381744.401
        46.000          47.000
 20  5  2  0 43  0.0000000  0 11R 7G 7G 3R 1R 8G31G 9G16G 4G22G26
 124139713.439 6  96553087.979 5  23190335.672    23190334.282    23190338.635
        40.000          34.000
 131384423.24645 102377462.87944  25001622.574    25001621.947    25001626.413
        35.000          27.000
 114603360.57347  89301331.00247  21808291.394    21808292.154    21808297.711
        46.000          46.000
 105018153.591 8  81680809.802 7  19645815.237    19645826.785    19645833.764
        50.000          42.000
 105395166.745 8  81974004.993 8  19681796.610    19681797.553    19681799.628
        49.000          48.000
 127102624.49946  99041021.66544  24186827.352    24186826.597    24186829.972
        37.000          29.000
 118050819.00147  91987668.25747  22464319.758    22464319.240    22464325.141
        43.000          42.000
 107958031.33048  84123149.77746  20543727.665    20543727.299    20543730.533
        48.000          40.000
 107955100.49048  84120850.68746  20543161.245    20543161.433    20543165.386
        48.000          41.000
 123713725.65947  96400321.72144  23541933.809    23541933.604    23541934.941
        42.000          26.000
 112488488.75047  87653373.49747  21405844.393    21405844.293    21405850.743
        46.000          47.000
 20  5  2  0 43 30.0000000  0 11R 7G 7G 3R 1R 8G31G 9G16G 4G22G26
 124340254.805 6  96709064.534 5  23227797.589    23227797.141    23227801.989
        39.000          35.000
 131377060.16545 102371725.41344  25000221.376    25000220.697    25000225.701
        35.000          27.000
 114756893.07347  89420966.70047  21837508.085    21837508.509    21837514.060
        46.000          46.000
 105044216.616 8  81701081.030 7  19650690.831    19650702.270    19650709.590
        49.000          42.000
 105525460.421 8  82075344.503 8  19706127.854    19706128.966    19706131.089
        49.000          48.000
 127271830.90246  99172870.75644  24219025.750    24219025.449    24219028.725
        36.000          28.000
 118042377.21047  91981090.24647  22462713.283    22462713.099    22462718.611
        43.000          42.000
 108007084.36848  84161372.92446  20553062.236    20553061.670    20553064.860
        48.000          40.000
 107998002.46148  84154280.78446  20551325.280    20551325.397    20551329.243
        48.000          41.000
 123888179.48447  96536259.75344  23575131.535    23575130.613    23575132.993
        42.000          26.000
 112615671.12947  87752476.64447  21430046.447    21430046.100    21430052.723
        46.000          46.000
 20  5  2  0 44  0.0000000  0 11R 7G 7G 3R 1R 8G31G 9G16G 4G22G26
 124540990.961 6  96865192.581 5  23265295.793    23265295.630    23265300.687
        38.000          34.000
 131369759.84746 102366036.82844  24998832.639    24998832.121    24998835.930
        37.000          28.000
 114910816.43847  89540906.96347  21866798.670    21866799.064    21866804.748
        46.000          47.000
 105070886.395 8  81721824.191 7  19655680.373    19655691.340    19655698.687
        49.000          42.000
 105656391.019 8  82177179.391 8  19730578.098    19730579.387    19730581.536
        49.000          48.000
 127441021.24046  99304707.33244  24251221.295    24251220.877    24251224.219
        36.000          28.000
 118034081.54747  91974626.09447  22461134.300    22461134.751    22461139.950
        43.000          43.000
 108056778.18848  84200095.38746  20562518.897    20562518.244    20562521.344
        48.000          40.000
 108041235.66048  84187968.98546  20559552.285    20559552.453    20559556.305
        48.000          41.000
 124062772.18046  96672305.97144  23608355.590    23608354.261    23608356.543
        41.000          26.000
 112743341.58747  87851960.11147  21454341.348    21454341.221    21454347.628
        47.000          47.000
 20  5  2  0 44 30.0000000  0 11R 7G 7G 3R 1R 8G31G 9G16G 4G22G26
 124741914.574 6  97021466.427 5  23302830.553    23302831.228    23302835.682
        38.000          35.000
 131362517.06346 102360393.07544  24997453.814    24997453.828    24997458.164
        37.000          28.000
 115065123.29547  89661146.05047  21896162.349    21896162.645    21896168.485
        46.000          46.000
 105098160.932 8  81743037.716 7  19660783.446    19660794.099    19660800.929
        49.000          42.000
 105787952.953 8  82279505.319 8  19755146.833    19755147.824    19755149.717
        49.000          48.000
 127610189.69746  99436526.86744  24283412.972    24283413.271    24283416.409
        36.000          28.000
 118025928.99747  91968273.47247  22459583.688    22459583.471    22459588.684
        44.000          43.000
 108107109.16347  84239314.32846  20572096.545    20572095.896    20572099.032
        47.000          40.000
 108084796.69147  84221912.64146  20567841.653    20567841.734    20567845.967
        47.000          41.000
 124237496.43646  96808454.71044  23641604.878    23641603.414    23641605.844
        41.000          25.000
 112871493.24147  87951818.52947  21478727.959    21478727.733    21478734.056
        46.000          47.000
 20  5  2  0 45  0.0000000  0 11R 7G 7G 3R 1R 8G31G 9G16G 4G22G26
 124943041.694 6  97177898.565 5  23340404.144    23340402.699    23340407.432
        38.000          35.000
 131355351.89046 102354809.80444  24996090.574    24996090.880    24996095.059
        37.000          28.000
 115219829.94247  89781696.65947  21925601.640    21925602.185    21925608.204
        46.000          46.000
 105126062.239 8  81764738.726 7  19666002.280    19666013.167    19666020.239
        49.000          42.000
 105920164.382 8  82382336.416 8  19779836.578    19779837.370    19779839.386
        49.000          48.000
 127779354.35946  99568343.42644  24315603.972    24315604.238    24315607.188
        36.000          28.000
 118017940.06547  91962048.33647  22458063.032    22458063.182    22458068.141
        44.000          43.000
 108158096.46547  84279044.69046  20581798.886    20581798.508    20581801.452
        47.000          40.000
 108128705.79247  84256127.51246  20576197.191    20576197.341    20576201.421
        47.000          41.000
 124412368.52146  96944718.66544  23674881.348    23674880.286    23674882.140
        41.000          25.000
 113000142.80147  88052064.92647  21503208.846    21503208.782    21503215.424
        47.000          47.000
 20  5  2  0 45 30.0000000  0 11R 7G 7G 3R 1R 8G31G 9G16G 4G22G26
 125144363.356 6  97334482.006 5  23378011.872    23378011.834    23378016.489
        39.000          35.000
 131348257.72746 102349281.84744  24994740.227    24994741.088    24994745.020
        37.000          29.000
 115374927.16447  89902551.61147  21955115.681    21955116.097    21955122.249
        45.000          46.000
 105154586.609 8  81786924.352 7  19671337.780    19671349.049    19671356.808
        50.000          42.000
 106053017.385 8  82485666.511 8  19804645.607    19804646.757    19804648.755
        49.000          48.000
 127948507.50246  99700151.01244  24347792.503    24347792.883    24347796.389
        36.000          28.000
 118010109.91147  91955946.91847  22456572.937    22456573.113    22456578.271
        43.000          43.000
 108209734.25348  84319281.92246  20591625.457    20591624.768    20591628.093
        48.000          40.000
 108172957.76448  84290609.56347  20584617.854    20584618.168    20584622.236
        48.000          42.000
 124587379.02746  97081090.46444  23708184.542    23708183.795    23708186.187
        41.000          25.000
 113129281.52247  88152692.48847  21527783.119    21527783.013    21527789.654
        46.000          47.000
 20  5  2  0 46  0.0000000  0 11R 7G 7G 3R 1R 8G31G 9G16G 4G22G26
 123741075.991 6  96243036.202 6  23115866.771    23115866.547    23115870.707
        39.000          36.000
 129765819.01846 101116212.69944  24693613.247    24693612.822    24693617.291
        36.000          28.000
 113955002.83147  88796117.04147  21684912.982    21684913.402    21684919.580
        46.000          46.000
 103581180.594 8  80563164.105 7  19377000.421    19377011.081    19377018.437
        49.000          42.000
 104581145.567 8  81340877.298 8  19529783.738    19529784.963    19529786.975
        49.000          48.000
 126542238.77245  98604357.15744  24080187.836    24080188.928    24080192.298
        35.000          28.000
 116427025.21847  90722374.43847  22155322.041    22155321.793    22155327.246
        44.000          43.000
 106686609.92348  83132431.79646  20301784.336    20301783.904    20301786.999
        49.000          40.000
 106642140.72448  83097765.11146  20293313.181    20293313.291    20293317.398
        49.000          41.000
 123187116.40947  95989976.71144  23441723.341    23441722.928    23441724.717
        42.000          25.000
 111683496.80747  87026106.98947  21252659.773    21252659.520    21252665.768
        46.000          46.000
 20  5  2  0 46 30.0000000  0 11R 7G 7G 3R 1R 8G31G 9G16G 4G22G26
 123942781.699 6  96399918.378 5  23153546.565    23153545.943    23153551.030
        39.000          35.000
 129758870.84146 101110798.52144  24692290.930    24692290.436    24692294.271
        37.000          28.000
 114110877.24547  88917577.60047  21714575.024    21714575.399    21714581.460
        45.000          45.000
 103610963.413 8  80586328.515 7  19382571.946    19382582.795    19382590.027
        49.000          42.000
 104715282.161 8  81445205.742 8  19554832.980    19554834.049    19554836.037
        49.000          48.000
 126711369.99045  98736147.67644  24112374.347    24112373.601    24112377.370
        35.000          28.000
 116419521.64347  90716527.49747  22153894.044    22153893.691    22153899.299
        43.000          43.000
 106739553.88247  83173686.82446  20311859.270    20311858.689    20311862.076
        47.000          40.000
 106687086.37747  83132787.70046  20301866.076    20301866.274    20301870.244
        47.000          41.000
 123362399.40546  96126560.84944  23475079.268    23475077.543    23475079.979
        41.000          25.000
 111813611.19247  87127494.80547  21277419.217    21277419.233    21277425.834
        46.000          46.000
 20  5  2  0 47  0.0000000  0 11R 7G 7G 3R 1R 8G31G 9G16G 4G22G26
 124144687.159 6  96556955.851 6  23191264.670    23191264.645    23191268.551
        41.000          36.000
 129752007.79946 101105450.66544  24690985.141    24690985.194    24690988.656
        37.000          28.000
 114267147.77447  89039346.82647  21744312.221    21744312.753    21744318.862
        45.000          45.000
 103641391.431 8  80609994.750 7  19388264.637    19388274.980    19388282.194
        50.000          42.000
 104850070.558 8  81550041.143 8  19580004.038    19580004.964    19580006.984
        49.000          48.000
 126880500.01145  98867937.23644  24144557.354    24144557.723    24144561.233
        35.000          27.000
 116412195.42247  90710818.76347  22152499.461    22152499.597    22152505.323
        43.000          43.000
 106793163.43448  83215460.49946  20322060.748    20322060.285    20322063.615
        48.000          40.000
 106732392.41948  83168091.10846  20310487.492    20310487.806    20310491.740
        48.000          41.000
 123537826.26346  96263257.06044  23508460.842    23508459.657    23508463.091
        41.000          25.000
 111944221.61947  87229269.15547  21302273.936    21302273.620    21302280.114
        46.000          46.000
 20  5  2  0 47 30.0000000  0 11R 7G 7G 3R 1R 8G31G 9G16G 4G22G26
 124346789.629 6  96714146.580 6  23229018.510    23229018.556    23229023.539
        41.000          36.000
 129745229.88746 101100169.16044  24689694.388    24689695.295    24689699.231
        37.000          28.000
 114423811.81847  89161422.67847  21774124.388    21774124.959    21774131.054
        45.000          46.000
 103672467.100 8  80634164.709 7  19394077.653    19394088.342    19394095.354
        50.000          42.000
 104985509.382 8  81655382.426 8  19605296.095    19605297.078    19605299.247
        49.000          48.000
 127049628.10045  98999725.29744  24176742.883    24176741.997    24176745.638
        35.000          27.000
 116405048.31247  90705249.59947  22151139.628    22151139.564    22151145.343
        43.000          43.000
 106847438.87748  83257753.05246  20332389.038    20332388.672    20332391.794
        48.000          41.000
 106778060.23748  83203676.41847  20319178.042    20319178.074    20319181.961
        48.000          42.000
 123713394.40146  96400063.39044  23541870.916    23541870.192    23541871.952
        41.000          25.000
 112075325.87747  87331428.30747  21327221.996    21327221.984    21327228.570
        45.000          46.000
 20  5  2  0 48  0.0000000  0 11R 7G 7G 3R 1R 8G31G 9G16G 4G22G26
 124549066.108 6  96871472.661 5  23266804.070    23266806.860    23266810.006
        39.000          33.000
 129738517.50146 101094938.74244  24688418.326    24688417.728    24688422.062
        37.000          29.000
 114580846.90947  89283787.66947  21804007.225    21804007.707    21804013.917
        45.000          46.000
 103704173.308 8  80658825.090 7  19400008.404    19400019.705    19400026.623
        50.000          42.000
 105121577.357 8  81761213.055 8  19630705.549    19630706.793    19630709.015
        49.000          48.000
 127218733.43345  99131495.64744  24208921.713    24208922.126    24208925.678
        35.000          27.000
 116398062.29647  90699805.96347  22149810.720    22149810.276    22149815.881
        44.000          43.000
 106902360.84948  83300549.39546  20342840.471    20342839.960    20342843.167
        48.000          41.000
 106824071.38148  83239529.25446  20327933.674    20327933.786    20327937.541
        48.000          41.000
 123889081.19846  96536962.17544  23575302.958    23575302.091    23575304.453
        41.000          25.000
 112206901.98847  87433955.13747  21352260.439    21352260.299    21352266.509
        46.000          46.000
 20  5  2  0 48 30.0000000  0 11R 7G 7G 3R 1R 8G31G 9G16G 4G22G26
 124751524.489 5  97028940.227 5  23304628.123    23304627.206    23304630.373
        34.000          30.000
 129731881.55146 101089767.84644  24687155.116    24687155.611    24687158.877
        37.000          29.000
 114738260.96147  89406447.94347  21833962.220    21833962.625    21833968.797
        45.000          45.000
 103736523.424 8  80683986.286 7  19406060.796    19406071.339    19406078.393
        50.000          42.000
 105258283.717 8  81867540.210 8  19656234.694    19656235.526    19656237.920
        49.000          48.000
 127387825.90846  99263255.94144  24241099.114    24241099.381    24241102.823
        36.000          28.000
 116391249.66047  90694497.43347  22148514.463    22148513.818    22148519.398
        44.000          43.000
 106957940.64548  83343858.31846  20353416.875    20353416.370    20353419.764
        48.000          41.000
 106870437.73747  83275658.88147  20336756.633    20336756.975    20336760.794
        47.000          42.000
 124064894.51346  96673959.53044  23608759.533    23608758.414    23608761.263
        41.000          24.000
 112338958.23047  87536856.09147  21377389.210    21377389.578    21377396.020
        46.000          46.000
 20  5  2  0 49  0.0000000  0 11R 7G 7G 3R 1R 8G31G 9G16G 4G22G26
 124954149.151 4  97186537.117 4  23342479.185    23342479.927    23342483.414
        28.000          26.000
 129725309.15946 101084646.48144  24685904.603    24685904.914    24685908.981
        37.000          29.000
 114896038.23047  89529391.25447  21863986.592    21863986.679    21863993.056
        46.000          46.000
 103769507.059 8  80709640.221 7  19412230.814    19412241.778    19412248.630
        50.000          42.000
 105395613.844 8  81974352.514 8  19681879.727    19681880.869    19681883.503
        49.000          48.000
 127556891.27945  99394995.12144  24273270.775    24273271.280    24273275.465
        35.000          27.000
 116384599.13947  90689315.22947  22147248.362    22147248.249    22147253.768
        43.000          43.000
 107014165.18048  83387669.64146  20364116.354    20364115.604    20364118.916
        49.000          41.000
 106917147.70148  83312056.25447  20345645.595    20345645.587    20345649.500
        49.000          42.000
 124240818.88046  96811043.42344  23642236.551    23642235.779    23642237.758
        40.000          24.000
 112471479.39547  87640119.32247  21402607.523    21402607.528    21402613.875
        45.000          46.000
 20  5  2  0 49 30.0000000  0 10G 7G 3R 1R 8G31G 9G16G 4G22G26
 129718805.54046 101079578.72144  24684665.764    24684666.285    24684670.477
        37.000          29.000
 115054180.79247  89652619.19947  21894080.069    21894080.355    21894086.414
        45.000          45.000
 103803131.429 8  80735792.512 7  19418520.554    19418531.932    19418538.951
        49.000          42.000
 105533571.479 8  82081652.876 8  19707642.726    19707643.847    19707645.923
        49.000          48.000
 127725933.38545  99526716.19944  24305439.344    24305438.173    24305442.383
        33.000          26.000
 116378117.21047  90684264.38647  22146014.509    22146014.870    22146020.353
        44.000          43.000
 107071039.94248  83431987.63146  20374938.948    20374938.609    20374941.836
        48.000          41.000
 106964207.26648  83348726.04147  20354600.714    20354600.679    20354604.690
        48.000          42.000
 124416856.06446  96948215.22444  23675734.932    23675733.795    23675736.154
        40.000          24.000
 112604467.88647  87743746.70347  21427914.720    21427914.436    21427920.749
        46.000          45.000
 20  5  2  0 50  0.0000000  0 10G 7G 3R 1R 8G31G 9G16G 4G22G26
 129712368.90846 101074563.12344  24683441.121    24683441.604    24683446.130
        36.000          29.000
 115212684.22547  89776128.35147  21924241.994    21924242.663    21924248.612
        46.000          45.000
 103837397.586 8  80762443.956 7  19424930.352    19424941.759    19424949.042
        49.000          42.000
 105672153.316 8  82189438.730 7  19733521.920    19733523.014    19733525.055
        49.000          47.000
 127894949.75545  99658417.20844  24337601.312    24337601.212    24337605.333
        34.000          25.000
 116371803.94847  90679344.98147  22144813.521    22144813.549    22144818.854
        44.000          43.000
 107128563.59248  83476811.25346  20385885.475    20385885.032    20385888.184
        48.000          40.000
 107011616.11348  83385667.99647  20363622.266    20363622.376    20363626.281
        48.000          42.000
 124593001.95446  97085471.72943  23709254.278    23709253.758    23709256.189
        40.000          23.000
 112737919.74247  87847735.14947  21453309.518    21453309.593    21453316.008
        45.000          46.000
 20  5  2  0 50 30.0000000  0 10G 7G 3R 1R 8G31G 9G16G 4G22G26
 129706008.52246 101069606.98244  24682230.876    24682230.979    24682235.867
        37.000          29.000
 115371555.15847  89899923.86147  21954474.633    21954474.850    21954480.765
        45.000          45.000
 103872317.393 8  80789603.797 7  19431463.509    19431474.189    19431481.437
        49.000          42.000
 105811367.367 8  82297716.308 8  19759518.930    19759520.187    19759522.535
        48.000          48.000
 128063948.81745  99790104.71644  24369760.892    24369761.341    24369764.837
        34.000          25.000
 116365670.44747  90674565.64547  22143646.612    22143646.453    22143651.688
        44.000          43.000
 107186745.39848  83522147.72646  20396957.077    20396956.392    20396959.877
        48.000          40.000
 107059384.87348  83422890.40147  20372712.492    20372712.309    20372716.392
        48.000          42.000
 124769262.97646  97222817.94943  23742796.077    23742794.554    23742797.328
        40.000          23.000
 112871842.00647  87952090.15347  21478794.505    21478794.521    21478800.453
        46.000          46.000
 20  5  2  0 51  0.0000000  0 10G 7G 3R 1R 8G31G 9G16G 4G22G26
 129699725.21146 101064710.86944  24681035.364    24681035.660    24681040.167
        37.000          29.000
 115530791.12947  90024003.81647  21984776.262    21984776.480    21984782.328
        45.000          45.000
 103907894.203 8  80817274.645 7  19438118.434    19438129.811    19438137.022
        50.000          42.000
 105951212.528 8  82406484.743 8  19785634.081    19785635.348    19785637.636
        49.000          48.000
 128232929.67845  99921778.05344  24401917.441    24401916.966    24401920.616
        33.000          24.000
 116359718.72347  90669927.95347  22142514.048    22142513.761    22142519.194
        44.000          44.000
 107245586.28747  83567997.76446  20408154.092    20408153.467    20408156.975
        47.000          40.000
 107107515.17248  83460394.52447  20381870.871    20381871.137    20381875.248
        48.000          42.000
 124945636.67946  97360251.96243  23776358.505    23776356.562    23776360.240
        40.000          23.000
 113006232.65547  88056810.12447  21504368.041    21504367.892    21504374.319
        45.000          46.000
 20  5  2  0 51 30.0000000  0 10G 7G 3R 1R 8G31G 9G16G 4G22G26
 129693508.14646 101059866.39344  24679852.480    24679852.372    24679856.627
        37.000          29.000
 115690378.49547  90148357.58447  22015144.617    22015144.958    22015150.643
        44.000          45.000
 103944119.245 8  80845449.667 7  19444894.469    19444906.306    19444913.526
        50.000          42.000
 106091676.022 8  82515734.111 4  19811865.079    19811866.175    19811868.364
        49.000          29.000
 128401880.75745 100053428.19543  24434067.937    24434067.573    24434070.953
        34.000          23.000
 116353939.67347  90665424.80747  22141414.126    22141414.077    22141419.592
        45.000          44.000
 107305075.38248  83614352.89846  20419474.317    20419473.943    20419477.276
        49.000          40.000
 107155997.42448  83498172.89847  20391097.110    20391097.037    20391101.295
        49.000          42.000
 125122109.65746  97497763.36843  23809939.818    23809939.084    23809942.188
        39.000          23.000
 113141078.43847  88161884.74547  21530028.116    21530028.210    21530034.719
        45.000          45.000
 20  5  2  0 52  0.0000000  0 10G 7G 3R 1R 8G31G 9G16G 4G22G26
 129687360.88246 101055076.28545  24678683.357    24678682.238    24678687.428
        37.000          30.000
 115850317.38347  90272985.27347  22045579.873    22045580.314    22045586.051
        45.000          45.000
 103980998.057 8  80874133.181 7  19451793.810    19451805.377    19451812.233
        49.000          42.000
 106232759.858 8  82625465.963 8  19838211.189    19838212.328    19838214.666
        49.000          48.000
 128570804.02745 100185056.67143  24466212.728    24466212.488    24466216.151
        34.000          23.000
 116348337.94047  90661059.82447  22140348.320    22140348.361    22140353.837
        44.000          45.000
 107365215.95048  83661215.67746  20430918.709    20430918.331    20430921.513
        48.000          40.000
 107204835.82048  83536228.78447  20400390.645    20400390.789    20400394.907
        49.000          42.000
 125298681.93046  97635352.11343  23843540.888    23843539.471    23843542.467
        39.000          22.000
 113276379.96047  88267314.49947  21555775.478    21555775.169    21555781.729
        46.000          46.000
 20  5  2  0 52 30.0000000  0 10G 7G 3R 1R 8G31G 9G16G 4G22G26
 129681283.26946 101050340.47445  24677527.457    24677526.295    24677530.678
        37.000          30.000
 116010604.98347  90397884.67847  22076081.462    22076081.970    22076087.825
        45.000          44.000
 104018532.924 8  80903326.957 7  19458814.877    19458827.207    19458834.191
        49.000          42.000
 106374461.582 8  82735678.398 8  19864672.715    19864674.437    19864676.429
        49.000          48.000
 128739698.44945 100316662.64843  24498353.530    24498352.758    24498354.961
        35.000          23.000
 116342915.25047  90656834.36247  22139316.694    22139316.628    22139322.058
        44.000          44.000
 107426008.00348  83708586.10146  20442487.061    20442486.669    20442489.949
        48.000          40.000
 107254031.56348  83574563.12447  20409752.334    20409752.437    20409756.361
        48.000          42.000
 125475350.73446  97773016.07743  23877160.266    23877159.365    23877161.807
        39.000          23.000
 113412134.74647  88373097.43447  21581608.847    21581608.658    21581614.899
        46.000          45.000
 20  5  2  0 53  0.0000000  0 10G 7G 3R 1R 8G31G 9G16G 4G22G26
 129675274.61946 101045658.40345  24676382.593    24676382.925    24676386.962
        37.000          30.000
 116171237.70447  90523053.01347  22106648.997    22106649.391    22106655.210
        45.000          45.000
 104056725.929 8  80933032.615 7  19465960.162    19465972.029    19465978.889
        50.000          42.000
 106516779.314 8  82846369.946 8  19891250.123    19891251.107    19891253.364
        49.000          48.000
 128908562.32745 100448244.84443  24530487.283    24530485.568    24530488.630
        33.000          22.000
 116337672.56947  90652749.16147  22138318.598    22138318.909    22138324.357
        45.000          45.000
 107487450.89348  83756463.67646  20454179.315    20454178.759    20454181.967
        48.000          40.000
 107303585.21448  83613176.35647  20419182.156    20419182.221    20419186.119
        49.000          42.000
 125652112.78746  97910752.70543  23910797.002    23910795.662    23910798.293
        40.000          22.000
 113548339.69347  88479231.14547  21607527.529    21607527.263    21607533.838
        46.000          45.000
 20  5  2  0 53 30.0000000  0 10G 7G 3R 1R 8G31G 9G16G 4G22G26
 129669336.86146 101041031.55345  24675253.894    24675253.079    24675257.360
        37.000          30.000
 116332214.61647  90648489.54947  22137281.964    22137282.220    22137288.265
        45.000          44.000
 104095580.964 8  80963253.178 7  19473229.298    19473240.482    19473247.584
        50.000          42.000
 106659713.254 8  82957540.772 7  19917942.138    19917943.397    19917945.137
        49.000          47.000
 129077396.89845 100579804.17143  24562614.249    24562613.952    24562617.841
        32.000          21.000
 116332613.68247  90648807.17247  22137355.954    22137355.984    22137361.478
        45.000          45.000
 107549546.79148  83804850.09046  20465995.913    20465995.232    20465998.490
        48.000          40.000
 107353500.01148  83652070.99847  20428680.589    20428680.724    20428684.590
        48.000          42.000
 125828967.01146  98048561.16143  23944451.314    23944450.409    23944453.336
        40.000          23.000
 113684994.33747  88585715.27147  21633531.937    21633532.036    21633538.550
        45.000          45.000
 20  5  2  0 54  0.0000000  0 10G 7G 3R 1R 8G31G 9G16G 4G22G26
 129663468.50546 101036458.79245  24674135.934    24674136.395    24674139.998
        37.000          30.000
 116493531.38547  90774190.90747  22167979.375    22167979.765    22167985.854
        44.000          44.000
 104135098.992 8  80993989.413 7  19480621.861    19480633.202    19480640.419
        50.000          42.000
 106803260.055 8  83069188.259 8  19944748.539    19944749.565    19944751.360
        49.000          48.000
 129246199.68145 100711338.76043  24594735.968    24594736.180    24594739.601
        32.000          21.000
 116327738.54947  90645008.37747  22136428.307    22136428.135    22136433.608
        44.000          45.000
 107612293.54848  83853743.66346  20477936.286    20477935.525    20477938.819
        48.000          40.000
 107403775.41948  83691246.63447  20438247.614    20438247.679    20438251.748
        49.000          42.000
 126005909.03846  98186438.00643  23978122.842    23978121.524    23978122.436
        40.000          23.000
 113822094.54847  88692546.58747  21659621.869    21659621.293    21659627.771
        45.000          45.000
 20  5  2  0 54 30.0000000  0 10G 7G 3R 1R 8G31G 9G16G 4G22G26
 129657664.86246 101031936.47845  24673032.086    24673032.557    24673035.717
        38.000          30.000
 116655180.03247  90900150.87447  22198740.188    22198740.464    22198746.597
        44.000          44.000
 104175277.320 8  81025239.224 7  19488138.255    19488149.692    19488156.453
        50.000          42.000
 106947412.865 8  83181307.099 8  19971667.739    19971669.234    19971671.148
        49.000          48.000
 129414964.00345 100842843.37443  24626852.244    24626851.348    24626856.104
        32.000          20.000
 116323043.96147  90641350.25647  22135534.722    22135534.766    22135540.197
        44.000          44.000
 107675686.40948  83903140.69646  20489999.188    20489998.642    20490002.057
        48.000          40.000
 107454407.72648  83730700.37047  20447882.519    20447882.685    20447886.680
        49.000          42.000
 126182931.30946  98324377.40243  24011808.950    24011808.137    24011809.873
        40.000          23.000
 113959632.88447  88799719.29547  21685793.590    21685793.947    21685800.382
        45.000          45.000
 20  5  2  0 55  0.0000000  0 10G 7G 3R 1R 8G31G 9G16G 4G22G26
 129651932.43046 101027469.63145  24671941.477    24671941.288    24671944.876
        38.000          31.000
 116817164.32947  91026372.37947  22229564.662    22229564.891    22229571.338
        44.000          44.000
 104216125.049 8  81057009.661 7  19495779.268    19495791.094    19495797.942
        50.000          42.000
 107092176.700 8  83293901.171 8  19998701.644    19998702.584    19998704.763
        49.000          48.000
 129583695.98045 100974322.78143  24658959.656    24658958.724    24658963.414
        30.000          19.000
 116318538.26547  90637839.32747  22134677.421    22134677.306    22134682.615
        44.000          45.000
 107739732.08948  83953046.41846  20502186.738    20502186.118    20502189.700
        48.000          40.000
 107505404.73348  83770438.29647  20457587.050    20457587.120    20457591.159
        48.000          43.000
 126360037.73746  98462382.39143  24045511.285    24045510.215    24045512.581
        40.000          23.000
 114097613.51047  88907236.65647  21712050.998    21712050.786    21712057.272
        45.000          45.000
 20  5  2  0 55 30.0000000  0 10G 7G 3R 1R 8G31G 9G16G 4G22G26
 129646264.37046 101023052.95645  24670862.008    24670862.736    24670866.841
        38.000          30.000
 116979474.37247  91152847.71347  22260451.199    22260451.594    22260457.782
        44.000          44.000
 104257637.138 8  81089296.842 7  19503545.486    19503556.737    19503563.526
        50.000          42.000
 107237542.634 8  83406963.543 7  20025847.573    20025848.867    20025850.827
        49.000          47.000
 129752387.83944 101105770.92543  24691061.760    24691060.400    24691065.489
        29.000          18.000
 116314216.19747  90634471.49347  22133855.113    22133854.919    22133860.017
        44.000          44.000
 107804423.54648  84003455.34646  20514497.162    20514496.703    20514499.955
        48.000          40.000
 107556760.64648  83810455.88347  20467359.874    20467359.911    20467363.810
        48.000          42.000
 126537218.46946  98600445.24543  24079227.503    24079226.499    24079227.225
        40.000          23.000
 114236026.93347  89015091.25347  21738390.255    21738390.093    21738396.486
        46.000          46.000
 20  5  2  0 56  0.0000000  0 10G 7G 3R 1R 8G31G 9G16G 4G22G26
 129640670.41046 101018693.99145  24669798.284    24669797.981    24669802.151
        38.000          30.000
 117142116.89647  91279582.12847  22291401.040    22291401.410    22291407.793
        44.000          44.000
 104299825.739 8  81122110.182 7  19511438.422    19511448.745    19511455.666
        50.000          42.000
 107383518.839 8  83520500.571 8  20053107.093    20053108.660    20053110.814
        49.000          48.000
 129921048.40644 101237194.69042  24723155.324    24723155.499    24723159.062
        29.000          17.000
 116310089.13347  90631255.61047  22133069.890    22133069.791    22133074.579
        44.000          44.000
 107869770.31948  84054374.90846  20526932.526    20526931.742    20526934.946
        48.000          40.000
 107608486.32248  83850761.59747  20477202.776    20477202.868    20477207.040
        49.000          43.000
 126714480.28246  98738571.30843  24112959.521    24112958.107    24112959.882
        40.000          23.000
 114374880.30347  89123288.66847  21764813.231    21764812.958    21764819.446
        45.000          45.000
 20  5  2  0 56 30.0000000  0 10G 7G 3R 1R 8G31G 9G16G 4G22G26
 128059720.14246  99786784.67845  24368953.521    24368953.099    24368956.827
        37.000          30.000
 115729664.24647  90178969.64747  22022620.030    22022620.400    22022627.014
        44.000          44.000
 102740121.760 8  79909007.088 7  19219661.709    19219673.815    19219680.889
        50.000          42.000
 105924722.292 8  82385881.020 7  19780687.758    19780688.960    19780690.918
        49.000          47.000
 128514251.76744 100140989.49942  24455452.678    24455450.913    24455455.412
        28.000          17.000
 114730728.47047  89400584.97047  21832527.349    21832527.512    21832532.262
        45.000          45.000
 106360344.21548  82878198.72446  20239697.962    20239697.542    20239700.798
        48.000          40.000
 106085154.43748  82663749.73047  20187322.355    20187322.416    20187326.701
        49.000          43.000
 125316396.22246  97649155.10643  23846913.159    23846912.395    23846913.936
        40.000          22.000
 112938745.51347  88004222.58547  21491525.716    21491525.464    21491532.019
        45.000          45.000
 20  5  2  0 57  0.0000000  0 10G 7G 3R 1R 8G31G 9G16G 4G22G26
 128054262.37146  99782531.87845  24367915.097    24367914.414    24367918.065
        37.000          30.000
 115892950.47447  90306205.64347  22053692.187    22053692.708    22053699.311
        44.000          44.000
 102783657.389 8  79942868.124 7  19227806.642    19227818.258    19227825.278
        49.000          42.000
 106071899.908 8  82500352.482 7  19808172.330    19808173.075    19808175.221
        49.000          47.000
 128682833.71744 100272351.97942  24487530.507    24487530.161    24487535.066
        27.000          16.000
 114726984.09747  89397667.28547  21831814.521    21831814.807    21831819.968
        44.000          45.000
 106426988.27348  82930129.16046  20252380.225    20252379.453    20252382.627
        48.000          40.000
 106137610.54248  82704624.61147  20197304.557    20197304.610    20197308.769
        49.000          43.000
 125493799.35346  97787391.27643  23880671.562    23880670.387    23880671.080
        40.000          22.000
 113078458.64447  88113089.94947  21518112.054    21518112.233    21518118.661
        45.000          45.000
 20  5  2  0 57 30.0000000  0 10G 7G 3R 1R 8G31G 9G16G 4G22G26
 128048865.85546  99778326.79845  24366888.242    24366887.322    24366891.081
        37.000          30.000
 116056547.25247  90433683.63447  22084824.161    22084824.301    22084830.894
        44.000          44.000
 102827862.711 8  79977250.031 7  19236076.553    19236087.665    19236094.725
        50.000          42.000
 106219668.365 8  82615283.484 7  19835766.759    19835768.069    19835770.123
        49.000          47.000
 128851368.08044 100403677.43442  24519602.118    24519602.302    24519605.571
        28.000          17.000
 114723426.81247  89394895.37947  21831137.765    21831137.744    21831143.166
        45.000          45.000
 106494273.70348  82982559.37446  20265184.015    20265183.589    20265186.669
        48.000          40.000
 106190426.81648  82745780.14647  20207355.209    20207355.234    20207359.166
        49.000          43.000
 125671262.22946  97925673.98643  23914442.069    23914440.659    23914442.617
        40.000          22.000
 113218591.01047  88222283.98247  21544778.614    21544778.450    21544785.032
        45.000          45.000
 20  5  2  0 58  0.0000000  0 10G 7G 3R 1R 8G31G 9G16G 4G22G26
 128043538.64746  99774175.72045  24365873.958    24365873.547    24365877.492
        37.000          30.000
 116220459.96247  90561407.80047  22116015.767    22116015.861    22116022.363
        43.000          43.000
 102872748.330 8  80012161.057 7  19244473.450    19244484.774    19244491.496
        50.000          42.000
 106368034.344 8  82730679.219 7  19863473.173    19863474.177    19863476.316
        49.000          47.000
 129019862.62244 100534971.84342  24551666.850    24551667.288    24551669.152
        28.000          17.000
 114720066.58647  89392277.03347  21830498.158    21830498.243    21830503.839
        45.000          45.000
 106562208.65047  83035495.69446  20278111.549    20278111.176    20278114.294
        47.000          40.000
 106243612.63348  82787223.63147  20217476.059    20217476.097    20217480.174
        49.000          42.000
 125848790.21646  98064007.44743  23948224.090    23948224.255    23948224.558
        39.000          22.000
 113359148.31147  88331809.14247  21571525.804    21571525.395    21571532.082
        44.000          44.000
 20  5  2  0 58 30.0000000  0 10G 7G 3R 1R 8G31G 9G16G 4G22G26
 128038273.23246  99770072.81345  24364871.714    24364871.279    24364875.485
        37.000          30.000
 116384677.65347  90689369.60347  22147265.097    22147265.485    22147271.941
        44.000          43.000
 102918308.459 8  80047596.706 7  19252996.455    19253007.571    19253014.357
        49.000          42.000
 106516987.503 8  82846531.653 7  19891289.517    19891290.268    19891292.368
        49.000          47.000
 129188308.31544 100666228.16242  24583719.924    24583720.375    24583723.917
        29.000          17.000
 114716897.30147  89389807.46447  21829895.098    21829895.061    21829900.798
        45.000          45.000
 106630785.01447  83088931.81946  20291161.295    20291160.763    20291163.842
        47.000          40.000
 106297161.21048  82828949.79447  20227666.069    20227666.174    20227670.055
        49.000          43.000
 126026372.57046  98202383.28543  23982017.310    23982016.540    23982017.765
        39.000          21.000
 113500120.07447  88441657.25447  21598351.826    21598351.607    21598358.297
        45.000          45.000
 20  5  2  0 59  0.0000000  0 10G 7G 3R 1R 8G31G 9G16G 4G22G26
 128033080.34446  99766026.40245  24363884.157    24363883.108    24363887.177
        38.000          30.000
 116549208.08847  90817575.11947  22178574.611    22178574.812    22178581.064
        44.000          43.000
 102964555.722 8  80083566.792 7  19261647.850    19261658.936    19261666.112
        50.000          42.000
 106666537.210 8  82962848.064 7  19919216.381    19919217.288    19919219.667
        49.000          47.000
 129356714.71344 100797453.90342  24615766.173    24615767.711    24615770.226
        29.000          15.000
 114713931.35847  89387496.35347  21829330.226    21829330.579    21829336.396
        45.000          45.000
 106700012.78648  83142875.54046  20304334.900    20304334.270    20304337.540
        48.000          40.000
 106351084.38248  82870967.84947  20237927.334    20237927.402    20237931.260
        49.000          43.000
 126204017.31146  98340807.72443  24015821.759    24015820.591    24015821.748
        39.000          21.000
 113641514.38847  88551834.62847  21625258.806    21625258.190    21625264.802
        45.000          45.000
 20  5  2  0 59 30.0000000  0 11G 7G 3R 1G27R 8G31G 9G16G 4G22G26
 128027945.45546  99762025.19645  24362906.287    24362905.605    24362910.515
        37.000          30.000
 116714034.02947  90946010.88447  22209939.868    22209940.334    22209946.276
        43.000          43.000
 103011477.726 8  80120061.682 7  19270425.697    19270436.709    19270443.840
        50.000          42.000
 128157104.30245                  24387483.071
        34.000
 106816666.464 8  83079615.243 7  19947251.788    19947253.255    19947255.304
        49.000          47.000
 129525067.04844 100928637.46842  24647803.630    24647804.130    24647806.668
        28.000          14.000
 114711156.23547  89385333.93247  21828802.596    21828802.711    21828808.165
        45.000          46.000
 106769877.47348  83197315.55546  20317629.782    20317629.384    20317632.241
        48.000          40.000
 106405369.00348  82913267.54747  20248257.488    20248257.361    20248261.321
        49.000          43.000
 126381707.26146  98479267.37443  24049635.316    24049633.686    24049635.861
        39.000          21.000
 113783314.44547  88662328.16247  21652242.144    21652241.869    21652248.344
        45.000          45.000
 20  5  2  1  0  0.0000000  0 10G 7G 3R 1G27R 8G 9G16G 4G22G26
 128022880.54346  99758078.52245  24361943.058    24361941.530    24361946.358
        37.000          30.000
 116879164.07647  91074683.62347  22241363.546    22241363.890    22241369.624
        45.000          43.000
 103059088.465 8  80157092.254 7  19279332.006    19279343.388    19279350.539
        50.000          42.000
 128134425.92346  99845011.79745  24383167.995    24383168.013    24383175.041
        39.000          32.000
 106967385.284 8  83196840.979 7  19975397.558    19975398.989    19975401.127
        49.000          47.000
 114708585.29847  89383330.61647  21828313.721    21828313.630    21828318.936
        46.000          46.000
 106840390.62248  83252260.86846  20331047.903    20331047.466    20331050.395
        48.000          41.000
 106460027.78548  82955858.80247  20258658.629    20258658.522    20258662.444
        49.000          43.000
 126559451.45146  98617769.31843  24083458.804    24083458.420    24083458.553
        40.000          20.000
 113925529.19447  88773144.83947  21679304.467    21679304.398    21679310.840
        45.000          45.000
 20  5  2  1  0 30.0000000  0 10G 7G 3R 1G27R 8G 9G16G 4G22G26
 128017882.80746  99754184.17245  24360992.026    24360990.637    24360994.883
        36.000          30.000
 117044592.19547  91203588.63447  22272843.180    22272843.822    22272849.416
        44.000          43.000
 103107386.641 8  80194657.482    19288367.322    19288378.627    19288384.535
        50.000           1.000
 128111802.33746  99827383.06845  24378863.082    24378862.166    24378869.776
        36.000          32.000
 107118688.234 8  83314520.982    20003652.654    20003653.464    20003656.592
        49.000           1.000
 114706217.25547  89381485.39647  21827863.534    21827863.374    21827868.400
        46.000          46.000
 106911548.69448  83307708.71546  20344588.847    20344588.312    20344591.532
        48.000          40.000
 106515058.78048  82998740.09747  20269130.446    20269130.606    20269134.597
        49.000          43.000
 126737243.94446  98756308.87143  24117291.903    24117290.063    24117291.899
        39.000          20.000
 114068153.01847  88884280.27047  21706444.905    21706444.717    21706451.520
        45.000          45.000
 20  5  2  1  1  0.0000000  0 10G 7G 3R 1G27R 8G 9G16G 4G22G26
 128012952.39546  99750342.30045  24360053.790    24360052.491    24360056.882
        37.000          30.000
 117210316.00247  91332724.03547  22304379.706    22304380.067    22304385.726
        44.000          43.000
 103156375.036 8  80232759.582 1  19297531.151    19297542.531    19297549.357
        49.000           8.000
 128089237.23746  99809799.92744  24374568.760    24374568.749    24374575.816
        36.000          29.000
 107270573.783 8  83432654.231    20032016.635    20032017.359    20032020.097
        49.000           1.000
 114704054.48847  89379800.13747  21827451.493    21827451.684    21827456.852
        46.000          46.000
 106983352.17247  83363659.47346  20358252.465    20358252.090    20358255.216
        47.000          40.000
 106570463.74748  83041912.79447  20279673.697    20279673.920    20279677.928
        50.000          43.000
 126915082.63946  98894884.45743  24151132.958    24151131.801    24151132.907
        40.000          20.000
 114211183.91547  88995732.90447  21733662.757    21733662.545    21733669.207
        45.000          44.000
 20  5  2  1  1 30.0000000  0 10G 7G 3R 1G27R 8G 9G16G 4G22G26
 128008087.59446  99746551.54945  24359127.728    24359126.964    24359131.586
        37.000          31.000
 117376330.93947  91462086.30047  22335970.886    22335971.666    22335977.430
        44.000          43.000
 103206053.819 8  80271398.665    19306824.263    19306836.026    19306845.019
        49.000           1.000
 128066732.26745  99792263.60945  24370285.978    24370286.195    24370292.742
        35.000          30.000
 107423038.464 8                  20060487.896
        49.000
 114702097.17247  89378274.96647  21827079.497    21827079.079    21827084.324
        45.000          46.000
 107055797.98248  83420110.75446  20372038.552    20372038.046    20372041.416
        48.000          41.000
 106626242.21048  83085376.53147  20290288.236    20290288.133    20290292.217
        49.000          43.000
 127092963.20146  99033492.67543  24184982.713    24184981.997    24184983.557
        39.000          20.000
 114354617.73347  89107499.49847  21760957.547    21760957.296    21760963.755
        45.000          44.000
 20  5  2  1  2  0.0000000  0 10G 7G 3R 1G27R 8G 9G16G 4G22G26
 128003293.21146  99742815.67645  24358214.617    24358214.870    24358218.331
        37.000          30.000
 117542637.95147  91591676.15247  22367618.534    22367618.631    22367624.537
        44.000          43.000
 103256428.803 8                  19316248.978
        50.000
 128044294.56246  99774779.71045  24366016.603    24366016.074    24366023.444
        36.000          30.000
 107576084.084 8                  20089067.782
        49.000
 114700351.09347  89376914.39147  21826746.653    21826746.569    21826752.010
        44.000          46.000
 107128890.02747  83477065.59446  20385947.605    20385947.215    20385950.266
        47.000          40.000
 106682399.27448  83129135.27547  20300974.550    20300974.590    20300978.464
        49.000          43.000
 127270886.43046  99172134.11943  24218840.679    24218839.526    24218841.156
        40.000          20.000
 114498455.78347  89219581.08747  21788328.813    21788329.042    21788335.244
        45.000          44.000
 20  5  2  1  2 30.0000000  0 10G 7G 3R 1G27R 8G 9G16G 4G22G26
 127998571.82246  99739136.66845  24357316.694    24357316.420    24357320.474
        37.000          31.000
 117709237.03047  91721493.57847  22399321.047    22399321.248    22399327.278
        43.000          42.000
 103307504.976 8                  19325803.055
        50.000
 128021930.23845  99757352.95844  24361760.317    24361760.006    24361767.349
        34.000          28.000
 107729711.465 8  83789769.250 7  20117757.100    20117758.156    20117760.490
        49.000          47.000
 114698820.94747  89375722.08647  21826455.242    21826455.062    21826460.674
        45.000          45.000
 107202630.95148  83534526.05346  20399979.941    20399979.448    20399982.690
        48.000          41.000
 106738938.97848  83173192.18847  20311733.673    20311733.784    20311737.657
        50.000          43.000
 127448852.86646  99310809.23043  24252706.246    24252705.393    24252706.128
        39.000          21.000
 114642698.44047  89331977.94547  21815777.695    21815777.235    21815783.762
        45.000          44.000
 20  5  2  1  3  0.0000000  0 10G 7G 3R 1G27R 8G 9G16G 4G22G26
 127993905.43146  99735500.53545  24356429.535    24356428.514    24356432.969
        37.000          31.000
 117876107.41647  91851522.42147  22431075.115    22431075.685    22431081.586
        43.000          42.000
 103359266.453 8  80390562.981 7  19335486.515    19335497.786    19335504.904
        50.000          42.000
 127999624.70245  99739972.05344  24357516.604    24357515.851    24357522.429
        35.000          28.000
 107883900.374 8  83909693.933 7  20146550.141    20146551.431    20146553.746
        48.000          47.000
 114697490.86247  89374685.66347  21826201.976    21826201.826    21826207.574
        45.000          46.000
 107277002.48648  83592477.89746  20414132.260    20414131.885    20414135.051
        48.000          40.000
 106795844.67948  83217534.29147  20322562.646    20322562.546    20322566.514
        49.000          43.000
 127626841.94446  99449501.96742  24286576.374    24286575.392    24286576.833
        39.000          16.000
 114787325.33347  89444674.22047  21843299.076    21843298.818    21843305.117
        44.000          44.000
 20  5  2  1  3 30.0000000  0 10G 7G 3R 1G27R 8G 9G16G 4G22G26
 127989300.00946  99731911.89745  24355552.170    24355552.055    24355556.600
        37.000          31.000
 118043251.47147  91981764.51947  22462882.052    22462882.191    22462887.925
        43.000          43.000
 103411720.002 8  80431360.180 7  19345298.178    19345310.572    19345317.465
        50.000          43.000
 127977386.58445  99722643.63644  24353283.139    24353283.591    24353291.203
        34.000          29.000
 108038653.825 8  84030057.718 7  20175449.902    20175450.648    20175452.934
        48.000          47.000
 114696367.95747  89373810.67747  21825988.575    21825988.225    21825993.804
        46.000          46.000
 107352009.36048  83650924.82146  20428405.725    20428405.305    20428408.460
        48.000          40.000
 106853122.79848  83262166.58947  20333462.116    20333462.185    20333466.139
        50.000          44.000
 127804856.54846  99588214.62743  24320451.881    24320450.747    24320451.988
        39.000          21.000
 114932339.18247  89557672.01747  21870894.550    21870894.007    21870900.591
        45.000          44.000
 20  5  2  1  4  0.0000000  0 10G 7G 3R 1G27R 8G 9G16G 4G22G26
 127984761.47746  99728375.39245  24354689.321    24354688.357    24354692.920
        37.000          31.000
 118210672.34047  92112222.31047  22494741.290    22494741.368    22494747.164
        43.000          42.000
 103464874.061 8  80472702.208 7  19355243.099    19355254.056    19355261.010
        50.000          42.000
 127955225.13445  99705375.00244  24349066.683    24349066.253    24349073.660
        34.000          28.000
 108193975.986 8  84150863.819 7  20204455.004    20204456.144    20204458.082
        48.000          47.000
 114695460.23047  89373103.35747  21825816.090    21825815.759    21825821.143
        46.000          46.000
 107427657.35548  83709871.31446  20442801.066    20442800.438    20442803.863
        48.000          40.000
 106910780.66048  83307094.78847  20344434.034    20344434.036    20344438.094
        49.000          44.000
 127982899.80946  99726949.57343  24354332.092    24354330.906    24354333.805
        39.000          20.000
 115077743.55547  89670974.10747  21898563.462    21898563.466    21898570.392
        44.000          44.000
 20  5  2  1  4 30.0000000  0 10G 7G 3R 1G27R 8G 9G16G 4G22G26
 127980294.13246  99724894.32845  24353837.842    24353838.303    24353843.061
        38.000          32.000
 118378371.08947  92242896.62947  22526652.982    22526653.407    22526659.131
        44.000          42.000
 103518734.481 8  80514593.630 7  19365318.933    19365329.633    19365336.906
        50.000          42.000
 127933147.69445  99688171.80844  24344865.133    24344864.877    24344872.455
        34.000          28.000
 108349868.539 8  84272113.562 7  20233567.074    20233567.906    20233569.969
        48.000          46.000
 114694773.52047  89372568.26047  21825685.589    21825685.315    21825690.521
        46.000          46.000
 107503949.56948  83769319.79446  20457318.949    20457318.533    20457321.756
        49.000          40.000
 106968823.36648  83352322.86647  20355479.216    20355479.189    20355483.312
        50.000          43.000
 128160973.04746  99865707.89343  24388218.260    24388217.595    24388219.670
        39.000          20.000
 115223539.83647  89784581.58347  21926307.747    21926307.800    21926314.242
        44.000          44.000
 20  5  2  1  5  0.0000000  0 10G 7G 3R 1G27R 8G 9G16G 4G22G26
 127975887.31346  99721460.47445  24353000.598    24352999.410    24353003.858
        38.000          31.000
 118546334.19747  92373776.94747  22558615.274    22558615.684    22558621.410
        43.000          42.000
 103573292.124 8  80557027.347 7  19375524.380    19375535.783    19375543.107
        49.000          42.000
 127911146.95645  99671028.38244  24340679.196    24340678.781    24340685.692
        35.000          28.000
 108506318.876 8  84393797.131 7  20262782.632    20262783.873    20262786.334
        48.000          47.000
 114694299.18047  89372198.64747  21825595.002    21825595.090    21825600.281
        46.000          46.000
 107580874.86348  83829261.58546  20471957.205    20471956.986    20471960.038
        48.000          41.000
 107027241.53148  83397843.50547  20366595.774    20366595.749    20366599.799
        49.000          43.000
 128339062.85446 100004479.13243  24422107.455    24422106.076    24422108.402
        39.000          20.000
 115369714.86647  89898484.19647  21954124.243    21954124.037    21954130.729
        44.000          44.000
 20  5  2  1  5 30.0000000  0 10G 7G 3R 1G27R 8G 9G16G 4G22G26
 127971542.29046  99718074.75245  24352172.860    24352172.666    24352177.672
        38.000          32.000
 118714560.01447  92504861.97147  22590627.869    22590628.002    22590633.767
        43.000          42.000
 103628550.117 8  80600005.776 7  19385861.244    19385873.241    19385879.972
        50.000          42.000
 127889227.46446  99653948.27944  24336507.681    24336507.925    24336514.759
        36.000          29.000
 108663325.616 8  84515913.464 7  20292103.122    20292103.848    20292106.142
        49.000          47.000
 114694040.42447  89371997.02747  21825546.012    21825546.037    21825551.106
        47.000          47.000
 107658433.94948  83889697.23146  20486716.340    20486716.094    20486719.133
        48.000          41.000
 107086037.57948  83443658.60347  20377784.462    20377784.249    20377788.293
        49.000          44.000
 128517168.21246 100143262.48543  24456000.117    24455998.518    24456000.514
        39.000          19.000
 115516267.51647  90012681.04847  21982012.096    21982011.992    21982018.452
        44.000          43.000
 20  5  2  1  6  0.0000000  0 10G 7G 3R 1G27R 8G 9G16G 4G22G26
 127967260.20346  99714738.08145  24351358.996    24351358.102    24351362.596
        38.000          32.000
 118883045.98047  92636149.71347  22622689.052    22622689.808    22622695.710
        43.000          42.000
 103684510.555 8  80643530.542 7  19396330.001    19396341.576    19396348.597
        50.000          42.000
 127867392.89746  99636934.34645  24332352.587    24332352.591    24332359.767
        36.000          30.000
 108820887.049 8  84638461.227 7  20321526.160    20321527.691    20321529.547
        49.000          46.000
 114693999.54447  89371965.17247  21825538.239    21825538.147    21825543.203
        46.000          47.000
 107736626.79048  83950626.72046  20501596.043    20501595.659    20501598.614
        48.000          41.000
 107145213.05048  83489769.35447  20389045.042    20389045.070    20389049.113
        49.000          43.000
 128695286.89346 100282056.19743  24489894.832    24489893.977    24489895.877
        38.000          19.000
 115663195.45847  90127170.34247  22009971.395    22009971.245    22009978.015
        43.000          43.000
 20  5  2  1  6 30.0000000  0 10G 7G 3R 1G27R 8G 9G16G 4G22G26
 127963043.70946  99711452.50245  24350556.281    24350556.056    24350560.207
        38.000          32.000
 119051791.84347  92767639.97147  22654800.572    22654801.172    22654807.059
        43.000          42.000
 103741178.142 8  80687605.319 7  19406930.558    19406942.369    19406949.492
        50.000          42.000
 127845649.29446  99619991.29545  24328216.371    24328215.151    24328221.957
        37.000          30.000
 108979003.925 8  84761440.997 7  20351054.144    20351054.628    20351057.010
        48.000          46.000
 114694181.15647  89372106.68747  21825572.829    21825572.784    21825577.694
        46.000          47.000
 107815455.24648  84012051.49546  20516596.635    20516596.033    20516599.418
        48.000          41.000
 107204771.80048  83536178.75747  20400378.835    20400378.763    20400382.824
        50.000          44.000
 128873418.61746 100420860.11943  24523792.089    24523790.848    24523793.713
        38.000          19.000
 115810498.90247  90241952.22947  22038002.592    22038002.249    22038009.004
        44.000          43.000
 20  5  2  1  7  0.0000000  0 10G 7G 3R 1G27R 8G 9G16G 4G22G26
 127958890.73146  99708216.42945  24349766.079    24349766.262    24349769.535
        39.000          32.000
 119220792.97547  92899329.14447  22686960.802    22686961.198    22686966.972
        43.000          42.000
 103798552.691 8  80732229.951 7  19417664.448    19417675.444    19417682.576
        49.000          42.000
 127823998.27846  99603120.39445  24324094.744    24324095.383    24324101.661
        37.000          31.000
 109137672.063 8  84884849.528 7  20380683.519    20380684.970    20380686.920
        48.000          46.000
 114694585.45247  89372421.72447  21825649.181    21825649.608    21825654.699
        46.000          47.000
 107894917.11348  84073969.83446  20531717.803    20531717.240    20531720.207
        48.000          41.000
 107264713.25548  83582886.37647  20411785.384    20411785.258    20411789.302
        49.000          43.000
 129051559.37446 100559671.02743  24557691.354    24557689.340    24557693.739
        38.000          19.000
 115958173.53947  90357023.36147  22066103.658    22066103.789    22066110.552
        43.000          42.000
 20  5  2  1  7 30.0000000  0 10G 7G 3R 1G27R 8G 9G16G 4G22G26
 126379379.67646  98477428.60845  24049194.575    24049195.422    24049198.985
        39.000          33.000
 117814630.18847  91803617.84746  22419376.770    22419377.285    22419383.198
        43.000          41.000
 102254073.482 8  79530968.337 7  19128736.940    19128748.560    19128755.863
        50.000          42.000
 126227020.56546  98358722.20845  24020199.657    24020200.279    24020207.212
        37.000          31.000
 107691517.622 8  83760062.722 7  20110625.021    20110625.889    20110627.831
        49.000          46.000
 113119792.44947  88145310.29647  21525976.463    21525976.100    21525981.633
        45.000          47.000
 106399592.16348  82908781.56446  20247166.867    20247166.446    20247169.394
        48.000          41.000
 105749618.70448  82402293.20847  20123472.480    20123472.377    20123476.407
        51.000          44.000
 127654290.51746  99470890.05243  24291799.944    24291799.239    24291800.505
        38.000          19.000
 114530799.88247  89244784.12447  21794483.542    21794483.509    21794490.329
        43.000          43.000
 20  5  2  1  8  0.0000000  0 10G 7G 3R 1G27R 8G 9G16G 4G22G26
 126375334.86446  98474276.81245  24048425.702    24048425.493    24048429.369
        38.000          33.000
 117984112.78847  91935682.18447  22451628.133    22451628.650    22451634.862
        42.000          42.000
 102312846.461 8  79576680.641 7  19139731.528    19139743.372    19139750.796
        50.000          43.000
 126205544.41346  98341987.54045  24016114.096    24016114.022    24016120.062
        38.000          32.000
 107851260.455 8  83884307.129 7  20140455.602    20140456.872    20140458.665
        48.000          46.000
 113120627.81747  88145961.22847  21526135.282    21526135.045    21526140.600
        46.000          46.000
 106480298.24348  82971669.41746  20262524.697    20262524.260    20262527.130
        48.000          41.000
 105810308.82848  82449584.20447  20135021.408    20135021.376    20135025.393
        50.000          44.000
 127832420.87646  99609692.89143  24325696.989    24325695.186    24325698.634
        37.000          18.000
 114679189.02247  89360412.00847  21822721.596    21822721.077    21822727.937
        44.000          43.000
 20  5  2  1  8 30.0000000  0 10G 7G 3R 1G27R 8G 9G16G 4G22G26
 126371355.89746  98471176.33245  24047668.343    24047668.401    24047671.877
        40.000          33.000
 118153843.29447  92067939.69346  22483926.849    22483927.243    22483933.452
        43.000          41.000
 102372332.807 8  79622947.793 7  19150860.420    19150871.873    19150878.691
        50.000          42.000
 126184172.29246  98325333.98445  24012047.310    24012046.803    24012052.743
        38.000          31.000
 108011549.359 8  84008976.255 7  20170388.597    20170389.739    20170391.552
        48.000          46.000
 113121693.19647  88146791.39947  21526337.728    21526337.994    21526343.285
        46.000          47.000
 106561636.74148  83035050.06146  20278002.755    20278002.424    20278005.369
        48.000          40.000
 105871386.56148  82497177.23447  20146644.148    20146644.232    20146648.031
        50.000          44.000
 128010553.67246  99748497.62843  24359594.962    24359593.395    24359596.230
        37.000          19.000
 114827943.11447  89476324.26947  21851028.186    21851028.106    21851034.618
        43.000          43.000
 20  5  2  1  9  0.0000000  0 10G 7G 3R 1G27R 8G 9G16G 4G22G26
 126367453.54046  98468135.55045  24046925.955    24046925.387    24046928.790
        39.000          33.000
 118323830.04647  92200396.87846  22516274.591    22516274.618    22516280.919
        43.000          41.000
 102432545.556 8  79669779.915 7  19162123.767    19162135.744    19162142.852
        49.000          42.000
 126162918.82546  98308772.84945  24008002.787    24008002.837    24008008.970
        38.000          32.000
 108172392.928 8  84134076.791 7  20200424.465    20200425.853    20200427.952
        48.000          46.000
 113123001.84047  88147811.11947  21526586.945    21526586.998    21526592.188
        45.000          47.000
 106643618.13148  83098931.66046  20293603.484    20293603.064    20293605.880
        48.000          40.000
 105932864.28648  82545081.94847  20158343.181    20158343.104    20158346.885
        50.000          44.000
 128188697.78046  99887311.17543  24393493.693    24393493.534    24393495.371
        37.000          18.000
 114977070.85847  89592527.69447  21879406.538    21879406.458    21879412.751
        44.000          42.000
 20  5  2  1  9 30.0000000  0 10G 7G 3R 1G27R 8G 9G16G 4G22G26
 126363623.48846  98465151.10945  24046197.033    24046196.655    24046200.231
        40.000          33.000
 118494064.79247  92333047.30146  22548668.651    22548669.191    22548675.270
        42.000          41.000
 102493481.207 8  79717174.296 7  19173523.632    19173534.838    19173542.061
        50.000          43.000
 126141782.02546  98292302.64545  24003979.875    24003979.897    24003987.052
        38.000          32.000
 108333783.421 8  84259602.710 7  20230563.134    20230564.430    20230566.750
        48.000          47.000
 113124550.43347  88149017.81647  21526881.270    21526881.301    21526886.900
        45.000          46.000
 106726236.51048  83163309.61746  20309325.306    20309324.803    20309327.516
        49.000          40.000
 105994737.81748  82593295.07947  20170117.209    20170117.149    20170120.987
        50.000          44.000
 128366845.17246 100026127.26843  24427394.329    24427392.357    24427395.246
        37.000          18.000
 115126564.42347  89709016.16547  21907854.155    21907854.031    21907860.571
        44.000          43.000
 20  5  2  1 10  0.0000000  0 10G 7G 3R 1G27R 8G 9G16G 4G22G26
 126359865.94646  98462223.16445  24045481.466    24045481.290    24045485.393
        39.000          32.000
 118664544.59646  92465888.68646  22581110.067    22581110.341    22581116.438
        41.000          40.000
 102555140.652 8  79765131.634 7  19185058.541    19185069.671    19185076.819
        50.000          42.000
 126120765.34146  98275926.03445  23999980.609    23999980.802    23999987.726
        37.000          31.000
 108495718.752 8  84385552.387 7  20260802.993    20260804.756    20260806.982
        48.000          46.000
 113126340.94747  88150413.02647  21527221.941    21527222.057    21527227.606
        45.000          46.000
 106809491.16248  83228183.37246  20325168.196    20325167.667    20325170.583
        48.000          40.000
 106057008.34448  82641817.56247  20181966.799    20181966.761    20181970.592
        49.000          44.000
 128544993.29546 100164943.97643  24461294.017    24461294.032    24461296.066
        38.000          18.000
 115276421.22147  89825787.68647  21936371.032    21936371.001    21936377.098
        44.000          42.000
 20  5  2  1 10 30.0000000  0 10G 7G 3R 1G27R 8G 9G16G 4G22G26
 126356174.96646  98459347.09945  24044778.966    24044779.039    24044782.704
        38.000          32.000
 118835260.74247  92598914.22946  22613596.834    22613596.620    22613602.589
        42.000          40.000
 102617519.993 8  79813648.882 7  19196727.640    19196739.242    19196746.444
        50.000          42.000
 126099866.28246  98259641.06845  23996003.190    23996003.482    23996010.315
        37.000          31.000
 108658190.398 8  84511919.204 7  20291144.306    20291145.120    20291147.296
        48.000          46.000
 113128369.57747  88151993.78147  21527607.922    21527608.155    21527613.571
        47.000          47.000
 106893375.33948  83293547.66946  20341130.408    20341130.136    20341133.203
        48.000          40.000
 106119671.15848  82690645.71947  20193891.288    20193891.124    20193895.072
        50.000          44.000
 128723133.93046 100303754.80243  24495193.953    24495193.080    24495195.477
        37.000          18.000
 115426632.90747  89942835.73447  21964955.296    21964955.224    21964962.054
        44.000          42.000
 20  5  2  1 11  0.0000000  0 10G 7G 3R 1G27R 8G 9G16G 4G22G26
 126352550.72846  98456523.02645  24044089.045    24044089.307    24044093.135
        39.000          33.000
 119006211.05847  92732122.23946  22646127.191    22646127.584    22646133.592
        42.000          40.000
 102680621.392 8  79862727.744 7  19208532.038    19208543.420    19208550.442
        50.000          43.000
 126079089.04546  98243451.03545  23992048.801    23992049.759    23992056.319
        36.000          31.000
 108821196.481 8  84638701.692 7  20321584.123    20321585.365    20321587.612
        48.000          46.000
 113130639.13147  88153762.26747  21528040.185    21528040.025    21528045.492
        46.000          47.000
 106977889.09848  83359402.54346  20357213.255    20357212.697    20357215.695
        49.000          41.000
 106182728.17348  82739781.04847  20205890.359    20205890.489    20205894.397
        51.000          44.000
 128901265.04446 100442558.20643  24529091.381    24529088.716    24529093.026
        37.000          18.000
 115577197.67747  90060158.90547  21993606.787    21993606.771    21993613.399
        44.000          42.000
 20  5  2  1 11 30.0000000  0 10G 7G 3R 1G27R 8G 9G16G 4G22G26
 126348979.92146  98453740.60045  24043409.305    24043409.953    24043413.566
        40.000          33.000
 119177377.85747  92865498.94146  22678699.200    22678699.607    22678705.467
        42.000          40.000
 102744431.368 8  79912357.722 7  19220469.207    19220480.555    19220487.654
        50.000          42.000
 126058422.25846  98227347.06645  23988117.524    23988117.067    23988123.225
        37.000          31.000
 108984719.826 8  84765886.488 7  20352121.091    20352122.027    20352124.668
        48.000          46.000
 113133136.84347  88155708.54047  21528515.294    21528515.423    21528520.719
        46.000          47.000
 107063016.55348  83425735.63046  20373412.459    20373412.070    20373415.010
        48.000          40.000
 106246165.76948  82789212.93147  20217962.482    20217962.272    20217966.200
        50.000          44.000
 129079369.36546 100581340.76743  24562983.724    24562983.149    24562984.721
        38.000          18.000
 115728098.24447  90177743.74347  22022322.365    22022322.131    22022328.858
        43.000          42.000
 20  5  2  1 12  0.0000000  0 10G 7G 3R 1G27R 8G 9G16G 4G22G26
 126345476.15546  98451010.40545  24042743.221    24042743.151    24042746.731
        38.000          33.000
 119348772.08047  92999052.84646  22711314.620    22711315.168    22711320.810
        42.000          40.000
 102808965.062 8  79962550.579 7  19232541.579    19232552.722    19232559.762
        50.000          42.000
 126037883.05146  98211342.50345  23984208.422    23984208.244    23984215.389
        36.000          32.000
 109148772.013 7  84893482.615 7  20382756.481    20382757.695    20382759.976
        47.000          46.000
 113135878.55047  88157844.92947  21529037.064    21529037.127    21529042.355
        46.000          47.000
 107148770.81048  83492557.12346  20389730.837    20389730.402    20389733.461
        48.000          40.000
 106309998.86148  82838952.98947  20230109.366    20230109.410    20230113.291
        50.000          44.000
 129257458.02746 100720111.10943  24596872.554    24596871.627    24596874.966
        38.000          18.000
 115879345.79747  90295598.97047  22051103.900    22051103.781    22051110.193
        44.000          42.000
 20  5  2  1 12 30.0000000  0 10G 7G 3R 1G27R 8G 9G16G 4G22G26
 126342030.44846  98448325.45445  24042087.547    24042087.321    24042090.921
        39.000          33.000
 119520381.36147  93132774.33446  22743970.729    22743971.404    22743976.795
        42.000          40.000
 102874214.662 8  80013300.271 7  19244747.274    19244758.929    19244766.055
        50.000          42.000
 126017465.61946  98195432.84745  23980322.926    23980323.113    23980330.170
        37.000          32.000
 109313341.150 8  85021480.801 7  20413489.286    20413490.023    20413492.193
        48.000          46.000
 113138856.90547  88160165.73147  21529603.919    21529603.930    21529609.158
        47.000          47.000
 107235141.44248  83559858.91946  20406166.516    20406166.278    20406169.258
        48.000          40.000
 106374219.20148  82888994.80147  20242330.300    20242330.027    20242333.986
        50.000          44.000
 129435519.27546 100858860.08543  24630757.193    24630755.393    24630758.791
        38.000          18.000
 116030928.50547  90413715.34847  22079949.230    22079949.062    22079955.716
        44.000          43.000
 20  5  2  1 13  0.0000000  0 10G 7G 3R 1G27R 8G 9G16G 4G22G26
 126338651.02146  98445692.15245  24041444.068    24041444.582    24041447.860
        39.000          33.000
 119692211.19847  93266667.68746  22776668.852    22776669.365    22776675.046
        43.000          40.000
 102940190.083 8  80064614.467 7  19257089.658    19257101.195    19257107.935
        50.000          42.000
 125997181.60146  98179627.14545  23976463.737    23976463.668    23976470.062
        37.000          32.000
 109478432.878 8  85149885.462 7  20444318.328    20444319.898    20444322.156
        48.000          45.000
 113142082.29647  88162679.02647  21530217.791    21530217.647    21530222.922
        46.000          47.000
 107322135.80348  83627646.73246  20422721.047    20422720.648    20422723.701
        48.000          41.000
 106438836.26148  82939345.74947  20254626.140    20254626.123    20254630.248
        49.000          44.000
 129613559.07746 100997592.33843  24664636.441    24664636.450    24664638.080
        37.000          18.000
 116182852.13147  90532097.37147  22108859.185    22108859.117    22108865.719
        44.000          42.000
 20  5  2  1 13 30.0000000  0 10G 7G 3R 1G27R 8G 9G16G 4G22G26
 126335334.68346  98443108.03445  24040813.485    24040813.597    24040816.582
        39.000          33.000
 119864255.99347  93400728.53446  22809407.785    22809408.387    22809414.209
        42.000          40.000
 103006889.521 8  80116491.804 7  19269567.030    19269578.576    19269585.461
        50.000          42.000
 125977031.78946  98163926.01545  23972629.035    23972628.795    23972635.972
        37.000          32.000
 109644042.155 8  85278692.655 7  20475245.277    20475246.335    20475248.205
        48.000          46.000
 113145554.12647  88165384.35447  21530878.493    21530878.275    21530883.723
        47.000          47.000
 107409750.28048  83695917.75746  20439393.588    20439393.231    20439396.169
        49.000          41.000
 106503848.48248  82990004.61147  20266997.675    20266997.531    20267001.621
        50.000          44.000
 129791572.07146 101136303.70243  24698511.570    24698509.962    24698512.356
        37.000          18.000
 116335111.45447  90650740.99247  22137833.509    22137833.202    22137839.640
        44.000          42.000
 20  5  2  1 14  0.0000000  0 10G 7G 3R 1G27R 8G 9G16G 4G22G26
 126332084.45346  98440575.39145  24040194.707    24040195.093    24040198.264
        40.000          34.000
 120036514.33046  93534955.77646  22842187.621    22842187.893    22842193.721
        41.000          39.000
 103074316.093 8  80168934.679 7  19282181.026    19282192.054    19282199.119
        50.000          43.000
 125957021.17446  98148333.38645  23968820.943    23968821.069    23968827.432
        37.000          32.000
 109810167.604 7  85407901.315 7  20506268.171    20506268.727    20506271.046
        47.000          46.000
 113149275.95847  88168284.48948  21531586.720    21531586.500    21531591.980
        47.000          48.000
 107497985.53348  83764672.49846  20456184.152    20456183.751    20456186.855
        49.000          40.000
 106569258.50948  83040973.45547  20279444.931    20279444.781    20279448.758
        50.000          44.000
 129969557.17046 101274993.35642  24732380.668    24732379.755    24732383.341
        37.000          17.000
 116487705.46447  90769645.39547  22166870.683    22166870.753    22166877.215
        43.000          42.000
 20  5  2  1 14 30.0000000  0 10G 7G 3R 1G27R 8G 9G16G 4G22G26
 126328898.38046  98438092.75145  24039588.088    24039588.573    24039591.956
        40.000          33.000
 120208981.62147  93669345.84146  22875007.010    22875007.348    22875013.283
        42.000          39.000
 103142469.386 8  80221942.795 7  19294929.668    19294941.692    19294948.681
        50.000          42.000
 125937151.43546  98132850.49245  23965040.086    23965039.983    23965046.833
        38.000          32.000
 109976805.800 7  85537508.778 7  20537386.113    20537387.730    20537389.570
        47.000          46.000
 113153248.15947  88171379.72048  21532342.328    21532342.335    21532347.888
        47.000          48.000
 107586838.61348  83833908.66746  20473092.207    20473091.963    20473095.035
        49.000          40.000
 106635065.74748  83092251.81147  20291967.426    20291967.526    20291971.586
        49.000          44.000
 130147510.46646 101413658.17542  24766243.781    24766240.946    24766246.050
        36.000          17.000
 116640629.90447  90888807.28247  22195971.477    22195971.276    22195977.824
        43.000          42.000
 20  5  2  1 15  0.0000000  0 10G 7G 3R 1G27R 8G 9G16G 4G22G26
 126325775.83546  98435659.62745  24038993.792    24038994.520    24038997.874
        40.000          34.000
 120381653.93847  93803895.67046  22907865.690    22907866.012    22907871.486
        43.000          39.000
 103211349.392 8  80275516.130 7  19307814.139    19307827.109    19307834.077
        49.000          43.000
 125917425.08546  98117479.32945  23961286.389    23961285.902    23961292.482
        38.000          32.000
 110143952.753 7  85667511.942 7  20568599.552    20568600.883    20568603.214
        47.000          46.000
 113157471.79547  88174670.87247  21533146.213    21533146.152    21533151.684
        46.000          47.000
 107676307.64348  83903624.79346  20490117.869    20490117.224    20490120.352
        48.000          40.000
 106701270.23848  83143839.71547  20304565.766    20304565.876    20304569.846
        50.000          44.000
 130325428.34646 101552295.42242  24800100.412    24800100.026    24800104.667
        36.000          16.000
 116793881.22047  91008223.87847  22225133.908    22225133.863    22225140.501
        42.000          42.000
 20  5  2  1 15 30.0000000  0 10G 7G 3R 1G27R 8G 9G16G 4G22G26
 126322708.37846  98433269.42545  24038410.772    24038410.819    24038413.943
        40.000          34.000
 120554520.00847  93938596.47346  22940760.686    22940761.382    22940767.009
        42.000          39.000
 103280948.859 8  80329649.034 7  19320836.097    19320846.891    19320854.142
        50.000          42.000
 125897837.14446  98102216.03845  23957558.943    23957558.680    23957565.298
        38.000          32.000
 110311597.400 7  85797902.204 7  20599906.500    20599907.393    20599909.727
        47.000          46.000
 113161940.54247  88178153.02648  21533996.690    21533996.731    21534002.054
        47.000          48.000
 107766383.07448  83973813.43846  20507258.822    20507258.123    20507260.953
        48.000          41.000
 106767864.76248  83195731.54347  20317238.360    20317238.271    20317242.274
        49.000          44.000
 130503299.98046 101690896.63142  24833949.321    24833946.892    24833949.508
        36.000          16.000
 116947448.50847  91127886.68546  22254357.213    22254356.931    22254363.459
        43.000          41.000
 20  5  2  1 16  0.0000000  0 10G 7G 3R 1G27R 8G 9G16G 4G22G26
 126319703.53146  98430928.00845  24037839.478    24037838.693    24037842.414
        39.000          34.000
 120727584.71847  94073452.05646  22973694.524    22973694.551    22973700.041
        42.000          39.000
 103351276.821 8  80384348.557 7  19333991.227    19334003.355    19334010.458
        50.000          42.000
 125878398.87346  98087069.33745  23953860.156    23953859.379    23953866.379
        38.000          33.000
 110479745.146 7  85928683.745 7  20631306.182    20631307.842    20631310.160
        47.000          45.000
 113166664.26747  88181833.85648  21534895.522    21534895.734    21534901.011
        47.000          48.000
 107857071.74348  84044479.93346  20524516.168    20524515.566    20524518.526
        48.000          40.000
 106834858.16848  83247934.18747  20329986.682    20329986.684    20329990.774
        50.000          44.000
 130681130.76746 101829466.00542  24867789.264    24867787.110    24867790.809
        36.000          15.000
 117101336.99347  91247799.77546  22283640.998    22283640.543    22283647.494
        42.000          41.000
 20  5  2  1 16 30.0000000  0 10G 7G 3R 1G27R 8G 9G16G 4G22G26
 126316766.64846  98428639.53845  24037279.565    24037279.273    24037283.773
        38.000          33.000
 120900849.58947  94208463.61646  23006665.394    23006665.775    23006671.490
        42.000          39.000
 103422339.247 8  80439619.316 7  19347285.632    19347296.946    19347304.261
        49.000          42.000
 125859118.12046  98072045.39145  23950190.460    23950190.651    23950197.260
        37.000          33.000
 110648397.529 7  86059857.806 7  20662800.839    20662802.161    20662804.686
        47.000          45.000
 113171649.51548  88185718.47248  21535844.702    21535844.317    21535849.639
        48.000          48.000
 107948376.95548  84115626.85046  20541890.749    20541890.304    20541893.345
        48.000          41.000
 106902255.94948  83300451.92747  20342812.226    20342812.036    20342816.061
        50.000          44.000
 130858922.54346 101968005.03042  24901622.115    24901620.973    24901622.809
        36.000          15.000
 117255548.60147  91367964.65146  22312986.858    22312986.280    22312992.782
        42.000          41.000
 20  5  2  1 17  0.0000000  0 10G 7G 3R 1G27R 8G 9G16G 4G22G26
 126313886.10346  98426394.98145  24036731.439    24036730.874    24036735.326
        38.000          33.000
 121074299.85347  94343619.62646  23039671.548    23039672.238    23039678.017
        42.000          39.000
 103494124.800 8  80495452.512 7  19360715.038    19360725.787    19360733.223
        49.000          43.000
 125839986.54846  98057137.69145  23946550.016    23946549.521    23946556.664
        37.000          32.000
 110817539.963 7  86191413.001 7  20694387.821    20694388.779    20694391.044
        47.000          45.000
 113176886.49547  88189799.24148  21536840.867    21536840.722    21536846.097
        46.000          48.000
 108040285.77548  84187244.11046  20559380.550    20559380.167    20559383.040
        48.000          40.000
 106970047.35548  83353276.39247  20355712.311    20355712.168    20355716.435
        49.000          43.000
 131036660.74346 102106502.26142  24935444.696    24935442.656    24935447.602
        37.000          15.000
 117410068.88747  91488370.03946  22342390.530    22342390.201    22342397.375
        42.000          40.000
 20  5  2  1 17 30.0000000  0 10G 7G 3R 1G27R 8G 9G16G 4G22G26
 126311067.57046  98424198.73745  24036194.878    24036194.019    24036199.324
        38.000          33.000
 121247938.15147  94478922.17546  23072714.574    23072714.619    23072720.338
        42.000          39.000
 103566640.276 8  80551853.430 7  19374280.427    19374291.508    19374298.767
        49.000          42.000
 125821013.18846  98042353.25545  23942939.389    23942939.145    23942946.308
        38.000          32.000
 110987175.656 7  86323351.851 7  20726066.058    20726066.873    20726069.381
        46.000          46.000
 113182382.85847  88194082.12648  21537886.670    21537886.740    21537892.056
        47.000          48.000
 108132802.30148  84259334.90946  20576985.592    20576985.342    20576988.409
        48.000          41.000
 107038238.98748  83406412.72447  20368688.763    20368688.730    20368692.817
        50.000          44.000
 131214348.63946 102244960.26942  24969257.381    24969255.936    24969257.751
        36.000          15.000
 117564900.91147  91609018.35946  22371854.499    22371854.133    22371860.574
        42.000          41.000
 20  5  2  1 18  0.0000000  0 10G 7G 3R 1G27R 8G 9G16G 4G22G26
 124732896.27946  97194454.90045  23735879.031    23735878.098    23735883.204
        38.000          33.000
 119846352.89146  93386777.77946  22806001.613    22806001.824    22806007.669
        41.000          39.000
 102037332.362 8  79362391.717 7  19088191.182    19088202.707    19088209.931
        49.000          43.000
 124226786.37446  96800098.61045  23639568.230    23639568.304    23639574.676
        38.000          33.000
 109551938.332 7  85207056.125 7  20458045.785    20458046.721    20458048.934
        47.000          45.000
 111612726.41447  86970973.22148  21239191.014    21239191.085    21239196.217
        47.000          48.000
 106650514.27148  83104305.27346  20294915.696    20294915.430    20294918.295
        49.000          40.000
 105531419.71948  82232267.82947  20081950.613    20081950.521    20081954.648
        50.000          44.000
 129816575.16446 101155786.11542  24703268.657    24703269.175    24703271.348
        36.000          15.000
 116144632.83047  90502315.93846  22101586.291    22101586.144    22101592.821
        42.000          41.000
 20  5  2  1 18 30.0000000  0 10G 7G 3R 1G27R 8G 9G16G 4G22G26
 124730208.95446  97192360.90545  23735367.410    23735366.895    23735371.579
        39.000          34.000
 120020365.27746  93522371.81546  22839115.175    22839115.263    22839121.069
        41.000          39.000
 102111317.934 8  79419936.039 7  19102031.970    19102043.190    19102050.538
        49.000          42.000
 124208146.51946  96785574.07845  23636020.498    23636021.479    23636027.438
        38.000          33.000
 109722559.294 7  85339761.287 7  20489907.732    20489908.994    20489911.331
        47.000          45.000
 111618754.55747  86975670.48248  21240337.978    21240338.078    21240343.221
        47.000          48.000
 106744249.87048  83177346.00046  20312752.820    20312752.548    20312755.649
        48.000          40.000
 105600421.68948  82286035.59147  20095081.111    20095081.139    20095085.245
        50.000          44.000
 129994161.91546 101294165.29942  24737063.360    24737063.086    24737066.099
        36.000          15.000
 116300087.39547  90623449.35046  22131168.377    22131168.249    22131174.634
        43.000          40.000
 20  5  2  1 19  0.0000000  0 10G 7G 3R 1G27R 8G 9G16G 4G22G26
 124727597.19546  97190325.77645  23734870.792    23734870.203    23734874.877
        39.000          34.000
 120194569.96446  93658115.68546  22872264.896    22872265.443    22872271.405
        41.000          39.000
 102186049.567 8  79478060.625 7  19116011.913    19116023.292    19116030.601
        49.000          42.000
 124189688.16346  96771190.98445  23632508.924    23632508.859    23632515.270
        37.000          33.000
 109893678.302 7  85472853.827 7  20521862.911    20521863.889    20521866.445
        46.000          45.000
 111625061.33747  86980584.85748  21241538.193    21241538.209    21241543.313
        47.000          48.000
 106838602.73448  83250867.71246  20330707.861    20330707.294    20330710.596
        48.000          40.000
 105669839.97148  82340127.74747  20108291.054    20108291.124    20108295.213
        50.000          44.000
 130171704.15846 101432509.92842  24770848.404    24770845.765    24770850.592
        36.000          15.000
 116455859.00147  90744829.81446  22160810.734    22160810.620    22160817.315
        43.000          40.000
 20  5  2  1 19 30.0000000  0  9G 7G 3R 1G27R 8G 9G16G 4G26
 124725042.01746  97188334.74345  23734384.726    23734384.203    23734388.685
        39.000          34.000
 120368945.20846  93793992.47246  22905447.437    22905447.973    22905454.047
        41.000          39.000
 102261509.209 8  79536751.443 7  19130129.171    19130139.530    19130147.173
        49.000          43.000
 124171396.09946  96756937.42945  23629027.206    23629027.905    23629034.085
        38.000          33.000
 110065274.114 7  85606317.222 7  20553907.209    20553908.359    20553910.654
        46.000          45.000
 111631630.03047  86985703.32948  21242788.235    21242788.164    21242793.339
        47.000          48.000
 106933552.84948  83324854.80946  20348776.146    20348775.725    20348778.628
        49.000          40.000
 105739656.79348  82394530.45947  20121576.926    20121576.791    20121580.907
        50.000          44.000
 116611926.33747  90866440.71546  22190509.674    22190509.240    22190515.781
        42.000          41.000
 20  5  2  1 20  0.0000000  0  9G 7G 3R 1G27R 8G 9G16G 4G26
 124722553.71646  97186395.84545  23733911.171    23733910.965    23733915.016
        39.000          34.000
 120543497.87246  93930007.49446  22938663.550    22938664.249    22938670.348
        41.000          39.000
 102337707.537 8  79596016.798 7  19144382.567    19144394.132    19144401.721
        49.000          43.000
 124153283.41846  96742823.71445  23625581.173    23625581.028    23625587.574
        38.000          33.000
 110237353.472 7  85740156.688 7  20586042.282    20586042.891    20586045.800
        46.000          45.000
 111638472.51347  86991035.13748  21244090.201    21244090.352    21244095.447
        47.000          48.000
 107029108.64748  83399313.87146  20366959.795    20366959.400    20366962.364
        48.000          40.000
 105809882.93348  82449252.11947  20134940.423    20134940.479    20134944.534
        50.000          44.000
 116768296.57647  90988287.63546  22220265.537    22220265.589    22220272.361
        42.000          41.000
 20  5  2  1 20 30.0000000  0  9G 7G 3R 1G27R 8G 9G16G 4G26
 124720129.57946  97184506.90745  23733450.125    23733449.426    23733453.727
        39.000          34.000
 120718221.45546  94066155.70346  22971912.302    22971912.926    22971919.230
        41.000          38.000
 102414641.592 8  79655854.388 7  19158774.821    19158786.264    19158793.796
        50.000          43.000
 124135350.08946  96728849.70345  23622168.115    23622168.467    23622175.289
        38.000          34.000
 110409910.339 7  85874367.557 7  20618265.897    20618266.596    20618269.201
        46.000          45.000
 111645587.30347  86996579.13148  21245444.300    21245444.304    21245449.417
        47.000          49.000
 107125265.27448  83474241.11046  20385257.752    20385257.278    20385260.423
        48.000          40.000
 105880515.84348  82504290.74247  20148381.620    20148381.432    20148385.564
        50.000          44.000
 116924963.63047  91110365.84446  22250078.773    22250078.472    22250084.929
        42.000          41.000
 20  5  2  1 21  0.0000000  0  9G 7G 3R 1G27R 8G 9G16G 4G26
 124717774.34146  97182671.69545  23733001.344    23733001.129    23733005.598
        39.000          35.000
 120893118.34146  94202438.96246  23005194.626    23005194.826    23005201.151
        41.000          38.000
 102492317.954 8  79716269.316 7  19173306.266    19173317.604    19173324.675
        50.000          42.000
 124117604.77446  96715022.22645  23618791.680    23618791.719    23618798.021
        38.000          34.000
 110582946.957 7  86008951.570 7  20650578.962    20650579.984    20650582.649
        46.000          45.000
 111652981.80047  87002341.07848  21246851.399    21246851.410    21246856.642
        47.000          49.000
 107222026.38248  83549639.38046  20403671.161    20403670.457    20403673.391
        48.000          40.000
 105951561.74548  82559651.18047  20161901.246    20161901.011    20161905.147
        50.000          44.000
 117081930.19047  91232677.43346  22279948.105    22279947.869    22279954.908
        42.000          41.000
 20  5  2  1 21 30.0000000  0  9G 7G 3R 1G27R 8G 9G16G 4G26
 124715476.08646  97180880.86045  23732564.313    23732563.731    23732568.100
        40.000          35.000
 121068173.22746  94338845.33246  23038506.183    23038506.919    23038512.796
        40.000          38.000
 102570724.566 8  79777252.234 7  19187972.767    19187984.948    19187992.212
        49.000          42.000
 124100038.67846  96701334.38345  23615448.966    23615448.734    23615455.416
        38.000          34.000
 110756448.072 7  86143896.845 7  20682979.320    20682980.306    20682982.815
        46.000          45.000
 111660645.68547  87008312.93448  21248309.810    21248309.712    21248315.068
        46.000          49.000
 107319378.72048  83625498.33746  20422196.293    20422196.018    20422198.957
        48.000          40.000
 106023009.25648  82615324.55747  20175497.126    20175497.057    20175501.045
        50.000          44.000
 117239181.33247  91355210.76646  22309872.481    22309872.208    22309878.985
        42.000          41.000
 20  5  2  1 22  0.0000000  0  9G 7G 3R 1G27R 8G 9G16G 4G26
 124713235.78646  97179135.19145  23732137.757    23732137.379    23732141.768
        40.000          35.000
 121243383.99746  94475373.16446  23071847.604    23071848.533    23071854.369
        41.000          38.000
 102649863.137 8  79838804.433 7  19202777.755    19202789.781    19202796.807
        49.000          43.000
 124082656.05246  96687789.49645  23612141.989    23612140.651    23612147.450
        38.000          34.000
 110930411.557 7  86279201.739 7  20715465.819    20715466.869    20715469.185
        46.000          44.000
 111668581.91047  87014497.00748  21249819.846    21249819.852    21249825.304
        47.000          49.000
 107417321.39848  83701817.30346  20440834.328    20440833.829    20440836.853
        48.000          40.000
 106094860.14748  82671312.26247  20189169.788    20189169.957    20189173.765
        50.000          44.000
 117396715.33247  91477964.52946  22339850.058    22339849.710    22339856.308
        42.000          40.000
 20  5  2  1 22 30.0000000  0  9G 7G 3R 1G27R 8G 9G16G 4G26
 124711080.78546  97177455.98545  23731727.511    23731727.272    23731731.943
        40.000          35.000
 121418775.14246  94612041.56746  23105224.121    23105224.484    23105230.034
        41.000          38.000
 102729762.014 8  79900947.998 7  19217724.597    19217736.229    19217743.658
        49.000          42.000
 124065487.76246  96674411.63345  23608873.132    23608873.283    23608880.615
        38.000          34.000
 111104862.682 7  86414885.913 7  20748043.575    20748044.249    20748046.655
        46.000          44.000
 111676819.99747  87020916.29748  21251387.212    21251387.397    21251393.035
        47.000          48.000
 107515880.54148  83778616.63446  20459589.487    20459588.998    20459592.030
        48.000          40.000
 106167142.83948  82727636.42947  20202924.854    20202924.872    20202928.856
        49.000          44.000
 117554557.10747  91600958.09746  22369885.660    22369886.082    22369892.678
        42.000          40.000
 20  5  2  1 23  0.0000000  0  9G 7G 3R 1G27R 8G 9G16G 4G26
 124709002.65046  97175836.67245  23731331.833    23731331.561    23731336.383
        39.000          35.000
 121594335.03546  94748841.44246  23138631.702    23138632.426    23138638.069
        41.000          38.000
 102810413.011 8  79963676.537 7  19232812.052    19232823.751    19232830.847
        50.000          42.000
 124048528.51246  96661196.64945  23605647.150    23605646.813    23605653.371
        39.000          35.000
 111279789.769 7  86550940.280 7  20780709.437    20780710.983    20780713.249
        46.000          45.000
 111685353.26047  87027565.59248  21253011.205    21253011.181    21253016.812
        46.000          48.000
 107615045.83548  83855888.29446  20478460.096    20478459.691    20478462.613
        48.000          40.000
 106239849.48348  82784290.95247  20216760.406    20216760.578    20216764.496
        50.000          44.000
 117712695.22547  91724182.59046  22399978.625    22399978.832    22399985.677
        42.000          40.000
 20  5  2  1 23 30.0000000  0  9G 7G 3R 1G27R 8G 9G16G 4G26
 124706990.50946  97174268.78945  23730949.106    23730948.848    23730953.226
        40.000          35.000
 121770049.27446  94885761.60346  23172069.399    23172069.481    23172075.594
        41.000          37.000
 102891805.108 8  80026981.480 7  19248037.782    19248049.769    19248056.967
        49.000          42.000
 124031770.35546  96648138.33645  23602457.988    23602457.385    23602464.320
        38.000          34.000
 111455178.120 7  86687353.417 7  20813462.449    20813463.497    20813465.907
        46.000          45.000
 111694172.37147  87034437.63148  21254689.590    21254689.511    21254695.031
        47.000          48.000
 107714804.42648  83933622.26146  20497443.369    20497443.123    20497446.069
        49.000          40.000
 106312969.60248  82841267.65847  20230674.940    20230674.921    20230678.857
        50.000          44.000
 117871115.79447  91847627.17146  22430125.336    22430125.483    22430131.893
        42.000          40.000
 20  5  2  1 24  0.0000000  0  9G 7G 3R 1G27R 8G 9G16G 4G26
 124705058.92846  97172763.66645  23730580.960    23730581.364    23730585.658
        40.000          35.000
 121945929.34846  95022810.97746  23205537.408    23205538.399    23205544.326
        41.000          37.000
 102973953.416 8  80090874.600 7  19263405.571    19263417.372    19263424.662
        49.000          42.000
 124015231.10646  96635250.62845  23599310.184    23599310.551    23599316.524
        38.000          34.000
 111631039.386 7  86824134.364 7  20846303.113    20846304.168    20846306.728
        46.000          45.000
 111703293.84647  87041545.26848  21256425.373    21256425.341    21256430.783
        46.000          49.000
 107815169.24548  84011828.60446  20516542.259    20516541.872    20516545.055
        48.000          40.000
 106386518.49448  82898578.47847  20244670.737    20244670.659    20244674.757
        50.000          44.000
 118029830.60047  91971301.02146  22460327.649    22460327.546    22460334.193
        42.000          40.000
 20  5  2  1 24 30.0000000  0  9G 7G 3R 1G27R 8G 9G16G 4G26
 124703200.69146  97171315.70946  23730228.398    23730227.954    23730231.691
        41.000          36.000
 122121965.05746  95159981.62046  23239036.068    23239036.973    23239042.946
        41.000          37.000
 103056851.282 8  80155350.692 7  19278913.970    19278925.143    19278932.369
        49.000          42.000
 123998906.99246  96622530.56145  23596204.492    23596203.989    23596210.360
        39.000          34.000
 111807363.708 7  86961275.478 7  20879230.691    20879231.400    20879234.326
        46.000          44.000
 111712712.49448  87048884.48148  21258217.755    21258217.660    21258223.029
        48.000          49.000
 107916131.38048  84090500.39946  20535754.777    20535754.331    20535757.283
        49.000          40.000
 106460489.80448  82956218.44847  20258746.860    20258746.899    20258751.032
        49.000          44.000
 118188829.89347  92095196.55946  22490583.973    22490584.156    22490591.029
        42.000          40.000
 20  5  2  1 25  0.0000000  0  9G 7G 3R 1G27R 8G 9G16G 4G26
 124701418.80446  97169927.24145  23729888.632    23729889.023    23729892.303
        40.000          35.000
 122298155.98146  95297273.22346  23272564.293    23272564.871    23272571.051
        41.000          37.000
 103140501.563 8  80220412.010 7  19294562.207    19294573.506    19294580.870
        50.000          42.000
 123982804.02946  96609982.79645  23593139.917    23593139.855    23593146.305
        39.000          34.000
 111984150.339 7  87098776.155 7  20912244.613    20912244.972    20912247.806
        46.000          45.000
 111722433.08148  87056458.96648  21260067.462    21260067.474    21260072.640
        48.000          49.000
 108017692.09248  84169638.61646  20555080.991    20555080.421    20555083.521
        49.000          40.000
 106534887.10248  83014190.36247  20272904.374    20272904.193    20272908.316
        49.000          44.000
 118348113.67947  92219313.76846  22520895.430    22520894.857    22520901.631
        42.000          40.000
 20  5  2  1 25 30.0000000  0  9G 7G 3R 1G27R 8G 9G16G 4G26
 124699711.79147  97168597.11846  23729564.456    23729564.243    23729567.552
        42.000          36.000
 122474497.99346  95434682.55446  23306121.453    23306121.474    23306127.744
        41.000          37.000
 103224903.379 8  80286057.859 7  19310351.978    19310362.724    19310370.010
        49.000          42.000
 123966924.27346  96597608.97145  23590117.629    23590117.710    23590124.235
        39.000          34.000
 112161395.078 7  87236633.148 7  20945343.694    20945344.090    20945347.300
        46.000          44.000
 111732456.17048  87064269.16648  21261974.763    21261974.806    21261979.992
        48.000          50.000
 108119848.55348  84249241.05046  20574520.886    20574520.451    20574523.344
        49.000          40.000
 106609709.74848  83072493.71847  20287142.477    20287142.470    20287146.511
        50.000          44.000
 118507677.90947  92343649.52246  22551259.216    22551258.873    22551265.904
        42.000          40.000
 20  5  2  1 26  0.0000000  0  9G 7G 3R 1G27R 8G 9G16G 4G26
 124698074.06546  97167321.01746  23729252.223    23729252.580    23729256.253
        41.000          36.000
 122650982.31446  95572202.77346  23339704.958    23339705.364    23339711.560
        41.000          37.000
 103310051.458 8  80352284.117 7  19326280.574    19326291.674    19326298.779
        50.000          42.000
 123951265.48146  96585407.32045  23587138.237    23587138.319    23587144.571
        39.000          35.000
 112339089.450 7  87374839.844 7  20978526.266    20978527.699    20978530.230
        46.000          44.000
 111742778.21848  87072312.32148  21263939.349    21263939.040    21263944.242
        48.000          49.000
 108222593.06548  84329301.70646  20594072.645    20594072.147    20594074.859
        49.000          40.000
 106684952.88048  83131124.72547  20301460.675    20301460.808    20301464.935
        50.000          44.000
 118667514.40646  92468197.40946  22581674.783    22581674.318    22581681.554
        41.000          39.000
 20  5  2  1 26 30.0000000  0  9G 7G 3R 1G27R 8G 9G16G 4G26
 124696517.36946  97166108.02346  23728955.758    23728956.228    23728960.217
        40.000          36.000
 122827617.02846  95709840.17646  23373317.677    23373317.740    23373324.096
        40.000          37.000
 103395957.265 8  80419099.731 7  19342350.009    19342362.020    19342369.272
        49.000          42.000
 123935842.04146  96573389.07345  23584203.107    23584203.315    23584209.459
        39.000          35.000
 112517241.146 7  87513402.259 7  21011794.295    21011796.101    21011798.734
        45.000          44.000
 111753412.27048  87080598.59548  21265962.699    21265962.606    21265967.820
        48.000          49.000
 108325935.06048  84409827.93046  20613737.936    20613737.570    20613740.339
        49.000          40.000
 106760628.41848  83190092.67147  20315861.306    20315861.426    20315865.448
        50.000          44.000
 118827631.52246  92592963.96546  22612143.863    22612144.129    22612150.663
        41.000          38.000
 20  5  2  1 27  0.0000000  0  9G 7G 3R 1G27R 8G 9G16G 4G26
 124695039.26146  97164956.27746  23728675.109    23728674.702    23728678.834
        40.000          36.000
 123004396.85546  95847590.66546  23406957.864    23406957.988    23406964.438
        40.000          37.000
 103482618.548 8  80486502.939 7  19358561.353    19358573.908    19358580.967
        49.000          42.000
 123920655.09646  96561555.12945  23581313.644    23581313.361    23581319.368
        40.000          35.000
 112695844.956 7  87652316.304 7  21045147.676    21045149.845    21045152.064
        45.000          44.000
 111764358.13548  87089127.84248  21268045.576    21268045.619    21268050.775
        48.000          49.000
 108429870.76148  84490816.77546  20633516.337    20633515.796    20633518.587
        48.000          40.000
 106836734.89148  83249396.40547  20330344.030    20330344.057    20330347.906
        50.000          44.000
 118988024.44746  92717945.44446  22642666.287    22642666.016    22642672.719
        41.000          39.000
 20  5  2  1 27 30.0000000  0  9G 7G 3R 1G27R 8G 9G16G 4G26
 124693636.76946  97163863.43945  23728408.102    23728407.592    23728411.704
        40.000          35.000
 123181316.07046  95985449.76046  23440624.338    23440624.733    23440631.007
        40.000          37.000
 103570032.895 8  80554491.854 7  19374914.903    19374926.469    19374933.904
        50.000          43.000
 123905705.28046  96549905.94545  23578468.177    23578468.617    23578474.062
        39.000          35.000
 112874895.175 7  87791577.549 7  21078585.202    21078586.035    21078588.078
        46.000          44.000
 111775615.04647  87097899.45948  21270187.582    21270187.737    21270192.867
        47.000          49.000
 108534395.61548  84572264.71146  20653406.610    20653406.105    20653409.101
        48.000          40.000
 106913270.24648  83309034.33947  20344908.046    20344908.176    20344912.240
        51.000          44.000
 119148687.72546  92843137.59446  22673239.851    22673239.168    22673246.129
        41.000          39.000
 20  5  2  1 28  0.0000000  0  9G 7G 3R 1G27R 8G 9G16G 4G26
 124692313.10246  97162832.01645  23728155.858    23728155.581    23728159.850
        39.000          35.000
 123358374.38946  96123417.24846  23474317.540    23474317.893    23474324.047
        40.000          36.000
 103658203.339 8  80623068.847 7  19391409.816    19391420.358    19391427.989
        50.000          42.000
 123890998.68246  96538446.30345  23575670.072    23575669.592    23575676.052
        38.000          35.000
 113054391.677 7  87931185.910 7  21112103.976    21112105.652    21112107.695
        45.000          43.000
 111787187.74948  87106917.15548  21272390.110    21272389.972    21272394.990
        48.000          50.000
 108639510.57248  84654172.46346  20673409.289    20673408.819    20673411.790
        49.000          40.000
 106990238.00748  83369009.21247  20359554.555    20359554.583    20359558.660
        50.000          44.000
 119309621.52247  92968540.52946  22703863.983    22703864.011    22703870.473
        42.000          39.000
 20  5  2  1 28 30.0000000  0  9G 7G 3R 1G27R 8G 9G16G 4G26
 124691066.21246  97161860.43245  23727918.473    23727918.141    23727922.822
        40.000          35.000
 123535566.42546  96261488.92246  23508036.274    23508036.376    23508042.646
        40.000          36.000
 103747127.171 8  80692231.810 7  19408044.515    19408055.572    19408062.975
        49.000          42.000
 123876536.26246  96527176.90745  23572916.679    23572917.141    23572924.321
        38.000          35.000
 113234328.924 7  88071137.063 7  21145706.171    21145707.121    21145709.930
        45.000          44.000
 111799075.89248  87116180.63648  21274652.208    21274652.204    21274657.291
        49.000          50.000
 108745211.50548  84736536.82646  20693523.339    20693522.904    20693525.900
        48.000          40.000
 107067636.52648  83429319.73747  20374282.897    20374282.959    20374287.126
        50.000          44.000
 119470820.76447  93094150.30246  22734539.542    22734539.211    22734546.043
        42.000          39.000
 20  5  2  1 29  0.0000000  0  9G 7G 3R 1G27R 8G 9G16G 4G26
 123114470.97846  95933344.68045  23427902.545    23427902.301    23427906.480
        40.000          35.000
 122137470.30246  95172063.34246  23241987.394    23241987.628    23241993.506
        40.000          36.000
 102234240.556 8  79515542.204 7  19125027.550    19125038.805    19125046.257
        49.000          43.000
 122286896.10146  95288496.29945  23270418.228    23270418.069    23270425.958
        38.000          35.000
 111809329.453 7  86962804.115 7  20879598.364    20879599.012    20879601.508
        45.000          44.000
 110235857.06048  85898088.04048  20977181.562    20977181.557    20977186.709
        48.000          50.000
 107276075.30348  83591755.36146  20413956.257    20413955.757    20413958.540
        48.000          40.000
 105570044.29648  82262364.74847  20089300.643    20089300.671    20089304.807
        50.000          44.000
 118056863.46146  91992365.35846  22465471.799    22465471.711    22465478.847
        41.000          38.000
 20  5  2  1 29 30.0000000  0  9G 7G 3R 1G27R 8G 9G16G 4G26
 123113377.62246  95932492.73546  23427694.829    23427694.452    23427698.377
        39.000          36.000
 122314921.80746  95310337.20946  23275754.851    23275755.703    23275761.388
        40.000          36.000
 102324673.022 8  79585878.559 7  19141944.919    19141956.270    19141963.567
        49.000          43.000
 122272933.19946  95277616.13145  23267761.802    23267761.251    23267768.539
        38.000          35.000
 111990139.485 7  87103434.101 7  20913362.622    20913363.970    20913366.673
        45.000          43.000
 110248383.12848  85907848.61148  20979565.343    20979565.232    20979570.317
        49.000          50.000
 107382943.64548  83675029.38246  20434292.529    20434292.020    20434294.880
        49.000          39.000
 105648307.47848  82323349.03947  20104193.607    20104193.696    20104197.824
        49.000          44.000
 118218586.85046  92118383.55746  22496247.451    22496247.034    22496253.570
        41.000          38.000
 20  5  2  1 30  0.0000000  0  9G 7G 3R 1G27R 8G 9G16G 4G26
 123112374.02946  95931710.73846  23427504.089    23427503.628    23427507.670
        40.000          36.000
 122492510.44546  95448717.93646  23309549.471    23309549.897    23309555.355
        40.000          36.000
 102415872.175 8  79656811.213 7  19159005.488    19159016.945    19159024.323
        49.000          42.000
 122259236.91446  95266943.71945  23265155.463    23265155.005    23265161.969
        38.000          35.000
 112171393.160 7  87244409.154 7  20947211.517    20947212.032    20947214.355
        45.000          43.000
 110261243.08047  85917869.35048  20982012.442    20982012.408    20982017.499
        47.000          50.000
 107490404.97447  83758765.46846  20454741.794    20454741.204    20454744.202
        47.000          39.000
 105727015.96148  82384680.31347  20119171.479    20119171.516    20119175.624
        49.000          44.000
 118380580.24446  92244612.14446  22527073.396    22527073.207    22527079.731
        41.000          38.000
 20  5  2  1 30 30.0000000  0  9G 7G 3R 1G27R 8G 9G16G 4G26
 123111458.39546  95930997.26346  23427329.631    23427329.439    23427333.176
        40.000          37.000
 122670231.46446  95587201.81745  23343368.556    23343369.134    23343374.722
        40.000          35.000
 102507835.933 8  79728338.575 7  19176209.570    19176220.841    19176228.053
        49.000          43.000
 122245808.90046  95256480.35145  23262600.762    23262600.714    23262606.776
        39.000          35.000
 112353085.439 7  87385725.340 7  20981140.424    20981141.692    20981143.889
        45.000          44.000
 110274437.18748  85928150.46548  20984523.003    20984523.081    20984528.206
        49.000          50.000
 107598455.51648  83842960.69046  20475303.160    20475302.568    20475305.540
        48.000          39.000
 105806168.69048  82446357.75747  20134233.969    20134233.875    20134237.953
        50.000          44.000
 118542839.26846  92371047.72746  22557950.278    22557950.273    22557956.445
        41.000          38.000
 20  5  2  1 31  0.0000000  0  9G 7G 3R 1G27R 8G 9G16G 4G26
 123110628.70146  95930350.78046  23427171.128    23427171.724    23427175.553
        41.000          36.000
 122848079.90146  95725784.98745  23377212.103    23377212.807    23377218.162
        40.000          35.000
 102600562.192 8  79800458.984 7  19193555.746    19193567.077    19193574.380
        49.000          43.000
 122232650.61246  95246227.15246  23260096.677    23260096.380    23260102.564
        39.000          36.000
 112535211.360 7  87527378.808 7  21015150.322    21015152.641    21015154.565
        45.000          43.000
 110287965.48748  85938691.99748  20987097.470    20987097.318    20987102.512
        48.000          49.000
 107707091.65248  83927612.21746  20495976.140    20495975.387    20495978.296
        48.000          40.000
 105885764.31948  82508380.30947  20149380.223    20149380.372    20149384.468
        50.000          44.000
 118705359.33046  92497686.72146  22588877.097    22588876.926    22588883.382
        41.000          38.000
 20  5  2  1 31 30.0000000  0  9G 7G 3R 1G27R 8G 9G16G 4G26
 123109885.20646  95929771.44846  23427030.444    23427030.276    23427033.930
        40.000          37.000
 123026053.18446  95864465.42245  23411079.002    23411079.752    23411085.593
        40.000          35.000
 102694051.356 8  79873172.760 7  19211044.943    19211056.229    19211063.495
        49.000          42.000
 122219765.64446  95236186.94846  23257644.829    23257644.462    23257650.831
        39.000          36.000
 112717768.256 7  87669367.462 7  21049242.449    21049243.455    21049245.817
        45.000          43.000
 110301830.36948  85949495.80148  20989735.864    20989735.540    20989740.897
        48.000          50.000
 107816311.72948  84012718.75646  20516759.629    20516759.378    20516762.297
        48.000          40.000
 105965803.95648  82570748.84347  20164611.312    20164611.420    20164615.501
        50.000          44.000
 118868138.24646  92624527.39546  22619852.386    22619852.529    22619859.276
        41.000          38.000
 20  5  2  1 32  0.0000000  0  9G 7G 3R 1G27R 8G 9G16G 4G26
 123109221.86846  95929254.57546  23426903.460    23426903.952    23426907.701
        41.000          37.000
 123204141.96346  96003235.87546  23444968.274    23444969.172    23444974.846
        40.000          36.000
 102788296.699 8  79946474.688 7  19228675.421    19228686.694    19228693.883
        49.000          42.000
 122207151.11246  95226357.47146  23255243.908    23255243.481    23255249.811
        38.000          36.000
 112900746.347 7  87811683.725 7  21083412.429    21083413.739    21083415.852
        45.000          43.000
 110316027.56248  85960558.54548  20992437.306    20992437.043    20992442.569
        48.000          50.000
 107926107.70248  84098274.05146  20537653.604    20537652.943    20537655.923
        48.000          40.000
 106046281.89848  82633458.91747  20179925.858    20179925.845    20179929.850
        50.000          44.000
 119031167.01847  92751562.76646  22650876.210    22650876.070    22650882.572
        42.000          39.000
 20  5  2  1 32 30.0000000  0  9G 7G 3R 1G27R 8G 9G16G 4G26
 123108646.72646  95928806.43646  23426795.099    23426794.381    23426798.313
        41.000          37.000
 123382350.97646  96142100.00846  23478880.293    23478880.778    23478887.078
        39.000          36.000
 102883306.059 8  80020370.844 7  19246448.888    19246460.057    19246467.606
        49.000          42.000
 122194818.11746  95216747.36446  23252897.224    23252897.147    23252903.308
        39.000          36.000
 113084150.440 7  87954331.319 7  21117661.425    21117663.127    21117665.382
        45.000          43.000
 110330566.75747  85971887.78648  20995203.767    20995203.883    20995209.328
        47.000          49.000
 108036484.87048  84184282.22946  20558657.320    20558656.775    20558659.880
        48.000          39.000
 106127206.54348  82696517.07147  20195325.134    20195325.190    20195329.399
        50.000          44.000
 119194450.82946  92878796.87846  22681948.187    22681948.063    22681954.678
        41.000          39.000
 20  5  2  1 33  0.0000000  0  9G 7G 3R 1G27R 8G 9G16G 4G26
 123108157.80746  95928425.47846  23426701.994    23426701.444    23426705.349
        41.000          37.000
 123560675.48946  96281054.13645  23512814.494    23512814.864    23512820.952
        40.000          35.000
 102979077.377 8  80094859.636 7  19264364.542    19264376.335    19264383.582
        49.000          42.000
 122182768.16346  95207357.79646  23250604.439    23250604.369    23250609.887
        39.000          36.000
 113267975.340 7  88097306.195 7  21151989.565    21151991.251    21151993.550
        45.000          43.000
 110345448.21048  85983483.72248  20998035.903    20998035.878    20998041.206
        48.000          50.000
 108147439.58248  84270740.44146  20579771.410    20579770.820    20579773.768
        48.000          39.000
 106208576.72748  82759922.39247  20210809.459    20210809.462    20210813.698
        49.000          44.000
 119357985.26846  93006226.27546  22713067.766    22713067.693    22713074.334
        41.000          38.000
 20  5  2  1 33 30.0000000  0  9G 7G 3R 1G27R 8G 9G16G 4G26
 123107753.95646  95928110.80746  23426624.490    23426624.957    23426628.161
        41.000          37.000
 123739110.77046  96420094.56345  23546768.742    23546769.397    23546776.514
        39.000          35.000
 103075608.457 8  80169939.358 7  19282422.678    19282434.333    19282441.794
        49.000          43.000
 122171002.84546  95198190.04745  23248364.467    23248364.972    23248371.213
        39.000          35.000
 113452215.974 7  88240604.442 7  21186395.584    21186396.851    21186399.495
        45.000          43.000
 110360672.18248  85995346.55548  21000933.198    21000933.026    21000938.239
        49.000          50.000
 108258968.43548  84357646.03546  20600994.701    20600994.073    20600997.123
        49.000          39.000
 106290391.38448  82823674.05747  20226378.207    20226378.332    20226382.546
        50.000          44.000
 119521765.98247  93133847.58946  22744234.007    22744234.004    22744240.708
        42.000          38.000
 20  5  2  1 34  0.0000000  0  9G 7G 3R 1G27R 8G 9G16G 4G26
 123107425.77646  95927855.10046  23426562.159    23426562.149    23426566.097
        41.000          38.000
 123917644.70546  96559211.87845  23580743.199    23580743.377    23580750.445
        38.000          35.000
 103172889.888 8  80245602.681 7  19300621.848    19300632.797    19300640.097
        49.000          42.000
 122159516.41346  95189239.60045  23246178.642    23246178.918    23246185.643
        38.000          35.000
 113636860.053 7  88384216.467 7  21220876.983    21220877.231    21220880.655
        45.000          44.000
 110376231.57048  86007470.75348  21003894.047    21003893.961    21003899.209
        49.000          50.000
 108371060.32748  84444990.36646  20622325.073    20622324.737    20622327.564
        48.000          39.000
 106372641.91348  82887765.36447  20242030.153    20242030.059    20242034.262
        50.000          44.000
 119685781.31946  93261651.70846  22775444.837    22775445.032    22775451.823
        40.000          38.000
 20  5  2  1 34 30.0000000  0  9G 7G 3R 1G27R 8G 9G16G 4G26
 123107192.29346  95927673.18146  23426517.819    23426517.657    23426521.240
        40.000          37.000
 124096292.57046  96698417.95145  23614738.446    23614739.063    23614745.758
        39.000          35.000
 103270939.871 8  80321863.765 7  19318963.734    19318975.490    19318982.321
        49.000          42.000
 122148330.39646  95180523.24846  23244050.723    23244050.408    23244057.370
        38.000          36.000
 113821922.600 7  88528153.962 7  21255435.485    21255436.733    21255439.663
        45.000          44.000
 110392146.60648  86019872.07848  21006922.537    21006922.572    21006927.754
        48.000          51.000
 108483731.11048  84532785.77346  20643765.431    20643764.991    20643767.866
        48.000          39.000
 106455347.18448  82952211.02047  20257768.288    20257768.423    20257772.514
        50.000          44.000
 119850046.86646  93389650.80346  22806703.511    22806703.744    22806710.568
        41.000          38.000
 20  5  2  1 35  0.0000000  0  9G 7G 3R 1G27R 8G 9G16G 4G26
 123107043.24947  95927557.07046  23426489.592    23426489.054    23426493.024
        42.000          37.000
 124275041.49046  96837702.77245  23648753.364    23648753.751    23648760.749
        38.000          34.000
 103369748.117 8  80398714.603 7  19337448.420    19337459.220    19337466.625
        50.000          43.000
 122137438.26346  95172035.88545  23241978.186    23241978.338    23241984.601
        38.000          35.000
 114007390.489 7  88672406.739 7  21290070.112    21290071.373    21290074.585
        45.000          43.000
 110408409.39148  86032544.37648  21010017.108    21010017.240    21010022.420
        49.000          51.000
 108596968.99448  84621023.07346  20665313.706    20665313.278    20665316.441
        48.000          39.000
 106538497.86348  83017003.73847  20273591.404    20273591.570    20273595.580
        49.000          44.000
 120014550.05646  93517835.10246  22838007.864    22838007.786    22838014.518
        40.000          38.000
 20  5  2  1 35 30.0000000  0  9G 7G 3R 1G27R 8G 9G16G 4G26
 123106977.68647  95927505.99346  23426476.482    23426476.378    23426480.510
        42.000          37.000
 124453887.63646  96977063.35645  23682787.302    23682787.104    23682794.182
        39.000          34.000
 103469312.701 8  80476153.713 7  19356073.570    19356084.882    19356092.042
        49.000          42.000
 122126842.39946  95163779.36846  23239961.156    23239961.233    23239968.285
        38.000          36.000
 114193259.394 7  88816971.410 7  21324779.507    21324781.320    21324784.788
        45.000          43.000
 110425021.07148  86045488.53748  21013178.498    21013178.337    21013183.594
        49.000          51.000
 108710771.17447  84709700.09246  20686969.897    20686969.309    20686972.228
        47.000          39.000
 106622093.67248  83082143.30947  20289499.432    20289499.350    20289503.409
        49.000          44.000
 120179287.58046  93646201.96046  22869356.667    22869356.265    22869363.344
        41.000          38.000
 20  5  2  1 36  0.0000000  0  9G 7G 3R 1G27R 8G 9G16G 4G26
 123106999.98446  95927523.39146  23426481.460    23426480.955    23426484.311
        41.000          38.000
 124632831.84346  97116500.34645  23716838.261    23716838.813    23716846.234
        38.000          34.000
 103569637.430 8  80554184.038 7  19374841.284    19374852.520    19374860.027
        49.000          43.000
 122116550.03246  95155759.37145  23238003.261    23238002.230    23238009.970
        37.000          35.000
 114379530.221 7  88961848.691 7  21359564.784    21359566.353    21359568.865
        45.000          43.000
 110441987.46648  86058709.10448  21016406.763    21016406.884    21016412.102
        49.000          51.000
 108825139.40548  84798818.18146  20708733.313    20708732.788    20708735.831
        48.000          39.000
 106706138.94848  83147633.12147  20305492.734    20305492.752    20305496.694
        50.000          44.000
 120344260.61846  93774752.33546  22900749.803    22900749.461    22900756.359
        40.000          37.000
 20  5  2  1 36 30.0000000  0  9G 7G 3R 1G27R 8G 9G16G 4G26
 123107113.60047  95927611.93246  23426502.362    23426502.748    23426505.687
        42.000          37.000
 124811874.50246  97256014.05245  23750909.346    23750909.778    23750916.498
        39.000          34.000
 103670725.510 8  80632808.074 7  19393751.956    19393763.473    19393770.780
        49.000          42.000
 122106567.73146  95147980.96546  23236103.373    23236103.570    23236109.822
        39.000          36.000
 114566202.897 7  89107038.506 7  21394425.022    21394425.746    21394428.706
        44.000          43.000
 110459313.88548  86072210.20748  21019703.994    21019704.140    21019709.156
        49.000          50.000
 108940075.15148  84888378.48846  20730604.623    20730604.357    20730607.566
        49.000          39.000
 106790637.63648  83213476.23747  20321572.238    20321572.171    20321576.273
        49.000          44.000
 120509469.93546  93903486.84846  22932187.587    22932187.803    22932194.604
        40.000          37.000
 20  5  2  1 37  0.0000000  0  9G 7G 3R 1G27R 8G 9G16G 4G26
 123107330.51947  95927780.98246  23426543.950    23426544.045    23426547.039
        42.000          38.000
 124991024.65246  97395611.52645  23785000.260    23785001.091    23785007.864
        38.000          34.000
 103772588.072 8  80712034.502 7  19412807.058    19412818.805    19412826.251
        50.000          42.000
 122096910.83946  95140456.12746  23234265.908    23234265.820    23234272.183
        40.000          37.000
 114753286.082 7  89252547.612 7  21429361.003    21429362.170    21429364.831
        44.000          42.000
 110477014.34848  86086002.77348  21023072.376    21023072.452    21023077.435
        48.000          51.000
 109055587.53748  84978388.13946  20752586.129    20752585.523    20752588.835
        48.000          39.000
 106875602.21448  83279682.38947  20337740.486    20337740.356    20337744.562
        50.000          44.000
 120674924.90746  94032412.77346  22963673.344    22963672.842    22963679.902
        41.000          37.000
 20  5  2  1 37 30.0000000  0 10G 8G 7G 3R 1G27R 8G 9G16G 4G26
 128013692.34345  99750934.86644  24360192.254    24360190.823    24360198.695
        35.000          25.000
 123107650.34347  95928030.21046  23426604.985    23426604.514    23426607.956
        42.000          38.000
 125170278.52346  97535289.81945  23819111.906    23819112.468    23819118.909
        39.000          34.000
 103875224.236 8  80791862.609 7  19432007.488    19432019.131    19432026.589
        49.000          42.000
 122087581.85946  95133186.82346  23232490.518    23232490.018    23232496.603
        39.000          37.000
 114940775.925 7  89398373.018 7  21464373.786    21464375.342    21464376.873
        44.000          42.000
 110495090.03448  86100087.72348  21026511.882    21026512.062    21026517.061
        49.000          51.000
 109171674.18548  85068845.25546  20774676.902    20774676.353    20774679.356
        49.000          39.000
 106961032.45448  83346251.38347  20353996.965    20353997.305    20354001.420
        50.000          44.000
 120840622.19246  94161527.52046  22995204.169    22995203.852    22995211.128
        40.000          37.000
 20  5  2  1 38  0.0000000  0 10G 8G 7G 3R 1G27R 8G 9G16G 4G26
 127983129.12345  99727119.39544  24354375.983    24354375.863    24354383.660
        35.000          29.000
 123108063.87147  95928352.45746  23426683.347    23426683.399    23426686.728
        42.000          37.000
 125349623.92246  97675039.42845  23853239.967    23853240.372    23853247.160
        38.000          33.000
 103978623.579 8  80872284.289 7  19451350.540    19451362.033    19451369.269
        49.000          42.000
 122078574.85646  95126168.38546  23230776.161    23230776.846    23230782.744
        40.000          38.000
 115128660.073 7  89544505.088 7  21499460.345    21499461.185    21499462.785
        44.000          42.000
 110513533.73548  86114459.43848  21030021.837    21030021.623    21030026.811
        49.000          50.000
 109288323.69548  85159740.96946  20796874.511    20796874.099    20796876.834
        48.000          39.000
 107046919.58148  83413176.40447  20370340.820    20370340.951    20370345.284
        50.000          43.000
 121006550.03746  94290821.90546  23026778.892    23026778.807    23026786.245
        40.000          37.000
 20  5  2  1 38 30.0000000  0 10G 8G 7G 3R 1G27R 8G 9G16G 4G26
 127952594.16845  99703325.99844  24348565.061    24348565.005    24348572.643
        34.000          26.000
 123108574.59447  95928750.44346  23426780.247    23426780.578    23426783.787
        42.000          37.000
 125529061.29546  97814860.70245  23887385.146    23887385.747    23887393.086
        37.000          33.000
 104082789.275 8  80953302.032 7  19470837.358    19470848.492    19470855.933
        49.000          42.000
 122069896.49746  95119406.02646  23229125.291    23229125.349    23229131.337
        40.000          38.000
 115316937.835 7  89690943.315 6  21534619.801    21534620.446    21534623.187
        44.000          41.000
 110532350.85148  86129122.12448  21033602.254    21033602.233    21033607.532
        49.000          50.000
 109405537.25848  85251076.20546  20819179.297    20819179.072    20819182.037
        48.000          40.000
 107133267.50648  83480460.48447  20386772.342    20386772.530    20386776.721
        50.000          44.000
 121172709.21746  94420296.56346  23058398.078    23058397.973    23058404.796
        40.000          36.000
 20  5  2  1 39  0.0000000  0 10G 8G 7G 3R 1G27R 8G 9G16G 4G26
 127922105.12845  99679568.33444  24342761.818    24342762.899    24342770.511
        33.000          26.000
 123109197.05947  95929235.49546  23426899.068    23426898.887    23426902.393
        42.000          38.000
 125708602.12646  97954762.60845  23921550.816    23921551.711    23921558.347
        38.000          33.000
 104187734.916 8  81034926.399 7  19490470.073    19490480.983    19490488.207
        50.000          43.000
 122061564.46746  95112913.56846  23227539.960    23227539.198    23227545.936
        40.000          38.000
 115505620.490 7  89837696.461 6  21569854.227    21569856.150    21569857.933
        43.000          41.000
 110551557.63048  86144088.44948  21037257.329    21037257.213    21037262.484
        49.000          50.000
 109523327.33248  85342860.67846  20841594.126    20841593.652    20841596.682
        48.000          39.000
 107220091.08248  83548115.20147  20403294.343    20403294.500    20403298.689
        50.000          44.000
 121339111.60746  94549960.73046  23090063.304    23090063.319    23090070.296
        40.000          36.000
 20  5  2  1 39 30.0000000  0 10G 8G 7G 3R 1G27R 8G 9G16G 4G26
 127891653.16345  99655839.57744  24336969.202    24336968.311    24336975.979
        34.000          26.000
 123109919.30846  95929798.31346  23427036.641    23427036.003    23427039.836
        41.000          37.000
 125888231.50046  98094733.49945  23955734.244    23955733.841    23955740.692
        38.000          33.000
 104293447.849 8  81117147.544 7  19510245.826    19510256.671    19510264.017
        49.000          42.000
 122053570.16646  95106684.26346  23226018.279    23226018.952    23226024.531
        41.000          38.000
 115694693.175 7  89984752.954 7  21605162.350    21605163.445    21605166.612
        43.000          42.000
 110571144.25148  86159350.74948  21040984.509    21040984.513    21040989.671
        49.000          51.000
 109641679.32648  85435083.00746  20864115.900    20864115.259    20864118.465
        48.000          39.000
 107307378.88848  83616131.66447  20419904.747    20419904.835    20419908.935
        50.000          43.000
 121505742.71146  94679803.12746  23121771.968    23121772.375    23121779.256
        40.000          36.000
 20  5  2  1 40  0.0000000  0 10G 8G 7G 3R 1G27R 8G 9G16G 4G26
 126285830.64345  98404549.37044  24031390.423    24031389.810    24031397.361
        34.000          24.000
 121535332.21046  94702847.33746  23127402.350    23127401.661    23127406.044
        41.000          38.000
 124492542.82846  97007183.84045  23690143.474    23690143.394    23690149.956
        37.000          32.000
 102797378.636 8  79953538.143 7  19230374.517    19230385.879    19230393.387
        49.000          42.000
 120470506.83446  93873128.44446  22924771.638    22924771.395    22924778.046
        41.000          38.000
 114278794.047 7  88883498.050 6  21340752.895    21340754.294    21340757.774
        43.000          41.000
 109015703.58548  84947319.05748  20744993.880    20744993.908    20744999.083
        49.000          51.000
 108185185.61148  84300152.82846  20586954.202    20586953.834    20586956.885
        48.000          39.000
 105819724.53148  82456920.46447  20136813.505    20136813.656    20136817.703
        50.000          43.000
 120097195.81946  93582234.09646  22853734.898    22853734.775    22853741.702
        39.000          36.000
 20  5  2  1 40 30.0000000  0 10G 8G 7G 3R 1G27R 8G 9G16G 4G26
 126255469.77345  98380891.57644  24025612.960    24025613.227    24025620.041
        34.000          25.000
 121536262.82246  94703572.52346  23127579.194    23127578.827    23127583.241
        41.000          38.000
 124672348.23746  97147291.89845  23724359.344    23724359.073    23724366.217
        37.000          32.000
 102904631.476 8  80036957.003 7  19250438.233    19250449.621    19250457.414
        49.000          42.000
 120463205.46546  93867439.08446  22923382.168    22923382.044    22923388.678
        41.000          38.000
 114468644.298 7  89031159.307 7  21376206.807    21376207.356    21376210.393
        44.000          42.000
 109036063.45648  84963183.89548  20748868.384    20748868.338    20748873.463
        49.000          51.000
 108304662.92848  84393252.03346  20609690.064    20609689.684    20609692.506
        48.000          39.000
 105907949.82648  82525667.43947  20153602.322    20153602.319    20153606.441
        50.000          43.000
 120264284.49646  93712433.02146  22885530.654    22885530.506    22885537.776
        40.000          36.000
 20  5  2  1 41  0.0000000  0 10G 8G 7G 3R 1G27R 8G 9G16G 4G26
 126225153.54545  98357268.58044  24019844.668    24019843.562    24019851.265
        33.000          25.000
 121537292.63746  94704374.99246  23127775.142    23127774.997    23127778.956
        41.000          37.000
 124852232.12246  97287461.12445  23758590.247    23758590.215    23758596.504
        37.000          32.000
 103012647.752 8  80120969.637 7  19270645.095    19270656.432    19270663.691
        49.000          42.000
 120456250.28546  93862019.48546  22922058.572    22922058.479    22922064.912
        41.000          38.000
 114658872.689 7  89179114.685 7  21411730.711    21411731.955    21411734.303
        44.000          42.000
 109056807.73148  84979348.26548  20752815.727    20752815.822    20752820.994
        49.000          51.000
 108424694.48848  84486783.11246  20632531.313    20632530.816    20632533.839
        48.000          39.000
 105996639.28548  82594776.09747  20170479.354    20170479.486    20170483.488
        49.000          44.000
 120431592.92046  93842803.18646  22917368.807    22917368.477    22917375.545
        40.000          36.000
 20  5  2  1 41 30.0000000  0 10G 8G 7G 3R 1G27R 8G 9G16G 4G26
 126194895.40445  98333690.83944  24014085.374    24014085.238    24014093.185
        33.000          25.000
 121538432.07946  94705262.88646  23127991.585    23127991.412    23127995.968
        41.000          37.000
 125032201.75546  97427697.14245  23792836.815    23792837.302    23792844.102
        38.000          32.000
 103121437.229 8  80205583.668 7  19290996.107    19291007.994    19291015.289
        50.000          42.000
 120449654.81746  93856880.19846  22920802.950    22920803.121    22920810.174
        41.000          38.000
 114849486.418 7  89327369.762 7  21447326.593    21447328.004    21447330.927
        43.000          42.000
 109077948.67748  84995821.73448  20756838.943    20756838.756    20756844.058
        48.000          51.000
 108545288.16447  84580752.20546  20655479.492    20655479.077    20655481.907
        47.000          40.000
 106085803.67248  82664254.83247  20187446.815    20187446.964    20187451.017
        49.000          44.000
 120599128.85446  93973350.62346  22949250.055    22949249.725    22949256.411
        40.000          36.000
 20  5  2  1 42  0.0000000  0 10G 8G 7G 3R 1G27R 8G 9G16G 4G26
 126164682.67945  98310148.43343  24008337.338    24008336.467    24008343.530
        33.000          23.000
 121539664.94046  94706223.56946  23128226.642    23128226.086    23128230.356
        41.000          37.000
 125212237.90046  97567984.99445  23827097.123    23827096.847    23827103.701
        38.000          33.000
 103230981.913 8  80290785.064 7  19311488.903    19311500.317    19311507.825
        49.000          42.000
 120443405.98146  93852011.00546  22919614.477    22919614.295    22919621.025
        41.000          37.000
 115040465.720 7  89475909.179 7  21482990.969    21482992.464    21482994.849
        44.000          42.000
 109099471.86548  85012593.05248  20760934.483    20760934.495    20760939.857
        49.000          51.000
 108666425.28348  84675144.75246  20678531.027    20678530.678    20678533.622
        48.000          39.000
 106175426.99448  82734091.17847  20204501.588    20204501.787    20204505.780
        50.000          44.000
 120766873.42146  94104060.65546  22981170.259    22981170.610    22981177.743
        40.000          37.000
 20  5  2  1 42 30.0000000  0 10G 8G 7G 3R 1G27R 8G 9G16G 4G26
 126134526.24645  98286649.94644  24002597.008    24002597.219    24002605.084
        33.000          24.000
 121540999.84046  94707263.77146  23128479.746    23128479.823    23128484.331
        40.000          38.000
 125392345.75546  97708328.71645  23861370.589    23861370.194    23861377.200
        37.000          32.000
 103341289.391 8  80376579.753 7  19332124.337    19332135.619    19332143.045
        49.000          42.000
 120437515.09846  93847420.72746  22918493.213    22918493.376    22918499.700
        41.000          37.000
 115231815.152 7  89624736.478 7  21518723.818    21518724.101    21518728.454
        43.000          42.000
 109121387.39848  85029670.09248  20765104.935    20765104.873    20765110.205
        49.000          51.000
 108788111.60648  84769965.25946  20701687.257    20701686.840    20701689.849
        48.000          39.000
 106265517.74848  82804291.75447  20221645.162    20221645.478    20221649.544
        49.000          43.000
 120934832.24146  94234937.61546  23013132.186    23013132.015    23013139.223
        40.000          37.000
 20  5  2  1 43  0.0000000  0 10G 8G 7G 3R 1G27R 8G 9G16G 4G26
 126104423.58245  98263193.33444  23996868.977    23996870.533    23996876.861
        35.000          25.000
 121542431.00246  94708378.99246  23128753.044    23128752.658    23128756.577
        41.000          37.000
 125572516.47146  97848721.43945  23895655.824    23895655.883    23895662.606
        38.000          32.000
 103452352.760 8  80462962.360 7  19352901.673    19352912.437    19352919.819
        49.000          42.000
 120431979.60946  93843107.38946  22917439.842    22917439.742    22917446.147
        41.000          37.000
 115423525.271 7  89773844.295 7  21554524.218    21554525.198    21554528.074
        43.000          42.000
 109143691.41148  85047049.83948  20769349.311    20769349.240    20769354.576
        48.000          51.000
 108910339.22148  84865207.54946  20724946.288    20724945.954    20724948.909
        49.000          39.000
 106356070.48048  82874852.31447  20238876.875    20238876.904    20238881.145
        50.000          43.000
 121102996.94446  94365975.01446  23045132.996    23045132.578    23045139.573
        40.000          36.000
 20  5  2  1 43 30.0000000  0 10G 8G 7G 3R 1G27R 8G 9G16G 4G26
 126074379.32045  98239782.24944  23991152.804    23991152.823    23991160.072
        35.000          26.000
 121543959.86247  94709570.32246  23129043.618    23129043.855    23129047.576
        42.000          38.000
 125752749.01946  97989162.32145  23929952.718    23929952.791    23929959.483
        37.000          32.000
 103564172.586 8  80549933.322 7  19373819.601    19373830.758    19373837.877
        49.000          42.000
 120426804.45646  93839074.81846  22916455.088    22916454.873    22916461.235
        40.000          37.000
 115615594.641 7  89923231.547 7  21590391.678    21590393.403    21590395.443
        43.000          42.000
 109166387.53748  85064735.12648  20773668.345    20773668.166    20773673.572
        49.000          51.000
 109033107.34548  84960871.01246  20748308.357    20748307.717    20748311.127
        48.000          38.000
 106447087.30848  82945774.50847  20256196.616    20256196.835    20256201.038
        50.000          43.000
 121271366.62846  94497172.14146  23077172.221    23077172.331    23077179.466
        39.000          36.000
 20  5  2  1 44  0.0000000  0 10G 8G 7G 3R 1G27R 8G 9G16G 4G26
 126044396.90545  98216419.31344  23985447.449    23985447.203    23985453.881
        34.000          26.000
 121545587.52147  94710838.64446  23129353.330    23129353.368    23129357.254
        42.000          38.000
 125933040.89846  98129649.43945  23964260.521    23964261.103    23964268.289
        37.000          32.000
 103676748.494 8  80637492.344 7  19394878.853    19394890.014    19394897.553
        49.000          42.000
 120421993.37446  93835325.92246  22915539.378    22915538.935    22915545.497
        40.000          37.000
 115808020.192 7  90072895.846 7  21626325.338    21626326.361    21626330.031
        43.000          42.000
 109189478.24648  85082727.87848  20778062.310    20778062.190    20778067.476
        49.000          51.000
 109156414.11848  85056954.19946  20771773.004    20771772.373    20771775.498
        48.000          38.000
 106538569.05148  83017058.96747  20273604.981    20273605.218    20273609.444
        49.000          43.000
 121439939.51046  94628527.60446  23109250.925    23109250.795    23109257.845
        40.000          36.000
 20  5  2  1 44 30.0000000  0 10G 8G 7G 3R 1G27R 8G 9G16G 4G26
 126014479.13945  98193106.79444  23979754.414    23979753.279    23979761.411
        33.000          25.000
 121547313.65347  94712183.70146  23129682.180    23129682.212    23129685.888
        42.000          39.000
 126113388.79046  98270180.22245  23998580.629    23998580.399    23998586.749
        38.000          31.000
 103790078.848 8  80725638.157 7  19416079.396    19416091.014    19416098.307
        49.000          42.000
 120417549.11546  93831862.88446  22914693.274    22914693.495    22914699.722
        39.000          36.000
 116000798.022 7  90222834.107 7  21662325.338    21662326.983    21662330.088
        42.000          42.000
 109212965.04448  85101029.27748  20782531.718    20782531.608    20782536.815
        49.000          51.000
 109280257.03848  85153455.17046  20795339.626    20795338.801    20795341.986
        48.000          38.000
 106630515.59648  83088705.61847  20291101.877    20291102.146    20291106.324
        49.000          43.000
 121608712.59846  94760039.05645  23141367.649    23141367.096    23141374.510
        39.000          35.000
 20  5  2  1 45  0.0000000  0 10G 8G 7G 3R 1G27R 8G 9G16G 4G26
 125984636.09945  98169852.48244  23974075.274    23974074.545    23974081.657
        34.000          26.000
 121549144.83847  94713610.61046  23130030.532    23130030.696    23130034.267
        43.000          39.000
 126293796.17146  98410757.35245  24032910.675    24032911.283    24032917.471
        38.000          31.000
 103904168.742 8  80814374.726 7  19437422.263    19437433.677    19437441.205
        49.000          42.000
 120413481.27646  93828693.15446  22913919.823    22913919.431    22913926.064
        40.000          37.000
 116193931.010 7  90373048.623 7  21698391.657    21698393.209    21698396.221
        43.000          42.000
 109236856.25048  85119645.79348  20787078.106    20787077.983    20787083.128
        50.000          52.000
 109404640.39548  85250377.25746  20819008.645    20819008.317    20819011.311
        48.000          38.000
 106722933.62748  83160719.66147  20308688.381    20308688.564    20308692.922
        49.000          43.000
 121777689.74746  94891709.52245  23173522.102    23173522.568    23173529.304
        40.000          34.000
 20  5  2  1 45 30.0000000  0 10G 8G 7G 3R 1G27R 8G 9G16G 4G26
 125954875.59145  98146662.46244  23968410.973    23968410.825    23968419.423
        34.000          26.000
 121551086.53347  94715123.64546  23130400.423    23130400.110    23130403.806
        43.000          39.000
 126474265.57146  98551382.79545  24067252.636    24067253.207    24067259.854
        37.000          31.000
 104019022.785 8  80903705.623 7  19458909.150    19458919.673    19458927.395
        49.000          42.000
 120409798.44346  93825823.42046  22913218.318    22913218.522    22913225.497
        39.000          38.000
 116387421.703 7  90523541.345 6  21734524.251    21734525.595    21734529.006
        42.000          41.000
 109261159.17848  85138583.12748  20791702.678    20791702.664    20791707.756
        49.000          51.000
 109529566.24348  85347722.06446  20842781.358    20842780.760    20842784.091
        48.000          38.000
 106815828.85148  83233105.54047  20326365.953    20326366.038    20326370.199
        49.000          42.000
 121946873.84046  95023541.25045  23205717.307    23205716.838    23205723.967
        39.000          34.000
 20  5  2  1 46  0.0000000  0 10G 8G 7G 3R 1G27R 8G 9G16G 4G26
 125925178.45945  98123521.85744  23962760.030    23962760.400    23962768.434
        34.000          27.000
 121553116.46847  94716705.42546  23130786.247    23130786.613    23130789.992
        43.000          39.000
 126654771.31346  98692036.57645  24101601.733    24101602.249    24101609.335
        37.000          31.000
 104134616.563 8  80993611.878 7  19480532.507    19480543.814    19480551.452
        49.000          42.000
 120406481.03146  93823238.45146  22912586.956    22912587.020    22912594.015
        40.000          38.000
 116581243.132 7  90674291.314 6  21770719.723    21770720.110    21770724.499
        42.000          41.000
 109285853.04848  85157825.10048  20796401.754    20796401.656    20796406.766
        50.000          51.000
 109655009.99947  85445470.44146  20866652.625    20866652.116    20866655.318
        47.000          38.000
 106909178.82648  83305845.76847  20344129.950    20344130.038    20344134.168
        49.000          43.000
 122116239.69946  95155514.61345  23237946.073    23237946.497    23237953.077
        39.000          34.000
 20  5  2  1 46 30.0000000  0 10G 8G 7G 3R 1G27R 8G 9G16G 4G26
 125895558.50145  98100441.37044  23957123.832    23957123.613    23957131.075
        35.000          27.000
 121555244.96447  94718364.00146  23131191.360    23131191.456    23131195.006
        43.000          39.000
 126835321.22146  98832724.74845  24135958.822    24135959.996    24135966.758
        37.000          31.000
 104250959.552 8  81084100.859 7  19502296.921    19502308.073    19502315.824
        49.000          42.000
 120403542.99247  93820949.09046  22912028.189    22912028.491    22912034.798
        42.000          38.000
 116775402.840 6  90825304.396 6  21806976.976    21806978.623    21806981.773
        41.000          41.000
 109310950.47748  85177381.53448  20801177.513    20801177.455    20801182.690
        49.000          51.000
 109780979.87548  85543628.77846  20890623.970    20890623.585    20890626.468
        48.000          38.000
 107002994.57048  83378948.93447  20361982.394    20361982.544    20361986.759
        49.000          43.000
 122285795.50746  95287635.99945  23270211.845    23270211.817    23270218.869
        38.000          34.000
 20  5  2  1 47  0.0000000  0 10G 8G 7G 3R 1G27R 8G 9G16G 4G26
 125866013.63746  98077419.42244  23951501.292    23951501.845    23951509.205
        36.000          28.000
 121557467.53446  94720095.87646  23131614.576    23131614.457    23131617.874
        41.000          39.000
 127015907.11146  98973440.96845  24170323.855    24170324.150    24170331.102
        37.000          31.000
 104368045.198 8  81175167.451 7  19524200.581    19524211.645    19524219.123
        49.000          42.000
 120400982.13946  93818953.63346  22911541.212    22911541.004    22911547.387
        41.000          38.000
 116969891.763 6  90976573.528 6  21843296.371    21843297.851    21843301.448
        41.000          41.000
 109336448.06348  85197249.77348  20806029.689    20806029.554    20806034.832
        49.000          51.000
 109907468.22848  85642191.11846  20914693.665    20914693.369    20914696.395
        48.000          38.000
 107097270.98448  83452411.05747  20379922.549    20379922.634    20379926.983
        49.000          43.000
 122455533.55246  95419899.37845  23302511.721    23302512.053    23302518.637
        39.000          33.000
 20  5  2  1 47 30.0000000  0 10G 8G 7G 3R 1G27R 8G 9G16G 4G26
 125836549.41546  98054460.29544  23945895.769    23945895.090    23945902.594
        37.000          29.000
 121559786.72547  94721903.05046  23132055.806    23132056.010    23132059.109
        43.000          39.000
 127196528.80746  99114185.10445  24204694.758    24204695.474    24204702.395
        37.000          31.000
 104485874.704 8  81266812.601 7  19546242.811    19546253.983    19546261.523
        49.000          42.000
 120398804.35646  93817256.67446  22911126.758    22911125.991    22911132.715
        40.000          38.000
 117164709.191 7  91128098.155 6  21879678.188    21879679.802    21879682.161
        42.000          41.000
 109362350.39148  85217433.39548  20810958.816    20810958.762    20810963.941
        49.000          52.000
 110034475.50948  85741157.82446  20938862.218    20938861.876    20938865.142
        48.000          38.000
 107192010.99148  83526234.42647  20397951.251    20397951.343    20397955.381
        49.000          43.000
 122625453.97846  95552304.88145  23334846.384    23334846.804    23334853.320
        38.000          33.000
 20  5  2  1 48  0.0000000  0 10G 8G 7G 3R 1G27R 8G 9G16G 4G26
 125807170.31146  98031567.52345  23940304.129    23940304.259    23940311.384
        37.000          30.000
 121562203.69847  94723786.42846  23132515.543    23132515.928    23132519.112
        44.000          40.000
 127377184.39146  99254955.61945  24239072.694    24239073.623    24239080.377
        38.000          31.000
 104604447.835 8  81359036.128 7  19568425.021    19568435.873    19568442.841
        49.000          42.000
 120397013.61346  93815861.32646  22910786.203    22910785.938    22910792.152
        41.000          38.000
 117359852.871 7  91279876.534 6  21916120.214    21916120.958    21916123.275
        42.000          41.000
 109388660.28648  85237934.60748  20815965.342    20815965.458    20815970.528
        50.000          52.000
 110161999.69448  85840527.31246  20963129.909    20963129.028    20963132.297
        48.000          38.000
 107287215.75048  83600419.93747  20416067.902    20416068.148    20416072.234
        49.000          43.000
 122795555.25246  95684851.30045  23367216.077    23367215.957    23367222.566
        38.000          33.000
 20  5  2  1 48 30.0000000  0 10G 8G 7G 3R 1G27R 8G 9G16G 4G26
 125777875.35246  98008740.30345  23934729.106    23934729.562    23934736.433
        38.000          30.000
 121564714.94647  94725743.25946  23132993.374    23132993.526    23132996.822
        43.000          39.000
 127557867.07746  99395747.27045  24273456.149    24273456.448    24273462.750
        38.000          31.000
 104723759.237 8  81451833.870 7  19590744.545    19590755.436    19590762.735
        49.000          42.000
 120395609.32046  93814767.07946  22910518.392    22910518.519    22910525.155
        41.000          38.000
 117555315.073 7  91431902.656 6  21952620.686    21952622.546    21952624.991
        42.000          41.000
 109415375.86548  85258751.93348  20821049.260    20821049.193    20821054.419
        49.000          52.000
 110290034.82248  85940294.93446  20987493.638    20987493.273    20987496.404
        48.000          38.000
 107382881.66347  83674964.78647  20434272.497    20434272.668    20434276.958
        47.000          42.000
 122965831.17746  95817533.79945  23399618.349    23399618.180    23399625.239
        38.000          34.000
 20  5  2  1 49  0.0000000  0 10G 8G 7G 3R 1G27R 8G 9G16G 4G26
 125748672.54146  97985984.88745  23929172.713    23929172.388    23929179.665
        38.000          31.000
 121567325.47347  94727777.45746  23133490.147    23133490.339    23133493.660
        42.000          39.000
 127738578.82446  99536561.56745  24307844.811    24307844.498    24307851.251
        37.000          31.000
 104843812.371 8  81545208.502 7  19613203.010    19613214.040    19613221.040
        49.000          42.000
 120394599.40846  93813980.15446  22910326.310    22910326.458    22910332.613
        41.000          38.000
 117751097.292 6  91584177.684 6  21989181.426    21989183.431    21989185.920
        41.000          41.000
 109442503.71948  85279890.51248  20826211.469    20826211.363    20826216.641
        49.000          52.000
 110418583.09047  86040462.40946  21011955.848    21011955.236    21011958.584
        47.000          38.000
 107479013.71248  83749872.85947  20452565.692    20452565.854    20452570.342
        48.000          42.000
 123136283.96946  95950354.11445  23432054.299    23432054.134    23432061.562
        38.000          33.000
 20  5  2  1 49 30.0000000  0 10G 8G 7G 3R 1G27R 8G 9G16G 4G26
 125719559.44446  97963299.38045  23923632.942    23923632.235    23923639.523
        38.000          31.000
 121570029.47047  94729884.48346  23134004.640    23134004.725    23134008.215
        43.000          39.000
 127919310.95746  99677391.73745  24342235.816    24342237.171    24342243.453
        38.000          31.000
 104964599.631 8  81639154.139 7  19635798.199    19635809.294    19635816.820
        49.000          42.000
 120393981.12746  93813498.38646  22910208.639    22910208.392    22910215.060
        41.000          39.000
 117947190.018 7  91736694.192 6  22025802.088    22025802.776    22025805.427
        42.000          41.000
 109470040.00248  85301347.35048  20831451.505    20831451.343    20831456.546
        50.000          52.000
 110547636.19248  86141023.25346  21036513.743    21036513.328    21036516.434
        48.000          38.000
 107575606.29748  83825139.78947  20470946.687    20470946.847    20470951.243
        49.000          42.000
 123306905.47746  96083305.91145  23464522.401    23464522.831    23464529.457
        39.000          34.000
 20  5  2  1 50  0.0000000  0 10G 8G 7G 3R 1G27R 8G 9G16G 4G26
 125690540.42946  97940687.17745  23918109.905    23918110.306    23918117.896
        38.000          32.000
 121572828.30446  94732065.42246  23134537.010    23134536.955    23134541.059
        41.000          39.000
 128100061.92146  99818236.60045  24376632.526    24376632.800    24376639.326
        38.000          31.000
 105086121.095 8  81733670.810 7  19658530.920    19658542.664    19658549.832
        49.000          42.000
 120393758.88146  93813325.22446  22910166.355    22910166.294    22910173.124
        41.000          38.000
 118143591.164 7  91889450.594 6  22062478.559    22062478.921    22062481.610
        42.000          40.000
 109497987.79748  85323124.84648  20836769.712    20836769.676    20836774.840
        50.000          52.000
 110677192.95147  86241976.55846  21061167.502    21061167.075    21061170.317
        47.000          38.000
 107672660.81448  83900766.66647  20489415.689    20489415.790    20489420.157
        48.000          42.000
 123477694.46746  96216388.21445  23497023.136    23497022.888    23497029.529
        38.000          33.000
 20  5  2  1 50 30.0000000  0 10G 8G 7G 3R 1G27R 8G 9G16G 4G26
 124086207.41446  96690557.58645  23612816.203    23612815.097    23612823.034
        37.000          32.000
 120000312.01647  93506728.07846  22835297.372    22835296.948    22835301.233
        42.000          39.000
 126705424.07346  98731505.74645  24111241.639    24111241.783    24111248.452
        37.000          31.000
 103605825.869 8  80582330.053 7  19381612.028    19381623.143    19381630.394
        49.000          42.000
 118818524.97346  92585870.23746  22610409.383    22610409.456    22610416.047
        41.000          39.000
 116734938.122 6  90793831.518 6  21799421.990    21799422.914    21799425.356
        41.000          40.000
 107950939.14248  84117632.38048  20542376.235    20542376.075    20542381.232
        49.000          52.000
 109231844.53248  85115731.01846  20786126.740    20786126.310    20786129.549
        48.000          38.000
 106194769.87748  82749163.32247  20208182.479    20208182.554    20208186.804
        49.000          42.000
 122073243.46446  95122010.78145  23229764.762    23229764.195    23229771.602
        38.000          33.000
 20  5  2  1 51  0.0000000  0 10G 8G 7G 3R 1G27R 8G 9G16G 4G26
 124057390.58146  96668102.90945  23607331.590    23607331.756    23607339.945
        38.000          31.000
 120003306.25847  93509061.27046  22835866.607    22835866.814    22835870.966
        43.000          39.000
 126886208.21446  98872376.43045  24145643.755    24145644.109    24145650.793
        37.000          31.000
 103728814.569 8  80677987.911 7  19404619.657    19404630.560    19404637.826
        50.000          42.000
 118819108.19547  92586324.71846  22610520.543    22610520.289    22610526.751
        42.000          39.000
 116931949.385 7  90947062.459 6  21836212.819    21836214.291    21836215.548
        42.000          40.000
 107979719.79348  84140058.85648  20547852.862    20547852.812    20547858.107
        50.000          52.000
 109362405.28447  85217466.66146  20810971.574    20810971.337    20810974.725
        47.000          38.000
 106292752.90148  82825513.71147  20226827.984    20226828.126    20226832.359
        49.000          42.000
 122244364.36546  95255351.70045  23262327.800    23262328.015    23262334.752
        38.000          33.000
 20  5  2  1 51 30.0000000  0 10G 8G 7G 3R 1G27R 8G 9G16G 4G26
 124028673.34146  96645725.85545  23601867.066    23601866.480    23601874.379
        37.000          31.000
 120006392.26247  93511465.96246  22836454.425    22836454.028    22836458.170
        43.000          40.000
 127066998.68946  99013252.07745  24180047.218    24180047.256    24180054.038
        36.000          30.000
 103852528.694 8  80774209.990 7  19427762.438    19427773.996    19427781.096
        49.000          42.000
 118820092.78846  92587091.94046  22610707.558    22610707.326    22610713.996
        41.000          39.000
 117129254.610 7  91100522.024 6  21873058.085    21873058.397    21873061.566
        42.000          40.000
 108008913.63448  84162807.29548  20553408.300    20553408.293    20553413.536
        50.000          52.000
 109493458.01747  85319585.66446  20835910.270    20835909.818    20835913.190
        47.000          38.000
 106391194.35448  82902221.32147  20245560.979    20245560.928    20245565.195
        48.000          42.000
 122415641.57146  95388814.42645  23294921.448    23294921.340    23294927.906
        38.000          33.000
 20  5  2  1 52  0.0000000  0 10G 8G 7G 3R 1G27R 8G 9G16G 4G26
 124000053.91146  96623425.02445  23596420.966    23596421.063    23596428.513
        37.000          31.000
 120009564.86147  93513938.12746  22837057.266    22837057.776    22837061.993
        43.000          40.000
 127247787.25646  99154126.21445  24214450.917    24214450.474    24214457.080
        36.000          30.000
 103976960.857 8  80870990.540 7  19451039.862    19451051.378    19451058.730
        49.000          42.000
 118821476.38947  92588170.08446  22610970.735    22610971.177    22610977.308
        42.000          39.000
 117326844.509 7  91254203.012 6  21909955.852    21909957.242    21909961.148
        42.000          40.000
 108038517.07748  84185874.90848  20559041.670    20559041.645    20559046.901
        50.000          52.000
 109624994.93148  85422081.94746  20860941.082    20860940.548    20860943.952
        48.000          37.000
 106490088.94848  82979282.01947  20264379.741    20264379.944    20264384.253
        49.000          42.000
 122587067.24846  95522392.83445  23327543.092    23327542.353    23327549.270
        38.000          33.000
 20  5  2  1 52 30.0000000  0 10G 8G 7G 3R 1G27R 8G 9G16G 4G26
 123971553.62646  96601217.04445  23590998.124    23590997.412    23591004.963
        37.000          31.000
 120012842.98247  93516492.52446  22837681.790    22837681.610    22837685.485
        42.000          40.000
 127428589.98546  99295011.41045  24248855.850    24248856.209    24248862.757
        37.000          30.000
 104102128.599 8  80968343.203 7  19474455.412    19474466.785    19474473.869
        49.000          42.000
 118823281.00246  92589576.29446  22611314.733    22611314.318    22611320.521
        41.000          38.000
 117524734.695 6  91408117.543 6  21946911.018    21946911.651    21946914.837
        41.000          40.000
 108068550.96948  84209277.93248  20564756.783    20564756.996    20564762.182
        50.000          52.000
 109757032.41247  85524968.28446  20886066.998    20886066.410    20886069.715
        47.000          38.000
 106589455.71248  83056710.64447  20283288.584    20283288.856    20283293.058
        49.000          42.000
 122758657.97946  95656099.86745  23360194.851    23360194.790    23360201.897
        38.000          33.000
 20  5  2  1 53  0.0000000  0 10G 8G 7G 3R 1G27R 8G 9G16G 4G26
 123943164.83946  96579095.92445  23585595.226    23585595.234    23585603.214
        37.000          32.000
 120016215.01047  93519120.08746  22838323.671    22838323.389    22838327.166
        42.000          40.000
 127609392.24346  99435896.20844  24283261.291    24283261.625    24283268.650
        36.000          29.000
 104228017.913 8  81066257.083 7  19498005.874    19498016.676    19498024.518
        49.000          42.000
 118825497.81446  92591303.68646  22611736.072    22611736.437    22611742.915
        40.000          39.000
 117722909.664 6  91562253.598 6  21983918.067    21983919.721    21983921.988
        41.000          39.000
 108099005.18748  84233008.49048  20570552.274    20570552.247    20570557.449
        50.000          53.000
 109889556.03448  85628233.42246  20911285.395    20911284.884    20911288.297
        48.000          38.000
 106689282.83948  83134497.99347  20302285.344    20302285.392    20302289.475
        48.000          42.000
 122930399.46546  95789924.33945  23392875.819    23392876.120    23392883.341
        38.000          32.000
 20  5  2  1 53 30.0000000  0 10G 8G 7G 3R 1G27R 8G 9G16G 4G26
 123914885.27346  96557059.92345  23580214.596    23580213.771    23580222.451
        37.000          33.000
 120019676.38147  93521817.27046  22838982.150    22838982.318    22838985.770
        43.000          40.000
 127790186.26046  99576774.61344  24317664.833    24317665.137    24317672.594
        36.000          29.000
 104354622.326 8  81164727.160 7  19521689.967    19521700.944    19521708.266
        49.000          42.000
 118828124.92746  92593350.79646  22612236.052    22612236.021    22612242.199
        41.000          38.000
 117921361.000 6  91716604.590 6  22020978.113    22020978.144    22020981.811
        41.000          40.000
 108129876.74648  84257064.24548  20576427.004    20576426.878    20576432.157
        50.000          53.000
 110022558.39948  85731871.61946  20936594.965    20936594.358    20936597.563
        48.000          37.000
 106789565.55748  83212640.35147  20321368.408    20321368.648    20321372.865
        49.000          42.000
 123102284.44646  95923860.64345  23425585.007    23425585.088    23425592.074
        37.000          32.000
 20  5  2  1 54  0.0000000  0 10G 8G 7G 3R 1G27R 8G 9G16G 4G26
 123886721.01846  96535113.79545  23574854.463    23574854.628    23574862.580
        37.000          33.000
 120023230.27947  93524586.55346  22839658.769    22839658.712    22839662.158
        43.000          40.000
 127970971.92045  99717646.49244  24352067.004    24352066.690    24352075.232
        35.000          28.000
 104481942.859 8  81263754.215 7  19545507.211    19545518.596    19545526.299
        49.000          42.000
 118831167.99147  92595722.01846  22612815.432    22612815.272    22612821.423
        42.000          38.000
 118120087.632 6  91871169.703 6  22058088.676    22058090.255    22058092.960
        41.000          39.000
 108161170.04748  84281448.63048  20582381.965    20582381.800    20582387.037
        50.000          52.000
 110156039.34847  85835882.73646  20961995.596    20961995.088    20961998.135
        47.000          37.000
 106890306.49848  83291139.75747  20340538.868    20340538.989    20340543.158
        48.000          42.000
 123274313.15346  96057908.94845  23458320.476    23458320.707    23458328.384
        36.000          31.000
 20  5  2  1 54 30.0000000  0 10G 8G 7G 3R 1G27R 8G 9G16G 4G26
 123858673.45646  96513258.58645  23569517.397    23569517.788    23569524.702
        38.000          33.000
 120026875.20147  93527426.77046  22840352.027    22840352.450    22840355.646
        43.000          40.000
 128151744.66845  99858508.32244  24386465.883    24386466.961    24386475.014
        35.000          28.000
 104609975.541 8  81363335.167 7  19569457.890    19569469.681    19569477.262
        49.000          42.000
 118834628.39246  92598418.45346  22613473.374    22613473.449    22613480.385
        41.000          38.000
 118319084.500 6  92025944.976 6  22095250.385    22095249.968    22095255.070
        41.000          40.000
 108192885.28148  84306161.79248  20588417.075    20588416.912    20588422.194
        50.000          53.000
 110289994.91347  85940263.67846  20987486.187    20987485.887    20987489.208
        47.000          37.000
 106991504.10248  83369995.00847  20359796.130    20359796.129    20359800.465
        49.000          42.000
 123446481.54746  96192066.08645  23491083.002    23491082.948    23491090.456
        37.000          31.000
 20  5  2  1 55  0.0000000  0 10G 8G 7G 3R 1G27R 8G 9G16G 4G26
 123830745.27046  96491496.42445  23564203.662    23564202.307    23564210.215
        37.000          33.000
 120030610.68247  93530337.54646  22841063.051    22841063.191    22841066.491
        43.000          41.000
 128332501.45945  99999357.70744  24420862.989    24420863.795    24420871.550
        35.000          28.000
 104738718.393 8  81463468.472 7  19593542.697    19593553.972    19593561.559
        49.000          42.000
 118838508.84346  92601442.18846  22614211.726    22614212.171    22614218.283
        41.000          38.000
 118518347.640 6  92180927.375 6  22132462.355    22132463.092    22132465.361
        41.000          39.000
 108225023.93548  84331204.89748  20594532.834    20594532.693    20594538.008
        49.000          52.000
 110424422.18547  86045012.19946  21013067.270    21013066.708    21013069.611
        47.000          37.000
 107093158.06548  83449205.86547  20379140.088    20379140.195    20379144.572
        48.000          42.000
 123618787.03146  96326330.06345  23523872.752    23523872.015    23523878.983
        37.000          31.000
 20  5  2  1 55 30.0000000  0 10G 8G 7G 3R 1G27R 8G 9G16G 4G26
 123802935.98246  96469826.90245  23558910.266    23558910.668    23558918.069
        37.000          33.000
 120034433.25647  93533316.18746  22841790.736    22841790.379    22841793.695
        43.000          40.000
 128513235.46146 100140189.36244  24455255.565    24455256.770    24455264.188
        36.000          28.000
 104868165.289 8  81564149.370 7  19617757.479    19617769.593    19617777.245
        48.000          42.000
 118842808.21346  92604792.36746  22615030.026    22615030.036    22615036.382
        41.000          39.000
 118717869.242 6  92336110.793 6  22169720.305    22169720.804    22169724.457
        40.000          39.000
 108257583.76848  84356576.18648  20600728.704    20600728.634    20600733.903
        51.000          52.000
 110559313.98147  86150122.67146  21038736.096    21038735.500    21038738.994
        47.000          37.000
 107195264.30448  83528769.15047  20398570.219    20398570.502    20398574.847
        49.000          42.000
 123791223.10046  96460695.79845  23556685.411    23556685.447    23556692.019
        37.000          30.000
 20  5  2  1 56  0.0000000  0 10G 8G 7G 3R 1G27R 8G 9G16G 4G26
 123775241.41646  96448246.77845  23553640.269    23553640.538    23553647.864
        38.000          33.000
 120038335.63147  93536357.01646  22842532.851    22842532.715    22842536.210
        43.000          40.000
 128693936.45646 100280995.28344  24489643.458    24489643.221    24489650.331
        36.000          28.000
 104998306.789 8  81665370.498 7  19642104.189    19642115.307    19642123.150
        49.000          42.000
 118847522.14046  92608465.55946  22615926.987    22615927.043    22615933.650
        41.000          39.000
 118917638.243 6  92491486.601 6  22207026.850    22207027.120    22207029.974
        41.000          39.000
 108290559.11048  84382271.24948  20607003.692    20607003.661    20607008.868
        50.000          52.000
 110694660.56747  86255587.52746  21064491.687    21064491.381    21064494.529
        47.000          38.000
 107297815.41748  83608679.09147  20418085.223    20418085.423    20418089.667
        49.000          42.000
 123963780.04346  96595155.73845  23589522.719    23589522.377    23589529.532
        37.000          30.000
 20  5  2  1 56 30.0000000  0 10G 8G 7G 3R 1G27R 8G 9G16G 4G26
 123747661.97546  96426756.38045  23548392.253    23548391.652    23548400.516
        38.000          33.000
 120042315.45147  93539458.18646  22843290.152    22843290.050    22843293.617
        43.000          40.000
 128874599.18546 100421771.38944  24524021.667    24524022.046    24524029.240
        37.000          28.000
 105129138.120 8  81767128.181 6  19666578.669    19666590.185    19666597.918
        49.000          41.000
 118852651.00546  92612462.09046  22616902.275    22616903.011    22616909.292
        41.000          38.000
 119117648.552 6  92647050.166 6  22244376.519    22244376.852    22244380.758
        40.000          39.000
 108323949.29348  84408289.56448  20613357.805    20613357.650    20613362.844
        50.000          52.000
 110830457.14647  86361403.02946  21090332.920    21090332.392    21090335.669
        47.000          37.000
 107400808.94448  83688933.76847  20437684.342    20437684.468    20437688.701
        48.000          42.000
 124136452.99546  96729706.04645  23622381.272    23622380.425    23622387.983
        37.000          31.000
 20  5  2  1 57  0.0000000  0 10G 8G 7G 3R 1G27R 8G 9G16G 4G26
 123720203.90946  96405360.55245  23543167.574    23543167.004    23543174.846
        38.000          33.000
 120046375.77647  93542622.08646  22844062.720    22844062.532    22844066.222
        43.000          40.000
 129055223.47846 100562517.55444  24558393.222    24558394.176    24558400.476
        37.000          28.000
 105260660.539 8  81869423.377 6  19691183.717    19691193.924    19691201.514
        49.000          41.000
 118858200.48146  92616786.37546  22617959.171    22617959.132    22617965.614
        41.000          39.000
 119317899.528 6  92802800.855 6  22281771.356    22281773.823    22281776.746
        41.000          39.000
 108357758.77148  84434634.60148  20619791.422    20619791.316    20619796.613
        50.000          52.000
 110966703.37148  86467568.90346  21116260.045    21116259.246    21116262.411
        48.000          37.000
 107504247.49148  83769535.21347  20457368.128    20457368.221    20457372.440
        49.000          42.000
 124309242.37646  96864347.08445  23655261.927    23655261.590    23655268.502
        37.000          31.000
 20  5  2  1 57 30.0000000  0 10G 8G 7G 3R 1G27R 8G 9G16G 4G26
 123692879.97346  96384069.24945  23537967.613    23537967.543    23537974.953
        38.000          33.000
 120050526.08347  93545856.10246  22844852.536    22844852.407    22844855.959
        43.000          40.000
 129235815.97746 100703238.91344  24592759.347    24592760.326    24592767.255
        36.000          28.000
 105392881.104 8  81972261.568 6  19715916.924    19715928.905    19715936.262
        49.000          41.000
 118864182.83346  92621447.96046  22619097.157    22619097.810    22619103.892
        41.000          39.000
 119518397.125 6  92958743.377 6  22319214.042    22319214.731    22319218.573
        41.000          39.000
 108391998.62348  84461314.99548  20626307.096    20626306.888    20626312.337
        51.000          52.000
 111103406.05447  86574090.46046  21142273.573    21142272.918    21142275.818
        47.000          37.000
 107608140.30548  83850490.63447  20477138.219    20477138.358    20477142.586
        48.000          42.000
 124482155.12546  96999084.24545  23688166.121    23688165.816    23688173.047
        38.000          32.000
 20  5  2  1 58  0.0000000  0 10G 8G 7G 3R 1G27R 8G 9G16G 4G26
 123665698.42646  96362888.88545  23532794.709    23532794.807    23532802.654
        37.000          33.000
 120054772.09647  93549164.69346  22845660.510    22845660.368    22845663.971
        43.000          41.000
 129416379.22046 100843937.50644  24627120.171    24627120.066    24627126.932
        36.000          28.000
 105525803.275 8  82075645.452 6  19740783.296    19740794.617    19740801.981
        49.000          41.000
 118870606.35046  92626453.31846  22620319.905    22620319.746    22620326.387
        41.000          39.000
 119719142.879 6  93114878.911 6  22356701.177    22356702.594    22356706.282
        40.000          39.000
 108426675.99848  84488336.31748  20632905.826    20632905.754    20632911.187
        50.000          53.000
 111240567.74547  86680969.68446  21168374.505    21168374.101    21168377.283
        47.000          37.000
 107712492.77148  83931804.22547  20496995.865    20496995.958    20497000.137
        49.000          42.000
 124655194.33946  97133919.96245  23721094.601    23721094.262    23721101.494
        38.000          32.000
 20  5  2  1 58 30.0000000  0 10G 8G 7G 3R 1G27R 8G 9G16G 4G26
 123638654.82146  96341815.98745  23527648.428    23527648.925    23527655.904
        38.000          32.000
 120059106.15747  93552541.90046  22846485.311    22846485.095    22846488.659
        43.000          40.000
 129596902.67946 100984605.09344  24661471.267    24661472.377    24661479.188
        36.000          28.000
 105659416.830 8  82179567.084 6  19765778.802    19765789.719    19765797.091
        49.000          41.000
 118877466.08846  92631798.57946  22621625.531    22621625.295    22621631.794
        41.000          40.000
 119920125.271 6  93271198.493 6  22394232.912    22394234.209    22394237.504
        40.000          38.000
 108461784.78448  84515693.81148  20639586.861    20639586.799    20639592.148
        50.000          52.000
 111378178.12247  86788198.52346  21194560.842    21194560.157    21194563.616
        46.000          36.000
 107817296.91048  84013469.77746  20516939.455    20516939.440    20516943.753
        48.000          41.000
 124828349.80146  97268846.25245  23754044.795    23754045.006    23754052.042
        38.000          32.000
 20  5  2  1 59  0.0000000  0 10G 8G 7G 3R 1G27R 8G 9G16G 4G26
 123611750.59946  96320851.70645  23522528.280    23522528.351    23522536.157
        37.000          32.000
 120063526.99547  93555986.72046  22847326.440    22847326.226    22847330.077
        43.000          41.000
 129777381.81446 101125238.12344  24695816.792    24695816.369    24695823.794
        36.000          28.000
 105793718.141 8  82284023.638 6  19790902.359    19790913.658    19790921.082
        49.000          41.000
 118884763.17847  92637484.64346  22623014.442    22623013.957    22623020.452
        42.000          40.000
 120121339.175 6  93427698.159 6  22431808.713    22431808.861    22431812.761
        40.000          38.000
 108497324.97048  84543387.45648  20646350.131    20646349.999    20646355.222
        49.000          53.000
 111516232.73447  86895773.53946  21220831.695    21220831.363    21220834.423
        47.000          36.000
 107922550.91948  84095485.87546  20536968.652    20536968.641    20536972.869
        49.000          41.000
 125001617.49046  97403860.00545  23787017.408    23787016.289    23787023.601
        38.000          31.000
 20  5  2  1 59 30.0000000  0 10G 8G 7G 3R 1G27R 8G 9G16G 4G26
 123584960.89446  96299976.65245  23517430.845    23517430.582    23517438.019
        36.000          33.000
 120068006.89847  93559477.56546  22848178.690    22848178.826    22848182.609
        43.000          41.000
 129957785.87645 101265812.66644  24730146.014    24730146.634    24730153.299
        34.000          28.000
 105928676.268 8  82388991.049 6  19816149.439    19816160.043    19816167.803
        49.000          41.000
 118892472.51347  92643491.93646  22624480.633    22624480.828    22624487.356
        43.000          41.000
 120322752.422 6  93584352.865 6  22469420.095    22469422.267    22469424.999
        40.000          38.000
 108533270.25948  84571396.76948  20653190.383    20653190.267    20653195.399
        51.000          52.000
 111654700.78247  87003670.70946  21247181.361    21247181.115    21247183.913
        47.000          36.000
 108028226.64248  84177830.58446  20557077.944    20557078.014    20557082.324
        49.000          41.000
 125174967.10446  97538937.59645  23820004.122    23820003.884    23820011.151
        37.000          32.000
 20  5  2  2  0  0.0000000  0 10G 8G 7G 3R 1G27R 8G 9G16G 4G26
 123558322.02246  96279219.11945  23512361.297    23512361.519    23512369.122
        37.000          33.000
 120072578.91547  93563040.19546  22849048.779    22849049.043    22849052.645
        44.000          40.000
 130138145.22145 101406352.35744  24764467.399    24764467.694    24764474.573
        35.000          28.000
 106064322.910 8  82494493.967 6  19841524.473    19841536.019    19841543.756
        49.000          41.000
 118900630.11647  92649848.51346  22626032.885    22626032.958    22626039.537
        42.000          40.000
 120524394.856 6  93741185.814 6  22507075.055    22507077.500    22507080.458
        39.000          38.000
 108569655.55348  84599748.94248  20660114.181    20660114.262    20660119.257
        51.000          53.000
 111793612.90747  87111913.91546  21273615.494    21273615.157    21273618.139
        47.000          36.000
 108134357.11048  84260529.63846  20577273.735    20577274.014    20577278.403
        48.000          41.000
 125348429.53346  97674103.05745  23853012.664    23853012.407    23853020.320
        37.000          31.000
 20  5  2  2  0 30.0000000  0 10G 8G 7G 3R 1G27R 8G 9G16G 4G26
 123531841.62946  96258585.09045  23507322.432    23507322.218    23507330.398
        37.000          33.000
 120077247.49247  93566678.04046  22849937.255    22849937.325    22849940.945
        43.000          41.000
 130318461.20845 101546858.28444  24798780.421    24798780.647    24798787.432
        35.000          27.000
 106200659.684 8  82600533.655    19867029.384    19867040.618    19867049.194
        49.000           3.000
 118909242.81947  92656559.73946  22627671.877    22627672.348    22627678.176
        44.000          41.000
 120726267.625 6  93898197.902 3  22544774.682    22544775.853    22544778.924
        40.000          23.000
 108606486.55548  84628448.42448  20667122.907    20667122.829    20667127.911
        50.000          53.000
 111932970.28547  87220504.07746  21300134.625    21300134.009    21300137.167
        47.000          36.000
 108240946.22048  84343586.08246  20597557.028    20597557.274    20597561.514
        49.000          41.000
 125522006.49646  97809357.79345  23886043.328    23886042.965    23886050.642
        37.000          31.000
 20  5  2  2  1  0.0000000  0 10G 8G 7G 3R 1G27R 8G 9G16G 4G26
 123505500.98946  96238059.93445  23502309.555    23502310.114    23502318.217
        38.000          33.000
 120081990.84347  93570374.19646  22850840.127    22850839.965    22850843.341
        43.000          41.000
 130498709.15145 101687311.17244  24833080.555    24833080.437    24833088.436
        35.000          27.000
 106337662.282 8  82707091.212 1  19892658.429    19892669.344    19892676.719
        49.000           9.000
 118918291.56247  92663610.71346  22629394.279    22629394.299    22629400.404
        43.000          40.000
 120928343.972 6  94055368.374    22582511.186    22582512.193    22582520.572
        40.000           5.000
 108643743.02448  84657479.43348  20674212.579    20674212.478    20674217.586
        50.000          52.000
 112072748.29647  87329421.99546  21326733.135    21326732.723    21326736.072
        47.000          36.000
 108347971.86348  84426982.67847  20617923.503    20617923.641    20617927.850
        48.000          42.000
 125695673.79946  97944682.89745  23919091.596    23919091.119    23919099.062
        37.000          32.000
 20  5  2  2  1 30.0000000  0 10G 8G 7G 3R 1G27R 8G 9G16G 4G26
 121903893.43346  94990054.07245  23197534.186    23197533.741    23197542.572
        37.000          33.000
 118511400.56347  92346537.61946  22551966.212    22551966.553    22551970.031
        43.000          41.000
 129103483.33945 100600122.19344  24567578.085    24567577.949    24567585.293
        35.000          27.000
 104872781.216 8  81567739.263 1  19618622.250    19618633.209    19618642.031
        48.000           6.000
 117352370.42346  91443412.43446  22331409.059    22331409.096    22331415.569
        41.000          40.000
 119525263.960 6  92964083.797    22320496.602    22320497.227    22320503.720
        40.000           3.000
 107106018.90148  83459252.83848  20381593.517    20381593.248    20381598.440
        50.000          52.000
 110637540.07047  86211077.90946  21053621.997    21053621.550    21053624.901
        47.000          36.000
 106880028.42648  83283130.64946  20338583.115    20338583.163    20338587.668
        48.000          41.000
 124294025.94446  96852489.70745  23652365.742    23652366.548    23652373.602
        36.000          32.000
 20  5  2  2  2  0.0000000  0 10G 8G 7G 3R 1G27R 8G 9G16G 4G26
 121877848.18346  94969759.08545  23192578.226    23192578.366    23192585.843
        39.000          34.000
 118516301.26747  92350356.36746  22552899.147    22552899.086    22552902.666
        44.000          41.000
 129283593.51145 100740467.73944  24601850.615    24601851.646    24601858.882
        34.000          27.000
 105011114.491 8                  19644499.835
        48.000
 117362306.09247  91451154.53046  22333300.074    22333300.033    22333305.919
        43.000          40.000
 119727744.135 6                  22358307.093
        41.000
 107144137.85248  83488955.90948  20388846.989    20388847.025    20388852.228
        50.000          53.000
 110778157.85547  86320650.19845  21080380.620    21080380.203    21080383.361
        46.000          35.000
 106987933.05048  83367212.16346  20359116.617    20359116.771    20359121.239
        48.000          41.000
 124467873.57946  96987955.34145  23685448.722    23685448.323    23685455.763
        37.000          31.000
 20  5  2  2  2 30.0000000  0 10G 8G 7G 3R 1G27R 8G 9G16G 4G26
 121851952.74646  94949580.84345  23187650.170    23187649.997    23187657.391
        38.000          33.000
 118521278.25847  92354234.56046  22553846.762    22553846.272    22553849.690
        43.000          41.000
 129463627.83845 100880754.16244  24636111.026    24636110.757    24636118.587
        35.000          27.000
 105150106.734 8                  19670501.093
        48.000
 117372686.55047  91459243.21746  22335275.606    22335275.429    22335281.261
        43.000          40.000
 119930418.147 6  93279224.598 6  22396156.390    22396157.477    22396160.307
        40.000          38.000
 107182687.66548  83518994.71748  20396182.947    20396182.890    20396188.077
        50.000          52.000
 110919188.42347  86430544.14046  21107217.777    21107217.432    21107220.798
        47.000          36.000
 107096274.04447  83451633.71046  20379733.186    20379733.430    20379737.764
        47.000          41.000
 124641805.12246  97123486.38645  23718546.771    23718546.413    23718554.088
        37.000          30.000
 20  5  2  2  3  0.0000000  0 10G 8G 7G 3R 1G27R 8G 9G16G 4G26
 121826217.82646  94929527.68745  23182752.874    23182753.392    23182759.610
        39.000          33.000
 118526339.45047  92358178.35646  22554809.237    22554809.407    22554812.795
        44.000          41.000
 129643591.35945 101020985.43544  24670357.155    24670356.752    24670364.718
        35.000          27.000
 105289763.661 8  81892069.843 6  19696627.976    19696638.440    19696646.778
        49.000          41.000
 117383522.30447  91467686.66546  22337337.385    22337337.074    22337343.361
        43.000          40.000
 120133289.870 6  93437013.645 6  22434040.317    22434041.535    22434044.910
        39.000          38.000
 107221677.72548  83549376.57248  20403602.530    20403602.490    20403607.743
        50.000          53.000
 111060636.89347  86540763.71046  21134134.757    21134134.158    21134137.792
        47.000          36.000
 107205058.86748  83536401.10046  20400434.304    20400434.421    20400438.915
        48.000          41.000
 124815826.06046  97259087.06345  23751662.018    23751661.731    23751668.856
        37.000          31.000
 20  5  2  2  3 30.0000000  0 10G 8G 7G 3R 1G27R 8G 9G16G 4G26
 121800640.05846  94909597.00445  23177886.194    23177886.136    23177893.175
        39.000          34.000
 118531477.99547  92362182.43047  22555787.300    22555787.231    22555790.509
        44.000          42.000
 129823474.37545 101161153.96744  24704587.690    24704588.131    24704595.314
        35.000          27.000
 105430075.359 8  82001201.132 6  19722876.120    19722887.244    19722894.683
        49.000          41.000
 117394809.08947  91476481.57946  22339485.020    22339485.028    22339491.125
        43.000          40.000
 120336348.736 6  93594948.258 6  22471959.059    22471961.027    22471965.006
        39.000          38.000
 107261102.67348  83580097.29748  20411105.075    20411104.787    20411110.179
        50.000          53.000
 111202493.53947  86651301.34746  21161129.288    21161128.646    21161131.806
        47.000          36.000
 107314280.25447  83621508.67046  20421218.288    20421218.342    20421223.031
        47.000          40.000
 124989927.16846  97394750.23045  23784791.782    23784791.942    23784799.510
        37.000          31.000
 20  5  2  2  4  0.0000000  0  9G 8G 7R 1G27R 8G 9G16G 4G26
 121775227.75346  94889795.22845  23173050.415    23173050.277    23173057.238
        39.000          34.000
 118536699.14247  92366250.84547  22556781.213    22556780.908    22556784.245
        44.000          42.000
 105571044.528 8  82110843.791 6  19749247.122    19749258.248    19749265.496
        49.000          41.000
 117406554.76847  91485634.06746  22341719.892    22341719.936    22341726.258
        43.000          41.000
 120539596.350 6  93753029.673 6  22509915.166    22509916.591    22509920.279
        39.000          38.000
 107300969.25648  83611162.15848  20418691.199    20418691.150    20418696.438
        50.000          53.000
 111344760.60847  86762158.79546  21188202.022    21188201.481    21188204.741
        47.000          36.000
 107423943.14747  83706960.25846  20442086.215    20442086.648    20442091.261
        47.000          40.000
 125164111.30746  97530478.09845  23817938.100    23817938.146    23817945.336
        38.000          31.000
 20  5  2  2  4 30.0000000  0  9G 8G 7R 1G27R 8G 9G16G 4G26
 121749978.54246  94870120.55445  23168245.486    23168245.240    23168252.580
        38.000          34.000
 118541998.01447  92370379.84347  22557789.188    22557789.262    22557792.631
        44.000          42.000
 105712663.211 8  82220991.635 6  19775739.142    19775750.933    19775758.549
        48.000          41.000
 117418756.51447  91495141.94346  22344041.938    22344042.211    22344048.278
        44.000          41.000
 120743023.508 6  93911250.718 6  22547904.261    22547904.821    22547909.163
        39.000          38.000
 107341273.56148  83642568.10348  20426360.986    20426360.897    20426366.100
        50.000          53.000
 111487429.81147  86873329.58646  21215350.862    21215350.425    21215353.606
        46.000          36.000
 107534041.69147  83792751.32246  20463037.358    20463037.713    20463042.268
        47.000          41.000
 125338370.76346  97666264.64945  23851099.352    23851099.271    23851105.855
        38.000          31.000
 20  5  2  2  5  0.0000000  0  9G 8G 7R 1G27R 8G 9G16G 4G26
 121724898.68946  94850577.83345  23163472.946    23163472.917    23163480.257
        39.000          34.000
 118547377.88447  92374571.97147  22558812.907    22558812.971    22558816.427
        44.000          42.000
 105854932.052 8  82331645.137 6  19802353.524    19802365.141    19802372.985
        49.000          41.000
 117431420.30247  91505009.83846  22346451.647    22346452.053    22346458.209
        42.000          41.000
 120946629.856 6  94069611.144 6  22585926.547    22585927.074    22585930.800
        39.000          36.000
 107382020.47148  83674318.93048  20434114.809    20434114.776    20434119.956
        50.000          53.000
 111630501.81947  86984814.25046  21242576.755    21242576.137    21242579.280
        47.000          36.000
 107644578.86447  83878884.17646  20484071.975    20484072.247    20484076.851
        47.000          41.000
 125512706.61346  97802110.72545  23884274.127    23884273.747    23884281.598
        37.000          30.000
 20  5  2  2  5 30.0000000  0  9G 8G 7R 1G27R 8G 9G16G 4G26
 121700001.99846  94831177.84445  23158734.600    23158735.222    23158742.031
        39.000          34.000
 118552849.63647  92378835.68947  22559854.422    22559854.352    22559857.574
        45.000          42.000
 105997858.996 8  82442810.511 6  19829091.431    19829102.320    19829110.609
        48.000          41.000
 117444559.03847  91515247.83446  22348952.348    22348952.264    22348958.420
        43.000          40.000
 121150422.032 6  94228116.114 6  22623981.112    22623984.728    22623987.922
        39.000          37.000
 107423221.80248  83706423.85048  20441955.264    20441955.092    20441960.291
        51.000          53.000
 111773984.10347  87096618.61545  21269880.249    21269879.734    21269883.129
        47.000          35.000
 107755564.61147  83965366.55546  20505191.999    20505192.212    20505196.714
        47.000          40.000
 125687126.82446  97938022.53845  23917464.775    23917464.496    23917472.484
        37.000          30.000
 20  5  2  2  6  0.0000000  0  9G 8G 7R 1G27R 8G 9G16G 4G26
 121675289.85246  94811921.63645  23154032.526    23154032.627    23154039.816
        39.000          34.000
 118558411.38747  92383169.52647  22560912.471    22560912.627    22560915.780
        44.000          42.000
 106141439.297 8  82554484.049 6  19855950.213    19855962.118    19855969.996
        48.000          41.000
 117458173.34647  91525856.39446  22351542.954    22351542.979    22351548.901
        43.000          41.000
 121354394.619 6  94386761.413 6  22662073.935    22662074.147    22662078.434
        39.000          37.000
 107464877.10648  83738882.51948  20449881.916    20449881.821    20449887.071
        51.000          53.000
 111917871.91947  87208738.98345  21297261.467    21297260.935    21297263.963
        47.000          35.000
 107866996.62147  84052196.68746  20526396.848    20526397.022    20526401.477
        47.000          40.000
 125861627.20246  98073996.81045  23950671.314    23950670.772    23950678.196
        37.000          30.000
 20  5  2  2  6 30.0000000  0  9G 8G 7R 1G27R 8G 9G16G 4G26
 121650754.98846  94792803.59745  23149363.950    23149364.053    23149370.958
        39.000          35.000
 118564053.36947  92387565.89247  22561986.667    22561986.213    22561989.398
        45.000          42.000
 106285659.971 8  82666655.665 6  19882929.512    19882942.064    19882949.516
        48.000          41.000
 117472255.83647  91536829.78346  22354222.866    22354222.806    22354228.701
        43.000          41.000
 121558533.721 6  94545536.212 6  22700196.309    22700195.968    22700199.791
        38.000          37.000
 107506977.83448  83771688.26948  20457893.438    20457893.391    20457898.578
        50.000          53.000
 112062152.04247  87321165.03945  21324717.075    21324716.841    21324719.524
        47.000          35.000
 107978864.35548  84139366.33046  20547684.281    20547684.736    20547689.343
        48.000          41.000
 126036195.45045  98210023.96444  23983890.702    23983890.359    23983897.670
        35.000          29.000
