     2.11           OBSERVATION DATA    G (GPS)             RINEX VERSION / TYPE
teqc  2008Oct2                          20220511 04:14:55UTCPGM / RUN BY / DATE
MSXP|IAx86-PII|bcc32 5.0|MSWin95->XP|486/DX+                COMMENT
BIT 2 OF LLI FLAGS DATA COLLECTED UNDER A/S CONDITION       COMMENT
NtRSkaza                                                    MARKER NAME
kaza                                                        MARKER NUMBER
-Unknown-           -Unknown-                               OBSERVER / AGENCY
4752143407          TRIMBLE NETRS       NP 1.32 / SP 0.00   REC # / TYPE / VERS
30895097            TRM55971.00                             ANT # / TYPE
  1325807.2570  4606495.8222  4195524.6386                  APPROX POSITION XYZ
        0.1705        0.0000        0.0000                  ANTENNA: DELTA H/E/N
     1     1                                                WAVELENGTH FACT L1/2
     7    L1    L2    C1    P2    P1    S1    S2            # / TYPES OF OBSERV
 SNR is mapped to RINEX snr flag value [0-9]                COMMENT
  L1 & L2: min(max(int(snr_dBHz/6), 0), 9)                  COMMENT
  2020     5     3     0     0    0.0000000     GPS         TIME OF FIRST OBS
                                                            END OF HEADER
 20  5  3  0  0  0.0000000  0  9G16G 6G22G 9G 4G26G 3G14G31
 -20214624.75947 -16044135.54646  21172842.7894   21172835.2854
        47.0004         37.0004
  -1689912.76146  -1318227.00045  25166000.7814   25165996.7344
        38.0004         30.0004
 -20118518.55947 -15656156.38546  22030507.8914   22030498.4774
        47.5004         36.2504
  -9625599.64346  -7479609.32346  23723416.4924   23723411.9734
        40.2504         38.2504
 -23706245.28147 -18458460.92946  21162988.7034   21162982.4224
        46.5004         36.5004
 -21086980.25048 -16544609.32348  20930684.8524   20930680.2854
        49.0004         50.0004
 -23341038.33547 -18172145.19248  20788122.4844   20788117.9184
        47.5004         51.7504
  -6867975.26546  -5156129.21843  23990576.1884   23990569.9924
        38.2504         20.0004
 -12048593.56547  -9238047.48546  22864792.9454   22864785.2234
        45.0004         41.7504
 20  5  3  0  0 30.0000000  0  9G16G 6G22G 9G 4G26G 3G14G31
 -20284823.54347 -16098835.88946  21159484.4774   21159476.7034
        47.5004         36.2504
  -1698146.69346  -1324643.08744  25164434.4224   25164429.9884
        37.5004         29.7504
 -20041374.26947 -15596043.96246  22045187.9224   22045178.3634
        46.7504         36.0004
  -9716026.07946  -7550071.43646  23706209.2814   23706204.2384
        40.7504         38.5004
 -23760791.05247 -18500964.12246  21152609.2584   21152602.5434
        45.5004         37.0004
 -21076139.09848 -16536161.67748  20932747.8984   20932743.2194
        48.7504         50.2504
 -23304118.61947 -18143376.59648  20795148.1484   20795143.6294
        47.7504         52.0004
  -6789214.93246  -5094757.58843  24005564.0084   24005557.7074
        37.5004         19.0004
 -11957835.49547  -9167326.96147  22882063.6884   22882055.7114
        44.7504         42.0004
 20  5  3  0  1  0.0000000  0  9G16G 6G22G 9G 4G26G 3G14G31
 -20354486.36547 -16153118.60846  21146228.0394   21146220.1374
        46.5004         36.5004
  -1705851.36946  -1330646.76545  25162967.9064   25162963.7304
        38.0004         30.0004
 -19963863.89747 -15535646.29746  22059937.6724   22059928.4104
        46.5004         36.0004
  -9806405.01646  -7620496.58446  23689008.9384   23689005.4144
        39.7504         38.2504
 -23815107.76847 -18543288.82946  21142273.1484   21142266.1174
        46.2504         36.5004
 -21064684.62047 -16527236.11448  20934927.8054   20934922.9264
        47.2504         50.0004
 -23266631.08948 -18114165.54348  20802281.8914   20802277.1214
        48.0004         51.5004
  -6710303.55946  -5033268.20243  24020581.3444   24020573.5164
        38.7504         21.0004
 -11866985.95247  -9096535.15647  22899351.5084   22899344.1214
        45.2504         42.0004
 20  5  3  0  1 30.0000000  0  9G16G 6G22G 9G 4G26G 3G14G31
 -20423611.66547 -16206982.47346  21133073.9224   21133066.0744
        47.5004         37.0004
  -1713028.05046  -1336239.03044  25161602.6094   25161597.1914
        37.5004         29.5004
 -19885990.65447 -15474965.87245  22074756.3834   22074747.0984
        47.2504         35.5004
  -9896736.41546  -7690884.66046  23671820.9064   23671816.2894
        40.7504         38.7504
 -23869195.27147 -18585434.93246  21131980.4304   21131973.6334
        46.0004         37.0004
 -21052618.47548 -16517833.93148  20937223.7034   20937219.2934
        48.7504         50.0004
 -23228577.91548 -18084513.73148  20809522.7344   20809518.3794
        48.0004         51.5004
  -6631242.52846  -4971662.23943  24035625.7114   24035619.1254
        39.7504         22.2504
 -11776047.45447  -9025674.02646  22916656.3204   22916648.6804
        44.2504         41.2504
 20  5  3  0  2  0.0000000  0  9G16G 6G22G 9G 4G26G 3G14G31
 -20492196.77547 -16260425.42446  21120022.3524   21120015.0904
        47.5004         36.2504
  -1719677.22946  -1341420.23245  25160337.3204   25160332.2194
        36.7504         30.2504
 -19807757.21147 -15414004.76146  22089643.8594   22089634.2234
        47.0004         36.0004
  -9987019.42346  -7761235.05346  23654640.0474   23654635.2424
        40.7504         38.5004
 -23923052.44447 -18627401.55046  21121731.7894   21121725.0634
        46.0004         36.7504
 -21039941.51548 -16507955.79448  20939635.6414   20939631.5594
        48.5004         50.0004
 -23189960.39648 -18054422.17648  20816871.6724   20816867.0784
        48.0004         51.5004
  -6552032.27646  -4909940.03443  24050699.4614   24050692.5634
        39.7504         22.5004
 -11685021.84547  -8954745.02946  22933978.2974   22933970.7034
        44.2504         41.2504
 20  5  3  0  2 30.0000000  0  9G16G 6G22G 9G 4G26G 3G14G31
 -20560239.34147 -16313445.60846  21107074.6644   21107066.9224
        47.5004         37.2504
  -1725798.82546  -1346190.34745  25159172.3284   25159167.5864
        36.7504         30.0004
 -19729165.28247 -15352764.31145  22104599.8524   22104590.1054
        46.5004         35.2504
 -10077252.60946  -7831546.60846  23637470.5164   23637464.3874
        41.2504         38.0004
 -23976677.70247 -18669187.46146  21111527.2894   21111520.8364
        46.0004         36.2504
 -21026654.09748 -16497601.96848  20942164.5004   20942159.5864
        48.7504         50.0004
 -23150779.36748 -18023891.51448  20824327.7344   20824322.8794
        48.0004         51.5004
  -6472672.84446  -4848101.54343  24065800.5004   24065793.8324
        38.5004         22.5004
 -11593910.43847  -8883749.14746  22951316.3444   22951308.4774
        44.0004         41.5004
 20  5  3  0  3  0.0000000  0  9G16G 6G22G 9G 4G26G 3G14G31
 -20627736.58247 -16366040.85746  21094230.0634   21094222.6884
        47.5004         36.5004
  -1731392.85046  -1350549.36345  25158108.5314   25158103.0984
        37.0004         30.0004
 -19650216.54847 -15291245.83345  22119622.8524   22119613.3444
        46.7504         35.5004
 -10167434.74546  -7901818.38646  23620309.4534   23620303.1214
        41.7504         38.0004
 -24030069.55747 -18710791.49946  21101366.8754   21101360.7854
        45.7504         37.0004
 -21012756.66248 -16486772.80548  20944809.1804   20944804.5084
        48.2504         50.2504
 -23111035.78748 -17992922.50348  20831890.4224   20831885.9144
        48.0004         51.5004
  -6393164.56546  -4786147.12643  24080930.8674   24080924.4574
        38.2504         21.0004
 -11502714.57147  -8812687.48446  22968670.4454   22968662.0164
        44.2504         41.0004
 20  5  3  0  3 30.0000000  0  9G16G 6G22G 9G 4G26G 3G14G31
 -20694685.89548 -16418209.15946  21081490.0004   21081482.7774
        48.0004         36.7504
  -1736459.54946  -1354497.48045  25157143.2974   25157139.1024
        36.0004         30.2504
 -19570913.46147 -15229451.24145  22134713.7114   22134704.0664
        46.7504         35.5004
 -10257564.55246  -7972049.42946  23603157.0164   23603151.9804
        40.0004         37.5004
 -24083226.61447 -18752212.58046  21091251.7814   21091245.0634
        46.7504         36.5004
 -20998249.84248 -16475468.79448  20947569.5864   20947564.9574
        49.2504         50.0004
 -23070730.74847 -17961515.99548  20839560.4224   20839555.6914
        47.7504         51.5004
  -6313507.25746  -4724076.56343  24096089.6484   24096082.4804
        37.5004         19.7504
 -11411435.71447  -8741561.12946  22986039.9064   22986031.9304
        45.0004         40.7504
 20  5  3  0  4  0.0000000  0  9G16G 6G22G 9G 4G26G 3G14G31
 -20761085.26847 -16469948.92346  21068854.6884   21068846.9654
        47.2504         37.0004
  -1740999.81646  -1358035.39045  25156279.7194   25156274.8634
        37.5004         30.2504
 -19491258.90047 -15167382.77145  22149871.7194   22149862.1914
        47.0004         35.5004
 -10347641.56846  -8042239.28246  23586016.5784   23586011.7624
        41.0004         38.2504
 -24136148.10047 -18793450.09146  21081180.9454   21081174.2854
        46.5004         37.2504
 -20983134.94748 -16463690.96248  20950445.7504   20950441.8404
        48.5004         50.0004
 -23029866.04248 -17929673.37848  20847336.9144   20847332.2304
        48.7504         51.5004
  -6233701.83846  -4661890.63543  24111276.0084   24111268.9224
        37.7504         19.5004
 -11320075.96547  -8670371.75546  23003425.7734   23003417.1134
        45.0004         41.5004
 20  5  3  0  4 30.0000000  0  9G16G 6G22G 9G 4G26G 3G14G31
 -20826932.15747 -16521258.19746  21056324.4454   21056316.8014
        47.0004         37.0004
  -1745013.99646  -1361163.35645  25155515.5704   25155511.5944
        38.5004         30.2504
 -19411255.04947 -15105042.12345  22165095.5944   22165086.2584
        47.2504         35.2504
 -10437664.62346  -8112387.09046  23568885.2424   23568881.1524
        41.2504         39.2504
 -24188832.77247 -18834503.07746  21071155.3914   21071148.9304
        46.5004         36.7504
 -20967412.74948 -16451439.90248  20953438.0394   20953433.2384
        48.2504         50.0004
 -22988442.88748 -17897395.60648  20855219.2894   20855214.4304
        48.5004         51.5004
  -6153748.71646  -4599589.54843  24126490.7344   24126483.3054
        39.0004         21.2504
 -11228637.21247  -8599120.79846  23020825.6884   23020817.6024
        44.5004         40.7504
 20  5  3  0  5  0.0000000  0  9G16G 6G22G 9G 4G26G 3G14G31
 -20892224.20947 -16572135.12346  21043899.6564   21043892.0594
        47.7504         37.5004
  -1748502.29346  -1363881.55745  25154851.2194   25154847.9104
        37.2504         30.0004
 -19330904.05747 -15042430.98445  22180386.0394   22180376.7464
        47.0004         34.5004
 -10527632.38946  -8182491.83346  23551764.9534   23551760.5164
        40.7504         39.5004
 -24241279.07747 -18875370.32246  21061175.1094   21061168.5634
        47.0004         37.0004
 -20951083.87948 -16438716.12248  20956545.0164   20956540.4064
        48.5004         50.0004
 -22946462.37248 -17864683.53848  20863207.7344   20863203.3094
        49.2504         51.5004
  -6073648.27746  -4537173.60743  24141732.4384   24141725.9264
        38.7504         19.7504
 -11137120.40147  -8527809.03246  23038240.1414   23038232.8244
        43.5004         40.5004
 20  5  3  0  5 30.0000000  0  9G16G 6G22G 9G 4G26G 3G14G31
 -20956958.58247 -16622577.49246  21031581.5164   21031573.7194
        47.7504         37.5004
  -1751464.70046  -1366189.96345  25154288.8054   25154284.0554
        37.2504         30.5004
 -19250208.04647 -14979550.99045  22195742.1094   22195732.3014
        46.7504         34.7504
 -10617543.44346  -8252552.34346  23534656.7734   23534651.0944
        41.7504         40.0004
 -24293485.40447 -18916050.58446  21051240.6564   21051233.9454
        46.7504         36.7504
 -20934148.76048 -16425519.93548  20959767.7734   20959763.2384
        49.0004         50.0004
 -22903925.45948 -17831537.89748  20871302.2114   20871297.4844
        48.7504         51.5004
  -5993400.08246  -4474642.58543  24157004.2274   24156996.6524
        39.2504         20.7504
 -11045526.97447  -8456437.57046  23055669.5554   23055662.2274
        43.7504         40.0004
 20  5  3  0  6  0.0000000  0  9G16G 6G22G 9G 4G26G 3G14G31
 -21021132.78547 -16672583.36046  21019369.4384   21019361.2854
        47.0004         37.7504
  -1753901.72946  -1368089.00545  25153824.4304   25153820.5204
        36.5004         30.5004
 -19169169.01447 -14916403.71545  22211163.4614   22211153.9924
        46.5004         34.7504
 -10707396.71346  -8322567.86146  23517557.1954   23517552.6024
        41.5004         39.5004
 -24345450.50547 -18956542.85746  21041351.9304   21041345.5434
        47.5004         36.7504
 -20916608.33348 -16411852.07448  20963105.5234   20963101.2774
        48.0004         50.0004
 -22860833.49248 -17797959.75148  20879502.8834   20879497.7934
        49.2504         51.5004
  -5913004.79146  -4411996.96543  24172302.4454   24172295.3364
        37.7504         19.7504
 -10953858.66247  -8385007.75646  23073114.5164   23073106.2774
        44.0004         40.2504
 20  5  3  0  6 30.0000000  0  9G16G 6G22G 9G 4G26G 3G14G31
 -21084744.75847 -16722151.13446  21007264.5084   21007256.4144
        46.5004         37.2504
  -1755813.77146  -1369578.95345  25153461.3984   25153456.3364
        37.0004         30.2504
 -19087789.29547 -14852990.96345  22226649.8054   22226640.0314
        47.2504         34.5004
 -10797191.01546  -8392537.42646  23500470.1884   23500464.4534
        41.5004         38.5004
 -24397172.99447 -18996846.09946  21031509.3594   21031502.9064
        47.2504         36.5004
 -20898463.36748 -16397713.15548  20966558.5164   20966553.9384
        49.2504         50.0004
 -22817187.70248 -17763950.05848  20887807.6484   20887803.4384
        49.2504         51.5004
  -5832462.79046  -4349237.03843  24187628.7034   24187622.7154
        37.2504         20.0004
 -10862116.64147  -8313520.49746  23090572.2424   23090564.6724
        44.2504         40.5004
 20  5  3  0  7  0.0000000  0  9G16G 6G22G 9G 4G26G 3G14G31
 -21147791.78547 -16771278.68946  20995267.1884   20995259.1884
        47.0004         37.5004
  -1757201.34146  -1370660.19745  25153196.4384   25153192.7734
        37.2504         30.7504
 -19006071.41647 -14789314.71645  22242199.9774   22242190.1644
        47.0004         34.0004
 -10886925.18646  -8462460.13246  23483394.1724   23483389.4304
        40.7504         38.5004
 -24448651.60147 -19036959.30346  21021713.7344   21021706.8714
        46.2504         36.7504
 -20879714.85947 -16383103.93848  20970126.2344   20970121.6644
        47.7504         50.0004
 -22772989.52948 -17729509.93548  20896218.6174   20896213.9844
        49.2504         51.5004
  -5751774.22846  -4286362.95843  24202984.0394   24202976.9694
        38.2504         21.5004
 -10770302.63247  -8241977.15646  23108043.1484   23108035.9614
        43.5004         40.5004
 20  5  3  0  7 30.0000000  0  9G16G 6G22G 9G 4G26G 3G14G31
 -21210271.88447 -16819964.49146  20983377.2504   20983369.8364
        47.0004         37.0004
  -1758065.13146  -1371333.34445  25153032.7114   25153028.3364
        37.5004         31.7504
 -18924017.88747 -14725376.92145  22257813.6644   22257804.4774
        46.2504         35.5004
 -10976598.30846  -8532335.27346  23466329.7974   23466324.7664
        40.7504         38.0004
 -24499885.20647 -19076881.58846  21011964.0704   21011957.8444
        46.7504         36.7504
 -20860363.85248 -16368025.24548  20973808.4534   20973803.7734
        49.0004         50.0004
 -22728240.51448 -17694640.58248  20904733.9694   20904729.2934
        50.0004         51.2504
  -5670939.82846  -4223375.16843  24218365.5234   24218359.3404
        37.5004         20.2504
 -10678418.36447  -8170379.05846  23125528.9144   23125521.0164
        44.0004         40.5004
 20  5  3  0  8  0.0000000  0  9G16G 6G22G 9G 4G26G 3G14G31
 -21272182.27947 -16868206.35146  20971596.6564   20971588.6564
        46.5004         37.7504
  -1758405.35346  -1371598.49245  25152967.9534   25152964.0514
        37.5004         31.5004
 -18841630.70947 -14661179.14845  22273491.9384   22273482.2234
        46.2504         34.7504
 -11066208.91446  -8602161.70346  23449276.9844   23449272.3714
        41.2504         38.7504
 -24550872.15747 -19116611.68046  21002261.5704   21002255.0084
        46.2504         37.0004
 -20840411.02048 -16352477.59148  20977605.4844   20977601.0164
        48.0004         50.0004
 -22682941.75248 -17659342.87048  20913354.4304   20913349.4534
        49.0004         51.2504
  -5589959.52946  -4160273.72643  24233776.4224   24233769.5784
        40.0004         20.0004
 -10586465.02547  -8098727.15346  23143026.3594   23143018.5744
        43.5004         39.7504
 20  5  3  0  8 30.0000000  0  9G16G 6G22G 9G 4G26G 3G14G31
 -21333521.46047 -16916003.12746  20959923.7034   20959915.7814
        47.0004         37.5004
  -1758223.25246  -1371456.66745  25153002.8984   25152997.8554
        37.5004         30.5004
 -18758913.15347 -14596723.92545  22289232.5784   22289222.8674
        45.7504         34.7504
 -11155756.51546  -8671939.04946  23432236.2974   23432231.9774
        41.0004         39.7504
 -24601611.91947 -19156149.15146  20992605.7974   20992599.3954
        46.7504         37.2504
 -20819858.11847 -16336462.34948  20981516.2034   20981512.1724
        47.5004         50.0004
 -22637095.40948 -17623618.45648  20922078.1644   20922073.7974
        48.2504         51.2504
  -5508834.27446  -4097059.28243  24249214.0784   24249207.5314
        40.2504         20.2504
 -10494444.73447  -8027023.05746  23160537.3984   23160529.8554
        43.0004         40.0004
 20  5  3  0  9  0.0000000  0  9G16G 6G22G 9G 4G26G 3G14G31
 -21394286.37647 -16963352.40846  20948360.7664   20948352.9654
        47.0004         37.7504
  -1757518.28846  -1370907.37645  25153136.6174   25153132.2304
        38.0004         30.5004
 -18675866.16047 -14532012.01045  22305036.1414   22305026.4884
        46.0004         35.2504
 -11245238.87847  -8741665.53546  23415209.4064   23415204.3404
        42.2504         40.5004
 -24652101.97947 -19195492.04746  20982997.9064   20982991.5784
        46.0004         37.5004
 -20798704.91248 -16319979.34248  20985541.7194   20985537.4344
        48.5004         50.0004
 -22590701.76948 -17587467.57448  20930906.7734   20930902.3164
        49.7504         51.2504
  -5427563.42746  -4033731.39543  24264680.0474   24264672.7304
        40.2504         19.2504
 -10402357.97247  -7955267.18346  23178061.5864   23178053.7194
        43.7504         40.0004
 20  5  3  0  9 30.0000000  0  9G16G 6G22G 9G 4G26G 3G14G31
 -21454475.13447 -17010252.74946  20936907.2664   20936899.5824
        47.5004         37.0004
  -1756291.57646  -1369951.50845  25153370.1484   25153365.4734
        36.7504         30.2504
 -18592492.97147 -14467045.90145  22320900.9694   22320891.7154
        46.5004         34.5004
 -11334655.31446  -8811340.66646  23398193.3284   23398189.1804
        41.2504         40.5004
 -24702341.54147 -19234639.76046  20973437.8674   20973431.4694
        47.0004         37.2504
 -20776952.97048 -16303029.79048  20989681.1414   20989676.9104
        48.2504         50.0004
 -22543762.84648 -17550891.80448  20939838.9224   20939834.4574
        49.5004         51.2504
  -5346148.22846  -3970291.00943  24280171.7034   24280165.2504
        37.2504         18.5004
 -10310206.68647  -7883461.01046  23195596.7974   23195589.4304
        43.5004         40.0004
 20  5  3  0 10  0.0000000  0  9G16G 6G22G 9G 4G26G 3G14G31
 -21514084.78847 -17056701.82846  20925563.9614   20925555.8634
        46.7504         37.5004
  -1754543.05446  -1368589.05845  25153702.7664   25153698.4104
        37.2504         31.5004
 -18508794.95947 -14401826.68745  22336828.5634   22336818.8134
        45.7504         34.0004
 -11424004.04546  -8880963.01346  23381191.2424   23381186.2854
        41.7504         40.0004
 -24752328.68047 -19273590.77546  20963925.8914   20963919.1644
        46.2504         37.5004
 -20754602.81048 -16285614.08948  20993934.1414   20993929.7344
        48.0004         50.0004
 -22496279.51548 -17513891.82348  20948874.8914   20948870.3444
        49.2504         51.2504
  -5264587.79246  -3906737.48042  24295693.0864   24295685.8874
        37.5004         17.2504
 -10217991.75047  -7811605.25546  23213144.9614   23213137.4574
        43.0004         40.0004
 20  5  3  0 10 30.0000000  0  9G16G 6G22G 9G 4G26G 3G14G31
 -21573114.44247 -17102698.96346  20914330.6024   20914322.8834
        47.5004         37.7504
  -1752274.52046  -1366821.39845  25154134.7274   25154130.6094
        37.2504         31.0004
 -18424775.37847 -14336356.90045  22352816.3284   22352807.0274
        46.5004         34.0004
 -11513284.95046  -8950532.53446  23364201.4924   23364196.5904
        41.2504         39.5004
 -24802063.12047 -19312344.88146  20954461.5314   20954455.0274
        47.2504         38.0004
 -20731656.49548 -16267733.85448  20998301.0784   20998296.6094
        48.2504         50.0004
 -22448254.32548 -17476469.60848  20958013.9454   20958008.8594
        49.0004         51.0004
  -5182884.04446  -3843072.28443  24311240.6954   24311233.7034
        37.7504         19.2504
 -10125715.64747  -7739701.83546  23230704.5084   23230697.1254
        43.0004         39.7504
 20  5  3  0 11  0.0000000  0  9G16G 6G22G 9G 4G26G 3G14G31
 -21631563.09347 -17148243.36546  20903208.5634   20903200.8874
        47.2504         37.5004
  -1749487.83946  -1364649.98645  25154665.4924   25154660.8634
        36.0004         31.5004
 -18340438.50547 -14270639.87645  22368865.9144   22368856.1094
        45.5004         34.0004
 -11602498.04847  -9020049.20946  23347225.2114   23347219.2934
        42.0004         39.5004
 -24851544.75747 -19350902.00146  20945045.7344   20945038.6334
        46.2504         38.2504
 -20708116.35647 -16249390.90248  21002780.0474   21002775.6954
        47.7504         50.0004
 -22399690.13248 -17438627.39948  20967255.3914   20967250.6644
        48.0004         51.0004
  -5101038.36545  -3779296.50143  24326813.7814   24326808.4184
        34.7504         20.7504
 -10033381.35447  -7667753.09646  23248275.5704   23248267.4924
        43.5004         39.2504
 20  5  3  0 11 30.0000000  0  9G16G 6G22G 9G 4G26G 3G14G31
 -21689424.25347 -17193329.99046  20892197.6644   20892190.0704
        46.7504         37.7504
  -1746179.42446  -1362072.02745  25155294.0164   25155290.5394
        37.0004         32.0004
 -18255782.28647 -14204674.00945  22384975.2504   22384965.5664
        46.5004         33.5004
 -11691637.89746  -9089508.84246  23330261.1884   23330256.4844
        41.0004         39.5004
 -24900768.07947 -19389257.83646  20935678.2274   20935671.7234
        47.0004         37.7504
 -20683979.33947 -16230582.84548  21007373.8364   21007369.0944
        47.7504         50.0004
 -22350584.15048 -17400363.00648  20976600.2584   20976595.3754
        48.7504         51.0004
  -5019047.46946  -3715407.62043  24342418.4614   24342410.4844
        37.5004         19.5004
  -9940985.97347  -7595756.73646  23265857.2114   23265850.1644
        43.0004         40.0004
 20  5  3  0 12  0.0000000  0  9G16G 6G22G 9G 4G26G 3G14G31
 -21746698.37847 -17237959.18546  20881298.5474   20881290.7734
        47.2504         37.5004
  -1742352.48646  -1359090.00645  25156023.1334   25156018.5164
        37.0004         32.5004
 -18170811.81647 -14138463.26745  22401144.0314   22401134.4414
        45.2504         34.0004
 -11780705.82146  -9158912.41346  23313313.1644   23313307.5704
        41.0004         39.2504
 -24949734.19047 -19427413.24546  20926360.5234   20926353.9144
        46.5004         37.5004
 -20659249.02948 -16211312.47948  21012079.6174   21012075.0514
        48.0004         50.2504
 -22300940.51648 -17361679.67248  20986046.4774   20986042.2384
        48.7504         51.0004
  -4936913.60046  -3651407.33343  24358048.4924   24358041.3754
        38.7504         21.0004
  -9848533.13247  -7523715.60046  23283450.7274   23283443.6024
        43.0004         39.5004
 20  5  3  0 12 30.0000000  0  9G16G 6G22G 9G 4G26G 3G14G31
 -21803383.06647 -17282129.06546  20870511.8914   20870504.4344
        47.2504         37.2504
  -1738007.50246  -1355704.32645  25156850.0864   25156845.5124
        37.2504         31.7504
 -18085528.88847 -14072009.05945  22417373.0004   22417363.7544
        46.2504         34.0004
 -11869700.15346  -9228258.62646  23296377.7894   23296372.8284
        41.2504         39.5004
 -24998441.40947 -19465366.91946  20917092.0164   20917085.3054
        46.5004         37.0004
 -20633926.24448 -16191580.44648  21016898.2734   21016893.7344
        48.0004         50.0004
 -22250760.40748 -17322578.30048  20995595.7584   20995591.1214
        48.5004         51.0004
  -4854636.55346  -3587295.39343  24373704.8594   24373697.3914
        38.5004         18.5004
  -9756024.24947  -7451630.81046  23301055.2504   23301047.2154
        43.2504         39.5004
 20  5  3  0 13  0.0000000  0  9G16G 6G22G 9G 4G26G 3G14G31
 -21859476.27747 -17325838.07046  20859838.2504   20859830.0084
        46.5004         37.2504
  -1733145.17446  -1351915.51745  25157775.0554   25157770.6334
        36.7504         31.5004
 -17999935.92047 -14005313.26145  22433661.3204   22433651.5984
        45.5004         33.7504
 -11958619.76346  -9297546.63046  23279456.6644   23279452.2814
        40.7504         39.7504
 -25046888.41647 -19503117.84246  20907872.8834   20907866.1054
        47.0004         37.7504
 -20608012.25547 -16171387.73048  21021829.4774   21021825.1914
        47.5004         50.0004
 -22200045.55148 -17283060.25348  21005246.3834   21005241.8524
        48.5004         51.0004
  -4772217.55046  -3523072.78943  24389388.6954   24389381.2664
        38.2504         18.5004
  -9663460.62147  -7379503.34846  23318668.9064   23318661.5904
        42.5004         39.5004
 20  5  3  0 13 30.0000000  0  9G16G 6G22G 9G 4G26G 3G14G31
 -21914975.57447 -17369084.27346  20849276.6804   20849268.5944
        46.7504         37.5004
  -1727766.03746  -1347723.98045  25158798.1564   25158794.2974
        37.0004         31.5004
 -17914035.16847 -13938377.62545  22450007.2814   22449997.9024
        45.7504         34.0004
 -12047463.13946  -9366775.18746  23262551.0784   23262545.8484
        41.2504         40.5004
 -25095073.60047 -19540664.73346  20898703.5394   20898696.8244
        47.2504         38.0004
 -20581507.94947 -16150735.03248  21026873.5234   21026868.9264
        47.0004         50.0004
 -22148797.23548 -17243126.50148  21014998.6414   21014993.7854
        48.0004         50.7504
  -4689656.71145  -3458739.76942  24405097.6334   24405091.8364
        35.5004         17.2504
  -9570843.45847  -7307334.17446  23336293.7894   23336286.0744
        43.5004         39.5004
 20  5  3  0 14  0.0000000  0  9G16G 6G22G 9G 4G26G 3G14G31
 -21969878.23747 -17411865.57046  20838829.1804   20838821.1174
        47.2504         37.7504
  -1721870.22846  -1343129.87145  25159920.0164   25159916.0474
        36.7504         31.7504
 -17827828.59147 -13871203.69545  22466412.4454   22466402.3244
        45.7504         33.5004
 -12136228.44546  -9435942.94546  23245659.2734   23245654.2894
        41.5004         40.0004
 -25142995.03747 -19578006.12246  20889584.3594   20889577.5864
        47.5004         37.7504
 -20554414.02547 -16129622.89048  21032028.2894   21032024.4654
        47.7504         50.0004
 -22097016.56248 -17202777.94548  21024852.0554   21024847.3244
        49.0004         51.0004
  -4606953.44246  -3394295.85443  24420836.8054   24420830.1414
        37.7504         19.0004
  -9478173.67147  -7235123.99546  23353927.9844   23353920.1414
        42.5004         39.0004
 20  5  3  0 14 30.0000000  0  9G16G 6G22G 9G 4G26G 3G14G31
 -22024184.60547 -17454182.22346  20828494.7274   20828486.8054
        47.0004         38.2504
  -1715460.65946  -1338135.38245  25161140.4924   25161136.2774
        38.0004         30.7504
 -17741320.52847 -13803794.83545  22482873.7114   22482864.4264
        45.2504         33.7504
 -12224916.33547  -9505050.38346  23228781.9844   23228777.5554
        42.0004         40.5004
 -25190653.24947 -19615142.39446  20880515.0554   20880508.5594
        47.0004         38.0004
 -20526733.58847 -16108053.72048  21037296.2584   21037291.8794
        47.0004         50.0004
 -22044707.14548 -17162017.37448  21034806.0634   21034802.0474
        48.0004         50.7504
  -4524110.14446  -3329742.50142  24436602.0004   24436594.3954
        40.2504         17.2504
  -9385454.53147  -7162875.34446  23371572.1254   23371564.5044
        43.2504         39.0004
 20  5  3  0 15  0.0000000  0  9G16G 6G22G 9G 4G26G 3G14G31
 -22077890.87247 -17496031.26346  20818275.1334   20818267.2774
        47.0004         38.0004
  -1708536.38446  -1332739.86745  25162457.7344   25162453.4734
        36.7504         30.0004
 -17654511.88747 -13736151.76945  22499393.4614   22499383.9024
        45.5004         33.0004
 -12313523.98947  -9574095.29546  23211921.3204   23211915.9924
        42.0004         40.7504
 -25238045.31547 -19652071.28046  20871496.8444   20871490.3164
        47.7504         37.2504
 -20498466.41647 -16086027.35548  21042675.2814   21042670.9144
        47.0004         49.7504
 -21991869.07248 -17120844.86248  21044860.9064   21044856.4804
        48.5004         51.0004
  -4441125.66946  -3265079.38743  24452392.0314   24452386.8554
        38.2504         19.7504
  -9292685.63447  -7090587.92446  23389224.7664   23389217.9224
        43.0004         39.0004
 20  5  3  0 15 30.0000000  0  9G16G 6G22G 9G 4G26G 3G14G31
 -22130994.82847 -17537410.96646  20808169.5784   20808161.9734
        47.7504         38.0004
  -1701098.46646  -1326944.11145  25163873.9774   25163869.5234
        38.2504         31.7504
 -17567405.35147 -13668276.56445  22515969.1954   22515959.6804
        45.5004         33.5004
 -12402050.13347  -9643076.70546  23195075.1954   23195070.0434
        42.0004         40.2504
 -25285169.92247 -19688791.75446  20862529.3364   20862523.0314
        47.0004         38.0004
 -20469613.73547 -16063544.75848  21048166.1094   21048161.3754
        47.0004         49.7504
 -21938504.09948 -17079261.78648  21055016.0704   21055011.3484
        48.0004         50.7504
  -4358000.41046  -3200306.55343  24468210.8834   24468204.2894
        38.5004         20.2504
  -9199868.68547  -7018263.08946  23406887.6564   23406880.0044
        42.5004         38.7504
 20  5  3  0 16  0.0000000  0  9G16G 6G22G 9G 4G26G 3G14G31
 -22183495.79248 -17578320.81246  20798179.2894   20798171.5904
        48.0004         38.0004
  -1693148.38846  -1320749.26545  25165386.8134   25165382.1214
        39.0004         32.0004
 -17480003.66747 -13600171.37945  22532600.8914   22532591.3674
        45.0004         33.5004
 -12490494.14947  -9711994.10446  23178244.8054   23178240.2504
        42.0004         40.5004
 -25332026.41247 -19725303.30246  20853612.9144   20853606.4184
        47.7504         37.5004
 -20440177.69147 -16040607.58248  21053767.5164   21053762.7074
        47.0004         49.7504
 -21884614.65348 -17037270.01748  21065270.9144   21065266.0864
        48.2504         50.7504
  -4274735.87146  -3135425.21943  24484056.5314   24484050.2464
        40.5004         21.7504
  -9107005.53047  -6945902.23046  23424559.1414   23424551.5204
        43.0004         38.7504
 20  5  3  0 16 30.0000000  0  9G16G 6G22G 9G 4G26G 3G14G31
 -22235390.88948 -17618758.55046  20788303.8834   20788296.1994
        48.0004         38.2504
  -1684686.48246  -1314155.56545  25166994.7814   25166992.1414
        36.2504         30.7504
 -17392308.72147 -13531837.67245  22549289.3984   22549279.5394
        45.5004         33.2504
 -12578854.16347  -9780846.02846  23161430.7424   23161425.6524
        42.2504         40.5004
 -25378612.65747 -19761604.27046  20844747.8444   20844741.0394
        47.7504         37.0004
 -20410158.85447 -16017216.27948  21059480.0784   21059475.4884
        47.0004         49.7504
 -21830201.78247 -16994870.39948  21075625.2424   21075620.8634
        47.5004         50.5004
  -4191331.75146  -3070435.06242  24499926.3524   24499920.5904
        36.2504         17.7504
  -9014097.03647  -6873506.04146  23442238.7974   23442231.8244
        42.5004         39.0004
 20  5  3  0 17  0.0000000  0  9G16G 6G22G 9G 4G26G 3G14G31
 -22286677.38748 -17658722.05946  20778544.4774   20778536.5664
        48.5004         38.0004
  -1675712.75946  -1307163.09445  25168704.7424   25168699.9064
        37.7504         32.2504
 -17304322.54847 -13463277.03745  22566032.2274   22566022.8284
        45.0004         33.0004
 -12667128.08547  -9849630.88146  23144632.5394   23144627.5514
        42.0004         41.2504
 -25424926.60347 -19797693.06446  20835934.5314   20835928.2624
        47.2504         38.0004
 -20379557.85847 -15993371.34848  21065302.9384   21065298.6484
        47.0004         49.7504
 -21775266.51548 -16952063.70848  21086079.2584   21086074.8984
        48.5004         51.0004
  25825192.63255  20319064.46352  24515823.9924   24515819.2234
        32.7504         15.5004
  -8921143.80347  -6801074.99646  23459927.7114   23459920.8364
        42.7504         39.0004
 20  5  3  0 17 30.0000000  0  9G16G 6G22G 9G 4G26G 3G14G31
 -22337355.17647 -17698211.24846  20768900.6954   20768893.2584
        47.7504         38.0004
  -1666229.96446  -1299773.91545  25170509.2734   25170503.7584
        39.0004         31.7504
 -17216049.23447 -13394492.65345  22582829.7894   22582820.1414
        45.2504         32.5004
 -12755316.16747  -9918348.85046  23127851.0084   23127846.5274
        42.0004         41.2504
 -25470968.50648 -19833569.87446  20827172.8364   20827166.7734
        48.0004         37.5004
 -20348377.73347 -15969075.15248  21071236.3364   21071232.0314
        47.2504         49.5004
 -21719812.28247 -16908852.63548  21096631.7504   21096626.9614
        47.2504         50.5004
  25908874.97646  20384271.33943  24531749.1334   24531744.1334
        37.2504         20.2504
  -8828148.62947  -6728611.27046  23477623.8054   23477616.3554
        42.5004         38.2504
 20  5  3  0 18  0.0000000  0  9G16G 6G22G 9G 4G26G 3G14G31
 -22387421.96047 -17737224.32046  20759373.5234   20759365.6024
        47.0004         38.0004
  -1656238.42546  -1291988.30845  25172409.9454   25172405.9654
        37.5004         31.5004
 -17127490.34447 -13325485.75845  22599682.0784   22599672.6844
        44.5004         33.0004
 -12843416.56547  -9986998.51046  23111086.2504   23111080.9264
        43.0004         41.7504
 -25516736.39347 -19869233.16646  20818463.6954   20818457.1844
        47.7504         38.0004
 -20316619.32947 -15944328.34748  21077279.5234   21077275.5744
        47.0004         49.7504
 -21663840.32947 -16865238.13748  21107282.6954   21107278.6524
        47.0004         50.5004
  25992695.43146  20449585.89443  24547701.0084   24547693.6524
        38.5004         19.5004
  -8735112.12547  -6656115.33746  23495328.3364   23495320.5704
        42.5004         38.5004
 20  5  3  0 18 30.0000000  0  9G16G 6G22G 9G 4G26G 3G14G31
 -22436875.52347 -17775759.56646  20749962.5084   20749954.9304
        47.7504         37.5004
  -1645738.72446  -1283806.77245  25174407.7584   25174403.7504
        37.5004         31.7504
 -17038648.07747 -13256258.04545  22616588.3914   22616578.9414
        45.2504         32.7504
 -12931427.60947 -10055578.53446  23094338.6414   23094332.4614
        42.7504         40.5004
 -25562228.48347 -19904681.55346  20809807.0394   20809800.4184
        47.7504         37.2504
 -20284283.63047 -15919131.70448  21083432.9774   21083428.6884
        47.5004         49.5004
 -21607352.03347 -16821221.29648  21118032.1724   21118027.8244
        47.0004         50.5004
  26076654.036 5                  24563676.000
        35.000
  -8642035.35847  -6583588.03746  23513040.3364   23513032.6254
        42.7504         38.2504
 20  5  3  0 19  0.0000000  0 10G16G 6G22G 9G 4G26G 7G 3G14G31
 -22485714.03947 -17813815.55146  20740669.0944   20740661.1414
        47.5004         38.0004
  -1634731.93746  -1275230.06645  25176502.5864   25176498.3054
        37.0004         31.5004
 -16949525.22247 -13186811.68945  22633548.2734   22633538.4654
        45.0004         32.7504
 -13019348.03847 -10124087.94746  23077607.4064   23077601.8954
        42.0004         40.5004
 -25607443.46647 -19939914.01346  20801202.8364   20801196.3164
        46.7504         38.0004
 -20251372.21247 -15893486.45348  21089695.8444   21089691.4734
        47.2504         49.5004
   -772026.20555   -545084.95453  25463551.9924   25463543.9964
        32.2504         20.0004
 -21550349.36747 -16776803.65248  21128879.5314   21128874.8444
        47.5004         50.5004
  26160750.05046  20468989.49353  24579679.8444   24579672.7664
        38.0004         20.7504
  -8548919.74547  -6511030.45546  23530759.8674   23530752.1524
        43.2504         38.2504
 20  5  3  0 19 30.0000000  0 10G16G 6G22G 9G 4G26G 7G 3G14G31
 -22533936.70947 -17851391.66046  20731492.4844   20731484.8634
        47.2504         38.5004
  -1623220.26246  -1266259.94245  25178693.4454   25178688.5314
        36.0004         30.5004
 -16860125.20547 -13117149.36845  22650560.2194   22650550.7424
        45.0004         32.7504
 -13107177.54746 -10192526.50446  23060893.6254   23060888.5784
        41.5004         41.0004
 -25652381.02647 -19974930.29246  20792651.2114   20792644.9264
        46.2504         38.0004
 -20217887.52348 -15867394.48648  21096068.1094   21096063.5514
        48.0004         49.5004
   -855936.28245   -610469.42743  25447584.0234   25447576.0594
        34.0004         22.5004
 -21492835.20747 -16731987.43748  21139824.2814   21139819.4574
        47.5004         50.5004
  26244981.95946  20534624.67343  24595709.2664   24595702.7584
        38.2504         19.2504
  -8455768.07647  -6438444.77546  23548485.6564   23548478.2934
        42.5004         38.0004
 20  5  3  0 20  0.0000000  0 10G16G 6G22G 9G 4G26G 7G 3G14G31
 -22581539.88547 -17888485.04846  20722433.9304   20722425.8524
        47.7504         37.5004
  -1611202.54646  -1256895.51445  25180979.8444   25180974.9384
        37.5004         30.5004
 -16770448.41647 -13047271.36945  22667625.0234   22667615.5824
        44.5004         32.0004
 -13194912.64947 -10260891.50446  23044198.2344   23044193.2704
        42.0004         41.2504
 -25697037.68147 -20009727.68646  20784153.4064   20784147.3594
        47.0004         37.5004
 -20183829.05447 -15840855.43148  21102549.3054   21102544.6254
        47.2504         49.5004
   -939764.67746   -675790.30044  25431631.5944   25431624.5084
        36.0004         27.0004
 -21434809.37347 -16686772.51748  21150866.2274   21150861.6484
        47.2504         50.5004
  26329351.84345  20600367.35943  24611764.3204   24611757.8754
        35.0004         18.5004
  -8362578.98447  -6365829.92946  23566218.9694   23566211.8404
        42.7504         38.7504
 20  5  3  0 20 30.0000000  0 10G16G 6G22G 9G 4G26G 7G 3G14G31
 -22628522.41848 -17925094.81446  20713493.7034   20713485.5704
        48.0004         38.5004
  -1598680.48546  -1247138.07745  25183362.1644   25183359.0354
        37.5004         31.2504
 -16680497.88147 -12977180.06845  22684742.2114   22684732.4734
        45.0004         32.5004
 -13282552.59047 -10329182.36846  23027520.2814   23027515.8324
        42.5004         41.7504
 -25741412.53047 -20044305.50946  20775709.6174   20775703.0004
        46.7504         37.5004
 -20149198.77547 -15813870.80448  21109138.7974   21109134.2304
        47.7504         49.5004
  -1023512.15146   -741048.09944  25415696.1254   25415688.2934
        37.0004         28.0004
 -21376274.26047 -16641160.75548  21162005.3284   21162000.6804
        47.0004         50.2504
  26413858.25545  20666216.36542  24627844.5394   24627839.7114
        33.2504         16.2504
  -8269354.51647  -6293187.52746  23583959.2344   23583951.7704
        42.0004         38.2504
 20  5  3  0 21  0.0000000  0 10G16G 6G22G 9G 4G26G 7G 3G14G31
 -22674882.85448 -17961219.82446  20704671.1644   20704663.5234
        48.0004         38.0004
  -1585655.43946  -1236988.73045  25185842.0084   25185837.7154
        37.7504         31.2504
 -16590276.92347 -12906878.03945  22701910.9844   22701901.1054
        45.0004         33.0004
 -13370096.31347 -10397398.23447  23010861.9844   23010856.8554
        42.7504         42.2504
 -25785504.64947 -20078662.99846  20767319.0004   20767312.5004
        46.2504         37.2504
 -20113998.62447 -15786442.12148  21115837.3984   21115832.6054
        47.0004         49.5004
  -1107178.40246   -806242.61545  25399773.9614   25399766.8554
        38.0004         30.2504
 -21317232.19047 -16595153.95848  21173240.2734   21173235.2974
        46.7504         50.2504
  26498500.35545  20732171.22042  24643952.2894   24643947.0004
        33.5004         14.7504
  -8176096.43546  -6220518.95046  23601705.2034   23601698.5944
        41.7504         38.0004
 20  5  3  0 21 30.0000000  0 10G16G 6G22G 9G 4G26G 7G 3G14G31
 -22720619.68348 -17996858.91746  20695967.8594   20695959.9264
        48.7504         38.7504
  -1572128.72946  -1226448.45044  25188415.3284   25188411.1524
        38.0004         29.5004
 -16499787.61447 -12836366.92045  22719130.6954   22719121.0554
        45.0004         32.5004
 -13457542.52647 -10465538.12446  22994221.4304   22994216.5394
        43.0004         41.5004
 -25829312.60447 -20112799.06346  20758982.1954   20758976.1134
        47.2504         38.0004
 -20078230.20247 -15758570.63448  21122643.7034   21122639.5394
        47.2504         49.5004
  -1190763.54246   -871373.93245  25383868.6254   25383861.1414
        38.7504         30.2504
 -21257685.15547 -16548753.68248  21184571.7274   21184567.0274
        47.0004         50.2504
  26583277.70046  20798231.37142  24660084.2034   24660079.3834
        37.0004         15.5004
  -8082805.59346  -6147824.83146  23619458.1644   23619450.8714
        41.5004         38.2504
 20  5  3  0 22  0.0000000  0 10G16G 6G22G 9G 4G26G 7G 3G14G31
 -22765731.42648 -18032010.92746  20687383.5084   20687375.5744
        49.0004         38.7504
  -1558101.38946  -1215518.09945  25191084.8594   25191080.5904
        37.5004         31.2504
 -16409032.68447 -12765648.82545  22736400.5164   22736390.8364
        45.0004         33.5004
 -13544889.91847 -10533601.01346  22977599.9534   22977594.9304
        42.5004         41.5004
 -25872835.06047 -20146712.67046  20750699.9844   20750693.5984
        47.2504         37.5004
 -20041894.97947 -15730257.47748  21129558.2814   21129553.8484
        47.0004         49.5004
  -1274266.74746   -936441.39245  25367977.9774   25367971.4144
        38.0004         31.5004
 -21197635.11947 -16501961.46448  21195998.9924   21195993.9884
        47.2504         50.0004
  26668189.42545  20864396.30043  24676243.4454   24676237.3594
        35.0004         18.2504
  -7989483.57947  -6075106.42346  23637217.2424   23637209.5274
        42.2504         37.5004
 20  5  3  0 22 30.0000000  0 10G16G 6G22G 9G 4G26G 7G 3G14G31
 -22810215.83348 -18066674.10046  20678918.1804   20678910.5554
        48.0004         38.7504
  -1543574.34245  -1204198.33745  25193848.8674   25193845.4344
        35.0004         31.0004
 -16318014.29047 -12694725.42045  22753720.0394   22753711.1484
        44.5004         32.0004
 -13632136.48847 -10601585.34746  22960997.2664   22960991.9884
        42.7504         41.2504
 -25916070.25047 -20180402.44046  20742472.9304   20742466.2114
        47.0004         37.7504
 -20004994.36848 -15701503.76848  21136580.1094   21136575.6994
        48.2504         49.5004
  -1357687.70046  -1001444.77145  25352103.8054   25352096.8444
        37.5004         31.2504
 -21137083.59947 -16454778.48648  21207521.7894   21207517.3324
        47.7504         50.0004
  26753236.12545  20930666.32442  24692426.7504   24692421.3134
        33.5004         16.2504
  -7896131.40247  -6002364.51446  23654981.1334   23654974.0664
        42.5004         37.7504
 20  5  3  0 23  0.0000000  0 10G16G 6G22G 9G 4G26G 7G 3G14G31
 -22854071.70548 -18100847.51546  20670573.2344   20670565.1174
        48.2504         38.0004
  -1528548.97646  -1192490.32845  25196708.7894   25196704.0004
        36.5004         31.5004
 -16226735.51447 -12623599.12945  22771090.5164   22771081.2344
        44.0004         32.0004
 -13719281.51547 -10669490.55546  22944414.1024   22944408.4064
        43.0004         41.7504
 -25959017.05147 -20213867.47646  20734300.8204   20734293.5354
        46.7504         38.5004
 -19967530.24748 -15672310.95048  21143709.4304   21143704.8204
        48.0004         49.5004
  -1441026.50246  -1066384.10944  25336245.6334   25336237.6054
        36.0004         28.5004
 -21076033.05347 -16407206.64548  21219139.1954   21219134.0314
        47.0004         50.0004
  26838416.50046  20997040.55142  24708635.6644   24708630.7274
        37.2504         15.5004
  -7802750.33647  -5929600.09446  23672750.7664   23672743.7234
        42.0004         37.2504
 20  5  3  0 23 30.0000000  0 10G16G 6G22G 9G 4G26G 7G 3G14G31
 -22897297.50148 -18134529.94946  20662347.3364   20662339.6094
        48.0004         38.5004
  -1513026.54146  -1180394.93645  25199661.4534   25199658.0594
        36.0004         30.7504
 -16135199.05647 -12552272.04045  22788509.6414   22788499.8554
        44.7504         31.7504
 -13806323.48347 -10737315.47146  22927850.6564   22927844.9454
        42.7504         41.5004
 -26001674.10047 -20247106.73046  20726183.3134   20726176.4534
        47.0004         37.7504
 -19929504.17148 -15642680.24848  21150945.5234   21150941.1844
        48.0004         49.5004
  -1524282.04546  -1131258.59744  25320402.3444   25320395.0864
        36.5004         28.5004
 -21014485.37147 -16359247.42448  21230851.4534   21230846.8484
        47.0004         50.0004
  26923730.38846  21063518.97342  24724870.7584   24724865.4064
        37.7504         14.7504
  -7709341.74547  -5856814.22546  23690526.8204   23690518.8714
        43.2504         38.0004
 20  5  3  0 24  0.0000000  0 10G16G 6G22G 9G 4G26G 7G 3G14G31
 -22939891.57348 -18167720.13746  20654241.7034   20654233.9414
        48.0004         38.5004
  -1497008.05045  -1167913.02145  25202709.9304   25202706.2274
        35.5004         30.7504
 -16043406.53547 -12480745.42145  22805977.0314   22805967.2384
        44.5004         31.5004
 -13893260.66947 -10805058.73346  22911306.7894   22911301.6644
        42.0004         41.5004
 -26044039.72247 -20280118.90346  20718121.3444   20718114.5904
        46.5004         37.2504
 -19890917.60548 -15612612.80948  21158288.1954   21158283.6174
        48.0004         49.2504
  -1607454.62246  -1196068.45344  25304574.7034   25304567.8054
        38.0004         28.2504
 -20952442.37647 -16310902.25148  21242657.2734   21242652.9844
        47.5004         50.0004
  27009177.01546  21130100.75342  24741131.2664   24741124.9964
        37.2504         14.7504
  -7615906.85347  -5784007.88446  23708306.6884   23708298.6994
        42.7504         37.5004
 20  5  3  0 24 30.0000000  0 10G16G 6G22G 9G 4G26G 7G 3G14G31
 -22981852.54948 -18200417.00246  20646256.9614   20646249.4884
        48.2504         38.0004
  -1480494.91746  -1155045.68645  25205852.2034   25205848.1174
        37.0004         31.0004
 -15951361.20047 -12409021.79945  22823492.5554   22823482.9924
        44.5004         32.2504
 -13980091.84647 -10872719.37047  22894784.6254   22894778.5314
        43.0004         42.0004
 -26086112.81647 -20312903.14446  20710115.1484   20710108.8204
        47.5004         38.0004
 -19851772.45147 -15582110.10048  21165737.4384   21165732.8834
        47.2504         49.0004
  -1690543.45246  -1260813.08045  25288763.7114   25288756.5984
        37.7504         30.5004
 -20889906.33347 -16262172.88448  21254557.9694   21254553.3484
        46.5004         50.0004
  27094756.07645  21196785.70042  24757416.6094   24757410.2114
        32.7504         16.2504
  -7522446.85946  -5711181.95946  23726091.0234   23726083.8484
        41.5004         37.2504
 20  5  3  0 25  0.0000000  0  9G16G 6G22G 9G 4G26G 7G 3G31
 -23023177.29447 -18232618.09646  20638392.7664   20638385.0634
        47.5004         38.0004
  -1463486.68946  -1141792.53645  25209088.8594   25209085.0434
        36.7504         30.7504
 -15859063.88447 -12337101.84945  22841056.1254   22841046.6844
        44.5004         32.0004
 -14066813.87447 -10940294.97147  22878281.3054   22878276.0514
        43.5004         42.5004
 -26127890.06947 -20345456.84946  20702164.9614   20702158.6914
        46.5004         38.0004
 -19812068.53547 -15551171.99248  21173292.6094   21173288.2734
        47.2504         49.0004
  -1773547.08746  -1325491.26945  25272968.0234   25272961.5274
        37.2504         30.0004
 -20826877.48347 -16213059.51948  21266552.0164   21266547.3874
        47.0004         50.0004
  -7428961.11047  -5638335.94346  23743879.9844   23743873.5514
        42.0004         36.7504
 20  5  3  0 25 30.0000000  0 10G16G 6G22G 9G 4G26G 7G 3G14G31
 -23063868.75048 -18264325.72646  20630650.0314   20630641.9774
        48.2504         38.0004
  -1445988.97046  -1128157.99845  25212419.2814   25212415.6254
        36.7504         31.2504
 -15766521.49547 -12264990.91145  22858665.9534   22858656.8134
        44.5004         32.0004
 -14153429.69347 -11007787.80947  22861798.8914   22861793.4964
        43.5004         42.5004
 -26169374.53847 -20377782.40346  20694270.9144   20694264.0784
        47.0004         38.0004
 -19771812.01748 -15519803.28848  21180952.8834   21180948.6914
        48.0004         49.0004
  -1856469.58246  -1390106.21044  25257189.1724   25257181.9614
        37.0004         28.2504
 -20763362.29947 -16163567.17948  21278638.6254   21278633.8634
        47.5004         50.0004
  28841724.58656  22438597.51153  24790061.8984   24790056.3014
        37.0004         18.5004
  -7335455.22647  -5565474.26946  23761675.1254   23761667.1804
        42.0004         36.7504
 20  5  3  0 26  0.0000000  0 10G16G 6G22G 9G 4G26G 7G 3G14G31
 -23103920.72448 -18295535.05446  20623028.0164   20623020.1254
        48.0004         38.5004
  -1427998.51546  -1114139.48145  25215842.8284   25215838.1334
        37.5004         31.2504
 -15673731.96147 -12192687.40745  22876323.4144   22876314.3204
        44.7504         32.2504
 -14239933.18747 -11075193.12247  22845337.5084   22845332.0984
        43.2504         42.2504
 -26210560.18647 -20409875.11646  20686433.2034   20686427.2034
        47.2504         38.5004
 -19730999.94047 -15488001.68048  21188719.5314   21188715.1764
        47.0004         49.0004
  -1939305.08546  -1454653.39244  25241426.3284   25241418.6994
        39.0004         29.2504
 -20699358.28947 -16113693.93648  21290817.9844   21290813.6174
        47.0004         50.0004
  28927698.32746  22505589.97443  24806422.4454   24806415.9534
        38.0004         19.2504
  -7241925.92746  -5492594.32946  23779471.8674   23779464.9574
        41.7504         36.5004
 20  5  3  0 26 30.0000000  0 10G16G 6G22G 9G 4G26G 7G 3G14G31
 -23143333.59147 -18326246.37746  20615528.3284   20615520.0434
        47.7504         38.0004
  -1409518.43846  -1099739.40145  25219359.6884   25219355.3524
        37.0004         31.0004
 -15580699.41847 -12120194.55045  22894026.8054   22894017.4774
        45.0004         32.0004
 -14326324.67647 -11142511.16247  22828897.6564   22828892.2544
        43.0004         42.5004
 -26251447.35647 -20441735.24646  20678652.9844   20678646.7344
        46.7504         38.2504
 -19689635.84948 -15455769.92648  21196590.9534   21196586.4024
        48.0004         48.7504
  -2022055.65646  -1519134.44144  25225679.3364   25225672.2734
        38.0004         29.0004
 -20634869.23047 -16063442.74648  21303090.4614   21303085.2704
        47.0004         49.7504
  29013802.69745  22572684.22242  24822807.4384   24822801.9414
        33.0004         16.2504
  -7148375.89747  -5419698.25146  23797275.4534   23797267.6174
        43.0004         37.0004
 20  5  3  0 27  0.0000000  0 10G16G 6G22G 9G 4G26G 7G 3G14G31
 -23182105.85448 -18356458.53146  20608150.0394   20608142.2704
        48.0004         38.7504
  -1390549.54646  -1084958.48845  25222968.8594   25222964.9804
        38.2504         31.0004
 -15487426.41647 -12047514.30245  22911776.3754   22911767.0044
        44.5004         31.7504
 -14412602.25747 -11209740.42046  22812479.4224   22812474.1254
        42.5004         41.7504
 -26292034.15047 -20473361.31846  20670929.3674   20670923.4344
        47.5004         38.2504
 -19647721.05747 -15423109.06348  21204566.7344   21204562.7154
        47.7504         48.7504
  -2104720.66146  -1583548.77144  25209948.7114   25209941.3834
        36.2504         28.5004
 -20569896.88947 -16012814.95848  21315453.5704   21315449.1804
        47.5004         49.7504
  29100037.39845  22639879.95842  24839217.0704   24839213.3834
        34.0004         14.7504
  -7054805.98347  -5346786.65046  23815081.1804   23815073.2274
        42.0004         37.5004
 20  5  3  0 27 30.0000000  0 10G16G 6G22G 9G 4G26G 7G 3G14G31
 -23220237.02147 -18386171.12346  20600893.9924   20600885.9384
        46.7504         38.5004
  -1371094.40246  -1069798.66245  25226671.0554   25226667.3554
        36.5004         31.0004
 -15393916.09947 -11974649.13645  22929571.1724   22929561.1804
        44.5004         32.5004
 -14498765.64547 -11276880.70247  22796083.2114   22796077.8244
        43.0004         42.2504
 -26332320.33947 -20504753.15546  20663263.3364   20663256.8794
        45.7504         38.5004
 -19605258.48147 -15390021.34848  21212647.0634   21212642.8714
        47.5004         48.7504
  -2187301.14346  -1647897.23845  25194234.1644   25194226.8834
        38.2504         31.2504
 -20504444.47547 -15961813.09248  21327909.2814   21327904.6644
        47.2504         49.5004
  29186400.80346  22670135.13652  24855650.8054   24855644.4104
        36.5004         16.7504
  -6961218.28746  -5273861.21045  23832889.5394   23832881.4964
        41.5004         35.7504
 20  5  3  0 28  0.0000000  0 10G16G 6G22G 9G 4G26G 7G 3G14G31
 -23257724.62447 -18415382.24546  20593760.1644   20593752.3094
        47.7504         38.5004
  -1351153.10346  -1054260.01445  25230465.6884   25230461.8714
        36.2504         31.5004
 -15300170.20047 -11901600.41645  22947410.5004   22947400.5784
        45.0004         31.0004
 -14584812.03647 -11343929.82047  22779708.9694   22779703.9064
        43.0004         43.0004
 -26372303.18047 -20535908.61746  20655654.9694   20655647.9884
        47.7504         38.5004
 -19562248.57647 -15356507.14748  21220831.6414   21220827.3634
        47.5004         48.7504
  -2269795.08646  -1712178.29144  25178536.1954   25178529.2194
        37.0004         29.2504
 -20438512.86347 -15910437.82748  21340455.2344   21340450.8054
        47.0004         49.5004
  29272893.59346  22737532.12642  24872110.7274   24872103.7894
        37.2504         17.7504
  -6867613.12046  -5200922.14546  23850701.6644   23850695.0824
        41.2504         36.7504
 20  5  3  0 28 30.0000000  0 10G16G 6G22G 9G 4G26G 7G 3G14G31
 -23294567.20447 -18444090.74546  20586749.7344   20586741.3324
        47.5004         38.7504
  -1330727.09246  -1038343.67045  25234352.4614   25234348.7504
        36.5004         31.0004
 -15206191.38047 -11828370.18745  22965293.8134   22965284.4304
        44.5004         31.5004
 -14670739.97647 -11410886.64047  22763357.5864   22763351.9734
        43.5004         43.0004
 -26411981.33947 -20566826.66446  20648104.3134   20648098.0394
        47.5004         38.7504
 -19518693.28148 -15322567.96148  21229120.7034   21229115.9614
        48.2504         48.7504
  -2352202.23446  -1776391.70744  25162854.3754   25162847.3914
        37.2504         29.7504
 -20372104.33647 -15858690.93548  21353092.3914   21353087.8954
        46.7504         49.5004
  29359515.31345  22805029.46442  24888594.2344   24888588.5044
        34.5004         15.5004
  -6773991.31946  -5127970.15446  23868517.6174   23868510.2664
        41.5004         36.0004
 20  5  3  0 29  0.0000000  0 10G16G 6G22G 9G 4G26G 7G 3G14G31
 -23330764.47447 -18472296.41146  20579861.1564   20579853.2894
        47.5004         38.5004
  -1309818.59446  -1022051.33644  25238330.9534   25238327.8094
        36.0004         29.5004
 -15111982.77047 -11754960.90545  22983220.9694   22983211.4184
        44.5004         30.7504
 -14756548.68947 -11477750.55747  22747028.4694   22747023.5084
        43.5004         43.0004
 -26451354.07947 -20597506.72546  20640611.7894   20640605.4024
        47.5004         39.0004
 -19474595.06248 -15288205.72748  21237511.8364   21237507.2544
        48.7504         48.5004
  -2434523.14346  -1840537.89945  25147189.7424   25147182.7034
        39.0004         32.0004
 -20305221.69747 -15806574.61248  21365819.9694   21365814.9304
        47.2504         49.5004
  29446264.58245  22872626.14442  24905101.2584   24905097.0164
        34.2504         14.7504
  -6680354.72046  -5055006.60346  23886335.9224   23886329.2194
        41.0004         36.2504
 20  5  3  0 29 30.0000000  0 10G16G 6G22G 9G 4G26G 7G 3G14G31
 -23366314.66147 -18499997.84846  20573096.6484   20573088.7464
        47.5004         38.5004
  -1288428.39645  -1005383.66845  25242401.1024   25242399.0044
        35.2504         30.5004
 -15017546.47147 -11681374.20845  23001191.3054   23001182.0164
        44.5004         31.0004
 -14842236.14347 -11544519.98847  22730723.2814   22730717.3594
        44.5004         43.0004
 -26490419.44347 -20627947.27746  20633177.9614   20633171.5944
        47.2504         38.7504
 -19429955.20248 -15253421.43648  21246006.2894   21246001.9264
        48.5004         48.5004
  -2516756.80146  -1904616.09744  25131540.2584   25131533.5474
        36.7504         28.2504
 -20237866.59247 -15754090.12848  21378636.8444   21378632.2304
        47.5004         49.5004
  29533141.398 5                  24921635.227
        32.500
  -6586703.83246  -4982031.92546  23904157.1564   23904150.2274
        41.0004         37.2504
 20  5  3  0 30  0.0000000  0 10G16G 6G22G 9G 4G26G 7G 3G14G31
 -23401214.63147 -18527192.62546  20566454.7344   20566447.4734
        46.7504         39.5004
  -1266556.09146   -988340.35245  25246563.6334   25246560.5044
        37.7504         31.0004
 -14922883.46147 -11607610.82945  23019204.9614   23019196.0434
        44.0004         30.2504
 -14927798.95547 -11611192.29147  22714440.8754   22714435.6334
        43.0004         43.2504
 -26529174.14147 -20658145.74846  20625803.2584   20625796.4414
        47.2504         38.7504
 -19384773.80948 -15218215.16548  21254604.2584   21254600.0124
        48.0004         48.5004
  -2598901.42046  -1968624.96145  25115909.3754   25115902.1564
        38.0004         30.7504
 -20170039.45947 -15701237.83548  21391544.3754   21391539.5474
        47.2504         49.2504
                                  24938190.641
        31.500
  -6493038.24846  -4909045.82346  23921980.4304   23921974.3594
        41.2504         36.7504
 20  5  3  0 30 30.0000000  0 10G16G 6G22G 9G 4G26G 7G 3G14G31
 -23435468.87247 -18553884.24146  20559936.7734   20559928.7814
        47.0004         38.7504
  -1244209.04346   -970927.11445  25250816.7894   25250813.0234
        36.0004         30.0004
 -14828001.76647 -11533677.05745  23037260.5554   23037251.3484
        44.5004         30.5004
 -15013241.31847 -11677770.73847  22698181.0314   22698176.6524
        44.0004         43.2504
 -26567622.50747 -20688105.51446  20618486.6414   20618480.4024
        47.0004         38.5004
 -19339058.37948 -15182592.75948  21263303.6724   21263299.0314
        48.5004         48.5004
  -2680962.01846  -2032568.29645  25100293.9224   25100286.7774
        36.2504         30.0004
 -20101748.16447 -15648023.84648  21404539.7114   21404535.0394
        47.2504         49.2504
  29707275.217 5                  24954771.195
        34.000
  -6399364.73346  -4836053.49046  23939806.3054   23939799.8714
        40.5004         36.5004
 20  5  3  0 31  0.0000000  0 10G16G 6G22G 9G 4G26G 7G 3G14G31
 -23469070.66547 -18580067.45346  20553542.3364   20553534.6214
        47.2504         39.0004
  -1221383.06246   -953140.66245  25255159.5634   25255157.2854
        36.5004         31.5004
 -14732898.28047 -11459570.46945  23055358.0084   23055348.8714
        43.7504         30.2504
 -15098556.10447 -11744249.76147  22681946.3524   22681941.7234
        42.7504         43.5004
 -26605757.46747 -20717821.08446  20611229.9774   20611223.5744
        47.5004         38.5004
 -19292805.23648 -15146551.36048  21272105.3444   21272100.7034
        48.5004         48.5004
  -2762933.32046  -2096442.07945  25084695.6094   25084688.0664
        39.5004         31.2504
 -20032989.39347 -15594445.60548  21417623.9774   21417619.3014
        47.2504         49.0004
  29794530.89346  22847234.29353  24971375.6564   24971370.3134
        36.2504         18.2504
  -6305678.44347  -4763051.23746  23957634.7114   23957627.6454
        42.2504         36.2504
 20  5  3  0 31 30.0000000  0 10G16G 6G22G 9G 4G26G 7G 3G14G31
 -23502020.79947 -18605742.87946  20547272.1724   20547264.2664
        47.2504         39.0004
  -1198081.46846   -934983.66745  25259594.6334   25259590.6884
        36.7504         30.2504
 -14637577.79447 -11385294.79345  23073497.3364   23073487.8364
        44.2504         30.5004
 -15183743.70047 -11810629.69547  22665735.4454   22665730.9734
        43.7504         43.5004
 -26643579.53447 -20747292.83246  20604032.0394   20604025.9264
        47.7504         38.5004
 -19246018.25348 -15110093.98048  21281008.2344   21281004.0664
        48.5004         48.2504
  -2844816.43746  -2160247.17945  25069113.3524   25069106.6684
        37.5004         31.5004
 -19963767.28847 -15540506.32448  21430796.5944   21430791.9344
        47.5004         49.0004
  29881911.86446  22915323.31943  24988004.0784   24987997.4414
        36.5004         19.2504
  -6211982.47846  -4690041.44246  23975464.4694   23975458.0594
        40.7504         36.5004
 20  5  3  0 32  0.0000000  0 10G16G 6G22G 9G 4G26G 7G 3G14G31
 -23534317.96747 -18630909.50146  20541126.2274   20541118.4184
        47.5004         38.7504
  -1174305.80846   -916457.15545  25264118.8444   25264114.9264
        36.5004         30.2504
 -14542042.42347 -11310851.67545  23091677.5164   23091667.9064
        44.2504         31.5004
 -15268802.28447 -11876909.10447  22649549.7814   22649544.4694
        44.0004         43.0004
 -26681087.04347 -20776519.46646  20596895.1334   20596888.7074
        47.2504         38.2504
 -19198699.02448 -15073221.86048  21290013.1484   21290008.6884
        48.5004         48.2504
  -2926611.43346  -2223983.54345  25053548.4844   25053541.5044
        39.7504         31.5004
 -19894083.93247 -15486207.62448  21444056.6564   21444052.2034
        47.2504         49.0004
  29969417.58945  22983509.52242  25004655.1094   25004649.2774
        34.2504         17.7504
  -6118277.83546  -4617024.89146  23993296.6174   23993289.1684
        41.7504         36.0004
 20  5  3  0 32 30.0000000  0 10G16G 6G22G 9G 4G26G 7G 3G14G31
 -23565961.24847 -18655566.59546  20535104.7664   20535096.7734
        47.0004         38.5004
  -1150057.48345   -897562.42145  25268733.0004   25268729.7584
        35.7504         30.2504
 -14446295.10147 -11236243.40745  23109897.1884   23109888.2114
        44.0004         31.2504
 -15353730.41147 -11943086.85547  22633388.8204   22633383.4414
        44.5004         43.0004
 -26718278.64047 -20805499.94246  20589817.7734   20589811.1604
        47.0004         38.5004
 -19150849.63747 -15035936.63248  21299118.5004   21299114.1764
        47.7504         48.5004
  -3008317.02646  -2287650.33545  25038001.0164   25037993.3054
        38.5004         30.2504
 -19823941.62647 -15431551.29748  21457404.0554   21457400.3054
        47.0004         49.2504
  30057047.45145  23051792.43042  25021330.3204   25021324.4924
        34.0004         15.5004
  -6024565.49147  -4544002.31246  24011129.6564   24011121.9494
        42.2504         37.2504
 20  5  3  0 33  0.0000000  0 10G16G 6G22G 9G 4G26G 7G 3G14G31
 -23596949.27447 -18679713.10446  20529207.7584   20529200.2034
        46.7504         38.2504
  -1125338.14346   -878300.58945  25273438.0164   25273433.3204
        37.5004         31.2504
 -14350338.26147 -11161471.86845  23128157.2504   23128147.7304
        44.7504         30.7504
 -15438526.42247 -12009161.66747  22617252.2584   22617247.1524
        43.7504         43.2504
 -26755152.77847 -20834233.05346  20582801.1094   20582794.2384
        47.5004         38.5004
 -19102471.91548 -14998239.71148  21308324.6724   21308320.1994
        48.5004         48.2504
  -3089933.57446  -2351247.66545  25022469.6334   25022461.9844
        39.7504         32.0004
 -19753342.59047 -15376539.08148  21470838.8364   21470834.5044
        47.5004         49.0004
  30144801.17545  23120171.86642  25038029.1884   25038024.3634
        35.0004         16.2504
  -5930846.51746  -4470974.59946  24028963.5234   24028956.4614
        41.2504         37.0004
 20  5  3  0 33 30.0000000  0 10G16G 6G22G 9G 4G26G 7G 3G14G31
 -23627281.56647 -18703348.65146  20523435.8834   20523428.0634
        47.5004         38.7504
  -1100149.35246   -858673.03745  25278230.3984   25278226.7114
        36.5004         30.0004
 -14254174.81547 -11086539.34845  23146456.4144   23146447.0944
        44.7504         30.5004
 -15523188.80347 -12075132.35347  22601141.9304   22601136.7704
        44.2504         44.0004
 -26791708.09847 -20862717.72246  20575845.0704   20575838.2774
        46.5004         38.2504
 -19053567.89948 -14960132.69548  21317630.8204   21317626.4304
        48.0004         48.5004
  -3171460.98146  -2414775.58445  25006954.3444   25006947.5594
        37.7504         30.2504
 -19682289.19848 -15321172.82648  21484360.0394   21484355.6174
        48.0004         49.0004
  30232677.70545  23188646.97142  25054751.5944   25054746.5594
        35.2504         16.7504
  -5837122.02246  -4397942.55346  24046798.3284   24046790.9494
        41.0004         36.2504
 20  5  3  0 34  0.0000000  0 10G16G 6G22G 9G 4G26G 7G 3G14G31
 -23656956.79947 -18726472.20046  20517788.7194   20517781.2274
        47.2504         39.0004
  -1074492.62246   -838680.79545  25283112.9304   25283109.5234
        36.5004         31.5004
 -14157806.85547 -11011447.45945  23164794.6254   23164785.4144
        44.5004         30.0004
 -15607715.80447 -12140997.53547  22585056.9384   22585052.3054
        44.5004         44.0004
 -26827943.00647 -20890952.72246  20568949.4224   20568943.1094
        46.5004         39.5004
 -19004139.40447 -14921616.99348  21327036.6954   21327032.3714
        47.5004         48.2504
  -3252898.45246  -2478233.38445  24991458.2504   24991451.4494
        37.7504         31.7504
 -19610783.60048 -15265454.19348  21497967.2734   21497962.5394
        48.7504         49.0004
  30320676.94345  23257217.73442  25071497.0314   25071491.8554
        34.5004         15.5004
  -5743392.75246  -4324906.78045  24064633.8984   24064627.3204
        40.7504         35.5004
 20  5  3  0 34 30.0000000  0 10G16G 6G22G 9G 4G26G 7G 3G14G31
 -23685974.05247 -18749083.04146  20512267.1024   20512258.9884
        47.0004         38.7504
  -1048369.53645   -818325.13444  25288083.6804   25288079.8834
        35.0004         29.5004
 -14061237.23247 -10936198.43245  23183171.0634   23183161.8244
        44.2504         30.0004
 -15692105.80947 -12206755.96547  22568997.6804   22568993.0474
        44.0004         44.0004
 -26863856.09847 -20918936.95446  20562115.2034   20562108.9884
        46.5004         38.7504
 -18954188.45647 -14882694.18148  21336541.7274   21336537.4304
        47.5004         48.2504
  -3334246.15846  -2541621.23545  24975977.6414   24975971.1134
        37.5004         30.0004
 -19538828.16248 -15209385.03648  21511659.7274   21511655.3364
        48.2504         48.7504
  30408797.93845  23325883.44242  25088266.5474   25088262.6414
        32.5004         14.7504
  -5649659.73846  -4251868.09145  24082471.0394   24082463.6644
        40.7504         35.5004
 20  5  3  0 35  0.0000000  0 10G16G 6G22G 9G 4G26G 7G 3G14G31
 -23714332.56747 -18771180.58146  20506870.4064   20506862.8444
        47.0004         39.0004
  -1021781.99446   -797607.59145  25293143.2344   25293139.5744
        36.2504         31.0004
 -13964468.69947 -10860794.41044  23201585.6094   23201576.4184
        44.5004         29.0004
 -15776357.43647 -12272406.56847  22552965.7194   22552960.5474
        44.5004         44.0004
 -26899446.11647 -20946669.44546  20555342.7034   20555336.7194
        46.2504         39.0004
 -18903717.26247 -14843365.99148  21346146.3754   21346141.6134
        47.5004         48.2504
  -3415503.70946  -2604938.84445  24960515.0314   24960508.3634
        37.2504         31.5004
 -19466425.38947 -15152967.31348  21525437.5634   21525433.0124
        47.5004         48.7504
  30497040.30814                  25105058.398
        28.750
  -5555924.38446  -4178827.60045  24100308.0944   24100300.7304
        40.5004         34.7504
 20  5  3  0 35 30.0000000  0 10G16G 6G22G 9G 4G26G 7G 3G14G31
 -23742027.72747 -18792761.21746  20501600.5784   20501592.7194
        47.0004         39.0004
   -994727.95246   -776526.58645  25298292.1804   25298287.8134
        36.7504         30.7504
 -13867500.16047 -10785234.52545  23220038.2664   23220028.9414
        44.0004         30.0004
 -15860465.49147 -12337945.29647  22536960.6484   22536955.0314
        44.5004         44.0004
 -26934708.01147 -20974146.25246  20548632.9844   20548626.3874
        47.0004         39.0004
 -18852724.22547 -14803631.15948  21355849.8834   21355845.7154
        47.7504         48.0004
  -3496667.67946  -2668183.49645  24945070.4534   24945063.6724
        38.2504         31.5004
 -19393574.05147 -15096200.06248  21539300.6724   21539296.1564
        47.5004         48.5004
                                  25121874.648
        31.500
  -5462183.85746  -4105783.07645  24118147.3134   24118139.8404
        40.7504         35.5004
 20  5  3  0 36  0.0000000  0 10G16G 6G22G 9G 4G26G 7G 3G14G31
 -23769069.43047 -18813832.67246  20496454.4694   20496446.5634
        47.0004         39.2504
   -967219.79846   -755091.62245  25303526.1644   25303522.3014
        36.5004         31.2504
 -13770344.96147 -10709529.20344  23238525.6094   23238517.0354
        44.5004         29.5004
 -15944438.91747 -12403379.12347  22520980.6094   22520975.6604
        44.5004         44.0004
 -26969650.98447 -21001374.54146  20541983.1724   20541976.9304
        46.5004         39.0004
 -18801221.95447 -14763499.52748  21365650.4774   21365645.9574
        47.5004         48.0004
  -3577747.64646  -2731362.72545  24929641.2664   24929634.6484
        38.0004         31.0004
 -19320287.11148 -15039093.36748  21553246.6484   21553241.8634
        48.0004         48.5004
  30673886.383 6                  25138711.703
        36.250
  -5368449.79947  -4032743.57545  24135983.8834   24135976.5704
        42.0004         35.2504
 20  5  3  0 36 30.0000000  0 11G16G 6G27G22G 9G 4G26G 7G 3G14G31
 -23795446.74647 -18834386.41246  20491435.2274   20491427.5664
        47.0004         38.5004
   -939249.09745   -733296.30444  25308848.9774   25308844.9414
        35.2504         29.0004
   -447264.29956   -327278.97655  25091499.8524   25091495.6134
        39.5004         33.2504
 -13672995.45947 -10633672.49044  23257051.4924   23257042.0514
        43.5004         29.5004
 -16028265.97747 -12468698.90647  22505028.8134   22505023.4384
        45.2504         44.0004
 -27004263.41447 -21028345.27346  20535396.5864   20535390.2974
        46.0004         39.0004
 -18749202.38747 -14722964.80848  21375549.5944   21375544.8054
        47.5004         48.0004
  -3658733.46646  -2794468.56845  24914230.3984   24914223.7304
        39.2504         32.2504
 -19246556.79347 -14981641.20148  21567277.5314   21567272.5394
        47.2504         48.5004
  30762488.38245  23259311.06652  25155571.7814   25155564.2344
        33.0004         17.2504
  -5274713.09346  -3959702.02045  24153821.8524   24153814.7424
        41.2504         35.2504
 20  5  3  0 37  0.0000000  0 11G16G 6G27G22G 9G 4G26G 7G 3G14G31
 -23821160.68347 -18854423.24846  20486541.8754   20486534.1094
        46.5004         38.5004
   -910819.84945   -711143.65945  25314258.3754   25314255.1954
        35.5004         31.0004
   -543078.20646   -401939.24144  25073266.0474   25073261.7814
        36.0004         26.0004
 -13575456.73347 -10557668.30444  23275612.2034   23275602.8204
        43.0004         29.0004
 -16111947.30647 -12533905.14247  22489104.5394   22489099.2344
        44.0004         44.2504
 -27038546.20447 -21055059.13546  20528872.7894   20528866.4844
        46.2504         39.0004
 -18696669.90947 -14682030.40548  21385546.0004   21385541.8054
        47.5004         48.0004
  -3739627.70846  -2857503.08945  24898837.1254   24898829.7584
        39.7504         32.2504
 -19172387.85747 -14923847.23548  21581390.9224   21581386.9264
        47.2504         48.5004
  30851210.08445  23328444.71842  25172455.7664   25172449.8834
        30.2504         14.7504
  -5180977.01746  -3886660.96445  24171659.1334   24171651.5164
        41.0004         34.5004
 20  5  3  0 37 30.0000000  0 10G16G 6G27G22G 9G 4G26G 7G 3G31
 -23846209.52447 -18873941.81646  20481775.1484   20481767.5664
        46.7504         38.7504
   -881932.21746   -688633.84445  25319755.7894   25319751.9494
        36.2504         30.7504
   -638924.21046   -476624.48545  25055028.2034   25055024.0124
        39.2504         31.7504
 -13477729.93347 -10481517.59545  23294209.4384   23294199.5044
        43.0004         30.0004
 -16195479.74547 -12598995.33547  22473208.8674   22473203.8754
        44.0004         44.0004
 -27072496.34847 -21081513.78946  20522412.3834   20522406.1254
        46.0004         39.2504
 -18643625.04747 -14640696.75148  21395640.3134   21395636.0904
        47.5004         48.0004
  -3820428.05146  -2920464.42545  24883461.0784   24883453.6134
        38.7504         31.5004
 -19097781.15547 -14865712.17148  21595588.4924   21595583.7344
        47.2504         48.5004
  -5087241.03846  -3813619.95745  24189496.0234   24189489.3204
        40.5004         35.5004
 20  5  3  0 38  0.0000000  0 10G16G 6G27G22G 9G 4G26G 7G 3G31
 -23870596.96047 -18892945.00546  20477134.4224   20477126.9694
        47.0004         38.5004
   -852592.68446   -665771.89445  25325338.1254   25325335.4384
        36.2504         31.5004
   -734803.74046   -551335.82545  25036782.8674   25036778.8054
        39.2504         32.7504
 -13379822.01447 -10405225.73844  23312840.3754   23312831.4534
        43.0004         29.2504
 -16278866.32647 -12663971.87747  22457340.1334   22457335.8914
        44.5004         44.0004
 -27106117.08847 -21107711.77246  20516014.4614   20516008.5744
        45.7504         39.0004
 -18590074.53747 -14598969.09147  21405830.6334   21405826.4494
        47.0004         47.7504
  -3901138.93546  -2983356.08245  24868103.4454   24868095.0124
        39.7504         33.0004
 -19022743.75947 -14807241.48648  21609867.6484   21609862.9494
        47.5004         48.2504
  -4993510.68346  -3740583.36946  24207332.3834   24207325.2934
        41.0004         36.0004
 20  5  3  0 38 30.0000000  0 10G16G 6G27G22G 9G 4G26G 7G 3G31
 -23894319.65547 -18911430.21846  20472619.8204   20472612.2624
        47.7504         39.5004
   -822800.18346   -642556.97445  25331008.0554   25331004.1484
        36.0004         31.2504
   -830711.25946   -626068.93945  25018532.3054   25018528.8484
        36.5004         31.0004
 -13281733.12047 -10328792.85844  23331506.2734   23331496.7114
        43.5004         27.5004
 -16362102.62247 -12728831.31047  22441501.3594   22441496.8794
        44.0004         44.2504
 -27139404.28247 -21133649.84946  20509680.5634   20509673.8954
        46.0004         39.2504
 -18536017.83747 -14556846.99648  21416117.1954   21416113.2854
        46.2504         48.0004
  -3981757.41046  -3046175.70645  24852761.3594   24852753.7734
        39.5004         31.5004
 -18947275.34447 -14748434.95348  21624228.6884   21624224.2234
        47.7504         48.2504
  -4899784.14946  -3667549.74045  24225168.5784   24225161.0004
        41.5004         35.5004
 20  5  3  0 39  0.0000000  0 10G16G 6G27G22G 9G 4G26G 7G 3G31
 -23917377.09847 -18929397.04146  20468232.2894   20468224.4224
        47.5004         39.0004
   -792556.75146   -618990.67745  25336763.3984   25336759.2074
        37.0004         30.2504
   -926643.66546   -700821.41745  25000276.8204   25000272.9804
        37.7504         31.5004
 -13183466.01347 -10252221.12044  23350205.8754   23350196.3714
        43.0004         29.0004
 -16445187.09847 -12793572.44747  22425691.6484   22425686.4384
        45.0004         44.5004
 -27172356.56447 -21159326.95846  20503409.6414   20503403.3364
        46.0004         39.0004
 -18481457.08947 -14514332.13347  21426499.5634   21426495.4654
        46.2504         47.7504
  -4062284.09146  -3108923.81045  24837437.4454   24837430.5234
        38.2504         31.5004
 -18871378.49447 -14689294.57448  21638671.4694   21638666.8244
        47.5004         48.2504
  -4806062.75146  -3594520.07645  24243001.1564   24242995.6334
        38.7504         34.2504
 20  5  3  0 39 30.0000000  0 10G16G 6G27G22G 9G 4G26G 7G 3G31
 -23939768.44847 -18946844.84646  20463971.4774   20463963.9804
        47.2504         39.0004
   -761864.38746   -595074.57345  25342604.8054   25342599.4694
        37.5004         30.0004
  -1022598.09246   -775591.15645  24982017.9844   24982013.4964
        37.7504         32.0004
 -13085023.22547 -10175512.48544  23368938.8524   23368930.0514
        43.7504         28.5004
 -16528118.34947 -12858194.19147  22409910.1334   22409904.9024
        44.5004         44.7504
 -27204972.80547 -21184742.21346  20497203.0944   20497196.8914
        46.5004         39.5004
 -18426394.75347 -14471426.42447  21436977.5474   21436973.1484
        46.2504         47.7504
  -4142718.01346  -3171599.63645  24822131.3594   24822124.9264
        38.7504         31.2504
 -18795055.93547 -14629822.46648  21653195.2274   21653190.5704
        47.0004         48.0004
  -4712347.38346  -3521495.16545  24260836.3444   24260829.3284
        41.0004         34.0004
 20  5  3  0 40  0.0000000  0 10G16G 6G27G22G 9G 4G26G 7G 3G31
 -23961493.43347 -18963773.39446  20459837.7034   20459829.7194
        46.5004         39.0004
   -730724.74545   -570809.92845  25348529.2344   25348525.5744
        35.2504         30.0004
  -1118571.43745   -850375.53745  24963753.8914   24963750.8404
        34.7504         30.0004
 -12986407.72247 -10098669.26344  23387704.8914   23387695.4654
        43.7504         28.7504
 -16610894.53347 -12922695.10247  22394158.2344   22394153.1484
        44.5004         45.2504
 -27237251.41247 -21209894.38146  20491060.7034   20491054.3524
        46.2504         39.5004
 -18370832.78247 -14428131.38947  21447550.9844   21447546.4144
        46.7504         47.5004
  -4223059.20446  -3234203.16345  24806842.8444   24806836.1454
        38.5004         31.5004
 -18718309.98447 -14570020.45048  21667799.3594   21667795.1294
        47.7504         48.0004
  -4618638.80046  -3448475.54545  24278667.8364   24278661.4454
        40.0004         35.5004
 20  5  3  0 40 30.0000000  0 10G16G 6G27G22G 9G 4G26G 7G 3G31
 -23982551.19447 -18980182.03446  20455830.2274   20455822.4304
        47.0004         39.0004
   -699139.75746   -546198.27645  25354540.6804   25354536.1604
        37.0004         31.5004
  -1214560.47646   -925172.16645  24945487.9694   24945484.8134
        38.2504         34.5004
 -12887621.85747 -10021693.28044  23406502.2274   23406493.9024
        43.2504         28.7504
 -16693513.96547 -12987073.87047  22378436.0084   22378430.8914
        44.2504         45.0004
 -27269190.95247 -21234782.34646  20484982.4534   20484976.3324
        46.2504         40.0004
 -18314773.36847 -14384448.74147  21458218.8364   21458214.0234
        46.5004         47.5004
  -4303307.29246  -3296734.17245  24791572.0084   24791565.7734
        38.2504         32.5004
 -18641143.12247 -14509890.45047  21682483.9454   21682479.2934
        47.0004         47.7504
  -4524938.16546  -3375462.09945  24296500.1484   24296492.0044
        41.7504         35.0004
 20  5  3  0 41  0.0000000  0 10G16G 6G27G22G 9G 4G26G 7G 3G31
 -24002941.30247 -18996070.42746  20451950.5704   20451942.1764
        47.0004         38.7504
   -667111.24146   -521241.00844  25360635.2974   25360630.4694
        36.7504         29.7504
  -1310562.15146   -999978.65245  24927218.9924   24927215.6174
        37.0004         31.7504
 -12788668.46247  -9944586.77644  23425333.5084   23425324.4574
        42.5004         28.0004
 -16775975.05047 -13051329.23347  22362744.0084   22362739.0864
        43.7504         44.5004
 -27300790.07647 -21259405.04846  20478969.7274   20478962.9964
        46.0004         39.7504
 -18258218.72847 -14340380.20047  21468980.6024   21468976.0274
        46.0004         47.2504
  -4383462.04746  -3359192.44145  24776319.0704   24776312.4184
        38.7504         32.2504
 -18563557.93147 -14449434.47247  21697247.9694   21697242.7664
        47.5004         47.7504
  -4431246.14346  -3302455.40445  24314328.5234   24314321.2974
        41.7504         35.5004
 20  5  3  0 41 30.0000000  0 10G16G 6G27G22G 9G 4G26G 7G 3G31
 -24022663.14047 -19011438.08546  20448197.2424   20448189.4224
        47.2504         39.2504
   -634641.19546   -495939.70345  25366814.0554   25366809.5394
        37.0004         30.7504
  -1406573.44246  -1074792.64945  24908949.4844   24908944.9224
        37.7504         31.7504
 -12689550.05647  -9867351.68544  23444194.8914   23444185.8204
        42.2504         27.5004
 -16858276.04647 -13115459.86047  22347082.2734   22347077.2704
        44.2504         44.7504
 -27332047.34347 -21283761.36946  20473021.6334   20473015.0984
        46.2504         39.2504
 -18201171.09147 -14295927.50147  21479836.3984   21479831.7384
        46.2504         47.2504
  -4463523.94946  -3421578.35345  24761083.9774   24761077.4774
        39.2504         33.0004
 -18485556.93147 -14388654.50347  21712091.1884   21712086.2544
        47.7504         47.5004
  -4337563.50946  -3229455.95545  24332154.8674   24332148.1334
        40.0004         33.7504
 20  5  3  0 42  0.0000000  0 10G16G 6G27G22G 9G 4G26G 7G 3G31
 -24041716.23147 -19026284.63846  20444571.2584   20444563.7234
        47.0004         39.7504
   -601731.28545   -470295.65844  25373076.2194   25373071.2894
        35.0004         29.0004
  -1502591.06446  -1149611.57845  24890677.5164   24890673.8324
        38.0004         31.7504
 -12590269.11447  -9789989.95444  23463087.9304   23463078.8364
        43.0004         29.0004
 -16940415.19447 -13179464.38347  22331452.3834   22331446.9414
        45.2504         44.7504
 -27362961.27247 -21307850.16046  20467138.8754   20467132.3794
        46.0004         39.2504
 -18143632.53647 -14251092.27247  21490785.8364   21490781.0744
        46.0004         47.0004
  -4543491.69046  -3483890.91545  24745866.3364   24745859.9884
        39.5004         33.5004
 -18407142.49447 -14327552.34947  21727012.6094   21727007.7624
        47.5004         47.5004
  -4243891.57146  -3156464.89045  24349980.7114   24349974.7704
        40.0004         35.0004
 20  5  3  0 42 30.0000000  0 10G16G 6G27G22G 9G 4G26G 7G 3G31
 -24060100.03147 -19040609.68046  20441073.2974   20441065.3714
        47.5004         39.5004
   -568383.60546   -444310.49345  25379423.7194   25379417.7624
        37.5004         30.0004
  -1598612.02046  -1224433.08345  24872405.7424   24872401.2504
        39.2504         30.7504
 -12490828.63447  -9712503.89544  23482010.7584   23482001.3954
        42.5004         27.0004
 -17022390.83447 -13243341.48447  22315853.1804   22315847.2774
        45.2504         45.0004
 -27393530.52447 -21331670.35746  20461322.0784   20461314.8984
        46.0004         39.2504
 -18085605.38747 -14205876.31847  21501828.0784   21501823.1844
        46.0004         47.0004
  -4623365.39546  -3546130.19745  24730667.4694   24730660.1954
        39.2504         32.2504
 -18328317.26448 -14266130.11847  21742012.8834   21742007.9804
        48.0004         47.5004
  -4150231.24646  -3083482.84545  24367803.0554   24367796.2584
        39.2504         32.7504
 20  5  3  0 43  0.0000000  0 10G16G 6G27G22G 9G 4G26G 7G 3G31
 -24077814.14747 -19054412.88146  20437702.5164   20437694.3834
        47.5004         39.0004
   -534599.94046   -417985.54344  25385852.0944   25385846.7464
        36.5004         28.0004
  -1694632.98746  -1299254.68345  24854134.1724   24854129.8524
        38.7504         32.7504
 -12391231.05747  -9634895.43344  23500963.6724   23500954.8484
        43.0004         29.0004
 -17104201.08947 -13307089.73347  22300284.8594   22300279.6764
        44.5004         45.0004
 -27423753.49247 -21355220.73446  20455570.7894   20455564.2814
        46.2504         39.5004
 -18027091.68347 -14160281.22947  21512962.8204   21512958.1414
        45.7504         47.0004
  -4703144.96046  -3608296.11645  24715485.9224   24715479.3834
        39.5004         34.0004
 -18249083.68447 -14204389.67247  21757090.3134   21757085.7814
        47.5004         47.5004
  -4056583.15246  -3010510.32645  24385622.9694   24385617.1604
        39.0004         34.0004
 20  5  3  0 43 30.0000000  0 10G16G 6G27G22G 9G 4G26G 7G 3G31
 -24094858.18848 -19067693.94546  20434458.6024   20434450.7154
        48.2504         39.2504
   -500382.26146   -391322.41244  25392362.7664   25392358.3554
        37.0004         29.0004
  -1790650.85646  -1374073.75945  24835861.5314   24835857.9224
        38.7504         31.7504
 -12291479.05047  -9557166.64044  23519945.4064   23519936.5474
        43.5004         29.0004
 -17185844.34847 -13370707.84547  22284748.2894   22284743.4454
        45.0004         45.5004
 -27453628.83847 -21378500.23146  20449885.4144   20449878.9384
        46.2504         39.7504
 -17968093.73247 -14114308.81147  21524189.8364   21524184.8244
        46.0004         47.0004
  -4782830.07946  -3670388.45345  24700323.1804   24700315.5594
        41.2504         34.0004
 -18169444.28647 -14142333.02247  21772244.8524   21772240.4264
        47.5004         47.5004
  -3962948.12446  -2937548.04645  24403442.2584   24403435.6094
        39.5004         33.5004
 20  5  3  0 44  0.0000000  0 10G16G 6G27G22G 9G 4G26G 7G 3G31
 -24111232.02848 -19080452.78246  20431343.1414   20431335.0084
        48.5004         39.7504
   -465732.60545   -364322.73644  25398955.8834   25398952.6374
        34.7504         27.0004
  -1886662.74946  -1448888.23945  24817592.1484   24817588.1414
        39.0004         34.5004
 -12191575.41847  -9479319.67444  23538956.5004   23538947.5824
        42.5004         27.5004
 -17267319.08347 -13434194.63447  22269244.3834   22269239.7114
        45.0004         45.5004
 -27483155.40747 -21401507.95246  20444266.5234   20444260.4884
        46.0004         40.0004
 -17908614.08147 -14067961.04247  21535508.2114   21535503.6414
        46.7504         47.2504
  -4862420.89046  -3732407.29545  24685176.8524   24685169.5944
        40.5004         33.5004
 -18089401.91547 -14079962.36547  21787476.4144   21787472.4804
        47.5004         47.2504
  -3869327.16246  -2864596.64945  24421257.5164   24421250.9414
        39.0004         34.0004
 20  5  3  0 44 30.0000000  0 10G16G 6G27G22G 9G 4G26G 7G 3G31
 -24126934.50648 -19092688.47646  20428355.1174   20428347.2234
        48.0004         39.5004
   -430652.71745   -336987.76044  25405631.8674   25405627.8204
        35.7504         29.2504
  -1982664.97946  -1523695.10345  24799321.9924   24799319.5164
        36.0004         32.5004
 -12091522.16747  -9401356.13744  23557995.8134   23557987.1764
        42.2504         28.0004
 -17348622.98447 -13497548.31647  22253773.0004   22253767.8404
        45.7504         45.7504
 -27512331.18447 -21424242.33446  20438714.7734   20438708.1054
        47.0004         39.7504
 -17848654.36947 -14021239.19647  21546918.1954   21546913.6804
        46.2504         47.0004
  -4941916.69546  -3794352.09145  24670049.6644   24670042.1844
        40.5004         33.0004
 -18008958.63647 -14017279.31047  21802784.2664   21802780.1024
        47.2504         47.2504
  -3775720.73046  -2791656.64145  24439070.4454   24439063.4844
        40.2504         34.5004
 20  5  3  0 45  0.0000000  0 10G16G 6G27G22G 9G 4G26G 7G 3G31
 -24141965.84948 -19104401.20646  20425494.6724   20425486.7074
        48.0004         39.0004
   -395144.61546   -309319.07444  25412389.0704   25412385.4534
        36.2504         28.5004
  -2078654.51346  -1598492.10645  24781056.1414   24781052.8954
        36.5004         32.2504
 -11991322.08647  -9323278.18244  23577063.8054   23577054.4344
        42.7504         27.0004
 -17429754.48147 -13560767.64347  22238334.6484   22238329.1564
        45.5004         45.7504
 -27541154.97947 -21446702.43646  20433229.9064   20433223.1374
        46.5004         40.2504
 -17788217.10047 -13974145.22647  21558418.9534   21558414.5474
        46.2504         47.2504
  -5021317.36946  -3856222.77245  24654939.6414   24654932.6334
        40.2504         32.7504
 -17928117.18247 -13954285.99147  21818168.3754   21818163.9694
        46.7504         47.2504
  -3682129.86346  -2718728.70145  24456880.3284   24456872.9144
        39.2504         33.5004
 20  5  3  0 45 30.0000000  0 10G16G 6G27G22G 9G 4G26G 7G 3G31
 -24156325.84248 -19115590.80546  20422761.9304   20422753.9184
        48.0004         39.2504
   -359210.52446   -281318.54744  25419226.4454   25419224.3554
        36.2504         29.5004
  -2174628.40646  -1673276.85745  24762793.2194   24762789.7304
        37.0004         33.0004
 -11890978.25047  -9245088.20444  23596158.2194   23596149.2774
        42.5004         27.2504
 -17510712.09147 -13623851.48547  22222928.5004   22222923.2234
        46.0004         45.5004
 -27569625.65147 -21468887.38146  20427812.2424   20427805.6994
        46.5004         39.5004
 -17727304.71747 -13926681.04047  21570010.3834   21570006.0004
        46.2504         47.0004
  -5100622.92946  -3918019.33945  24639848.8834   24639841.3914
        40.5004         33.0004
 -17846880.34447 -13890984.57347  21833626.4384   21833622.7344
        46.5004         47.0004
  -3588555.40946  -2645813.61145  24474686.1724   24474680.4924
        39.0004         33.0004
 20  5  3  0 46  0.0000000  0 10G16G 6G27G22G 9G 4G26G 7G 3G31
 -24170014.25947 -19126257.10746  20420157.2114   20420149.5084
        47.7504         39.2504
   -322852.39945   -252987.46844  25426144.6484   25426142.6094
        34.5004         29.7504
  -2270583.32446  -1748046.86745  24744534.6484   24744528.9844
        40.5004         35.2504
 -11790493.14647  -9166788.17444  23615280.5554   23615271.4384
        42.7504         26.7504
 -17591493.90947 -13686798.34647  22207556.2424   22207550.8794
        45.5004         45.5004
 -27597741.63847 -21490795.94646  20422461.6254   20422455.1524
        46.0004         39.7504
 -17665919.47647 -13878848.39247  21581691.5004   21581687.2704
        45.7504         47.0004
  -5179833.30546  -3979741.73345  24624775.5164   24624767.5354
        40.7504         32.0004
 -17765250.70447 -13827377.08847  21849160.6884   21849156.3674
        47.5004         47.0004
  -3494998.45046  -2572912.10445  24492489.7344   24492484.1844
        39.2504         34.0004
 20  5  3  0 46 30.0000000  0 10G16G 6G27G22G 9G 4G26G 7G 3G31
 -24183031.14748 -19136400.13346  20417680.1174   20417672.3674
        48.0004         39.2504
   -286072.62545   -224327.93545  25433143.6564   25433141.8954
        34.0004         30.5004
  -2366516.32046  -1822799.92645  24726278.5944   24726273.0984
        38.5004         33.2504
 -11689869.57447  -9088380.23344  23634428.7424   23634419.0634
        43.0004         28.0004
 -17672098.51247 -13749607.12347  22192217.6484   22192212.1684
        45.5004         45.5004
 -27625501.88247 -21512427.30646  20417179.1564   20417172.6804
        46.5004         40.0004
 -17604063.99547 -13830649.32847  21593462.1414   21593457.5434
        46.0004         47.0004
  -5258947.98846  -4041389.55645  24609719.9924   24609712.8794
        38.2504         32.5004
 -17683231.11747 -13763465.74647  21864768.7194   21864764.1684
        46.5004         47.0004
  -3401459.88346  -2500025.00545  24510288.9774   24510283.4264
        38.2504         32.0004
 20  5  3  0 47  0.0000000  0 10G16G 6G27G22G 9G 4G26G 7G 3G31
 -24195375.31847 -19146018.96046  20415331.0004   20415323.2814
        47.0004         39.5004
   -248872.61145   -195340.91844  25440223.6254   25440220.7304
        35.0004         28.7504
  -2462423.74146  -1897532.87345  24708026.7114   24708023.8914
        38.0004         34.5004
 -11589109.58247  -9009866.00044  23653603.8054   23653593.6604
        43.5004         27.7504
 -17752523.37247 -13812275.83647  22176912.9924   22176908.1724
        46.0004         45.7504
 -27652904.23747 -21533779.79746  20411964.8674   20411958.0634
        46.5004         40.2504
 -17541739.86847 -13782085.08247  21605322.2424   21605318.0634
        46.0004         47.0004
  -5337966.53746  -4102962.46745  24594683.7344   24594676.8404
        39.7504         32.2504
 -17600823.56347 -13699252.07747  21880450.2344   21880445.5864
        46.2504         46.7504
  -3307939.64846  -2427152.09645  24528086.7424   24528080.2544
        40.2504         34.2504
 20  5  3  0 47 30.0000000  0 10G16G 6G27G22G 9G 4G26G 7G 3G31
 -24207047.05847 -19155113.83046  20413109.8134   20413102.4774
        46.7504         38.7504
   -211254.65345   -166028.24545  25447382.0634   25447378.5594
        35.5004         30.7504
  -2558302.53246  -1972243.59445  24689781.5474   24689778.8444
        37.2504         34.5004
 -11488216.23747  -8931247.84544  23672802.4384   23672792.5474
        43.7504         27.2504
 -17832767.09047 -13874803.40047  22161643.6254   22161638.3164
        46.0004         46.2504
 -27679947.70547 -21554852.62346  20406818.6644   20406812.0274
        46.5004         40.2504
 -17478949.76747 -13733157.73847  21617270.7814   21617266.5984
        46.2504         46.7504
  -5416889.02646  -4164460.53345  24579665.1564   24579658.6134
        40.2504         34.0004
 -17518030.96247 -13634738.38847  21896205.3524   21896200.6954
        47.0004         46.7504
  -3214438.95246  -2354294.55845  24545880.5004   24545873.1214
        41.0004         34.2504
 20  5  3  0 48  0.0000000  0 10G16G 6G27G22G 9G 4G26G 7G 3G31
 -24218046.24947 -19163684.61846  20411016.6804   20411008.8794
        46.7504         39.0004
   -173220.82846   -136391.51845  25454620.2114   25454616.3164
        36.0004         32.2504
  -2654149.54246  -2046929.44545  24671542.6484   24671539.7384
        38.0004         35.5004
 -11387192.20147  -8852527.84744  23692026.0784   23692016.9104
        43.5004         26.0004
 -17912827.85447 -13937188.39947  22146408.1564   22146403.4494
        46.2504         46.2504
 -27706630.82847 -21575644.67346  20401740.7424   20401734.1094
        47.0004         39.5004
 -17415695.97447 -13683869.07447  21629307.6804   21629303.4534
        45.7504         46.7504
  -5495715.34046  -4225883.66045  24564665.0314   24564658.1484
        40.2504         34.5004
 -17434855.98447 -13569926.73547  21912032.8754   21912028.4734
        45.7504         46.5004
  -3120958.89746  -2281452.96245  24563669.6094   24563660.8014
        40.7504         33.5004
 20  5  3  0 48 30.0000000  0 10G16G 6G27G22G 9G 4G26G 7G 3G31
 -24228372.98147 -19171731.42046  20409051.5164   20409043.8404
        47.7504         39.5004
   -134773.45945   -106432.56244  25461936.3914   25461932.2854
        34.2504         27.5004
  -2749961.68846  -2121588.17445  24653311.5784   24653307.0664
        38.7504         33.7504
 -11286040.05047  -8773708.02844  23711275.5314   23711265.5124
        43.0004         26.5004
 -17992703.96947 -13999429.51347  22131208.7034   22131203.2774
        46.2504         46.0004
 -27732952.34847 -21596154.95146  20396732.5704   20396725.7504
        46.5004         40.0004
 -17351981.01447 -13634221.06847  21641431.3364   21641427.7154
        46.5004         46.5004
  -5574445.29347  -4287231.69445  24549683.7974   24549676.3404
        42.0004         34.5004
 -17351301.40447 -13504819.28247  21927932.3914   21927928.2074
        45.7504         46.5004
  -3027500.09546  -2208628.08445  24581453.5704   24581447.4104
        39.5004         33.0004
 20  5  3  0 49  0.0000000  0 10G16G 6G27G22G 9G 4G26G 7G 3G31
 -24238024.72647 -19179252.25646  20407215.0704   20407207.3054
        47.5004         39.0004
                                  25469331.5784   25469327.2194
        28.2504         19.2504
  -2845732.92546  -2196215.12945  24635086.0634   24635081.8284
        39.7504         34.5004
 -11184759.69847  -8694788.30244  23730547.6174   23730537.9024
        43.2504         26.0004
 -18072391.01147 -14061523.30347  22116044.7034   22116039.1724
        46.5004         46.0004
 -27758908.23247 -21616380.31946  20391792.6804   20391786.1054
        46.2504         40.7504
 -17287804.54847 -13584213.44847  21653644.2504   21653639.9534
        46.0004         46.5004
  -5653076.11146  -4348502.46045  24534720.6884   24534713.2664
        40.7504         34.7504
 -17267367.21447 -13439416.04547  21943904.5704   21943900.6684
        45.7504         46.2504
  -2934061.03646  -2135818.30044  24599232.1644   24599224.2304
        36.7504         29.0004
 20  5  3  0 49 30.0000000  0  9G16G27G22G 9G 4G26G 7G 3G31
 -24247005.87447 -19186250.55346  20405506.0234   20405498.4304
        47.5004         39.0004
  -2941465.24246  -2270811.63545  24616868.0864   24616863.9494
        37.7504         30.5004
 -11083358.85547  -8615774.69044  23749844.2974   23749833.8014
        43.5004         26.0004
 -18151892.14447 -14123472.23047  22100916.1024   22100910.3524
        46.5004         46.2504
 -27784502.12547 -21636323.62146  20386922.2664   20386915.7384
        46.2504         40.0004
 -17223173.98247 -13533851.97347  21665943.1724   21665938.6844
        46.0004         46.2504
  -5731612.63446  -4409699.76145  24519774.7114   24519768.6054
        41.5004         34.7504
 -17183061.13247 -13373723.02747  21959948.1174   21959943.0234
        46.0004         46.2504
  -2840647.16846  -2063028.33345  24617009.3204   24617004.4304
        40.2504         34.5004
 20  5  3  0 50  0.0000000  0  9G16G27G22G 9G 4G26G 7G 3G31
 -24255314.88247 -19192725.10446  20403924.9224   20403917.1884
        46.5004         39.0004
  -3037153.08346  -2345373.66345  24598660.1564   24598654.7774
        38.5004         31.0004
 -10981838.07647  -8536667.60344  23769161.8834   23769153.2894
        43.0004         26.0004
 -18231203.41647 -14185273.22447  22085823.4304   22085817.8444
        46.5004         46.2504
 -27809730.46547 -21655982.07146  20382121.6644   20382114.9654
        46.5004         40.0004
 -17158089.52547 -13483136.82347  21678328.2344   21678323.6214
        46.0004         46.0004
  -5810052.10347  -4470821.44245  24504848.7344   24504842.3094
        42.2504         35.2504
 -17098383.68847 -13307740.62647  21976061.9064   21976056.7344
        45.5004         46.2504
  -2747257.12546  -1990257.03545  24634782.8754   24634775.3714
        41.7504         32.5004
 20  5  3  0 50 30.0000000  0  9G16G27G22G 9G 4G26G 7G 3G31
 -24262950.58047 -19198675.00446  20402472.0004   20402464.3134
        47.7504         39.5004
  -3132792.62546  -2419897.88345  24580459.4064   24580456.2504
        36.0004         30.0004
 -10880199.31247  -8457468.61544  23788504.0164   23788494.7304
        42.7504         26.0004
 -18310322.29647 -14246924.29147  22070767.4924   22070762.1954
        47.2504         46.5004
 -27834591.12047 -21675354.01646  20377391.0234   20377384.2464
        47.7504         40.2504
 -17092552.80347 -13432069.25647  21690799.6334   21690795.3054
        46.2504         46.0004
  -5888393.90846  -4531867.03145  24489941.2034   24489934.1724
        41.5004         34.2504
 -17013336.80947 -13241470.34847  21992245.3914   21992240.8364
        45.5004         46.2504
  -2653890.71846  -1917503.94245  24652548.9144   24652539.2584
        39.0004         31.0004
 20  5  3  0 51  0.0000000  0  9G16G27G22G 9G 4G26G 7G 3G31
 -24269913.29947 -19204100.48946  20401147.0554   20401139.2894
        47.5004         39.0004
  -3228380.70346  -2494382.07244  24562269.8054   24562265.0004
        37.0004         26.7504
 -10778445.43447  -8378179.91544  23807866.2194   23807857.4654
        42.5004         26.0004
 -18389247.10447 -14308424.13847  22055748.4384   22055743.1254
        46.5004         46.2504
 -27859082.94647 -21694438.55746  20372730.0164   20372723.6134
        47.5004         41.0004
 -17026566.44147 -13380651.31747  21703356.4924   21703351.8794
        46.2504         46.0004
  -5966638.23946  -4592836.65945  24475050.8364   24475044.4104
        40.5004         33.7504
 -16927923.39747 -13174914.45647  22008499.3444   22008494.6724
        45.5004         46.2504
  -2560549.23346  -1844770.39245  24670309.7664   24670305.0664
        38.5004         34.0004
 20  5  3  0 51 30.0000000  0  9G16G27G22G 9G 4G26G 7G 3G31
 -24276203.33147 -19209001.81846  20399949.8594   20399942.2544
        47.5004         39.7504
  -3323914.29546  -2568823.83345  24544091.2894   24544087.6764
        39.5004         34.2504
 -10676579.11947  -8298803.60844  23827251.3284   23827242.3364
        42.5004         25.5004
 -18467976.23047 -14369771.49847  22040767.2894   22040761.6564
        46.7504         46.2504
 -27883204.82747 -21713234.83046  20368139.7734   20368133.7974
        46.7504         40.5004
 -16960133.04247 -13328885.04847  21715998.5084   21715993.7234
        46.0004         46.0004
  -6044785.36446  -4653730.53045  24460180.2584   24460173.4104
        40.0004         33.0004
 -16842146.37747 -13108075.24547  22024821.9384   22024817.9304
        45.7504         46.2504
  -2467233.31946  -1772056.81245  24688068.4774   24688061.7234
        39.5004         32.2504
 20  5  3  0 52  0.0000000  0  9G16G27G22G 9G 4G26G 7G 3G31
 -24281821.23747 -19213379.40446  20398880.9694   20398872.8324
        46.7504         39.0004
  -3419390.44546  -2643220.75746  24525923.1334   24525919.6134
        40.2504         37.0004
 -10574603.54247  -8219342.15644  23846656.5004   23846647.5664
        42.5004         26.5004
 -18546508.30147 -14430965.31547  22025823.0084   22025817.7234
        46.7504         46.5004
 -27906955.79347 -21731742.06846  20363620.4924   20363613.8714
        47.0004         40.5004
 -16893255.44547 -13276772.64147  21728724.5164   21728720.2704
        46.0004         46.0004
  -6122835.14246  -4714548.53545  24445327.7504   24445320.8954
        40.2504         31.7504
 -16756008.93847 -13040955.18147  22041213.1254   22041208.9574
        45.5004         46.0004
  -2373944.43246  -1699364.18145  24705820.1414   24705813.7424
        39.7504         33.5004
 20  5  3  0 52 30.0000000  0  9G16G27G22G 9G 4G26G 7G 3G31
 -24286766.25347 -19217232.66046  20397939.9844   20397932.0164
        46.5004         39.7504
  -3514805.21846  -2717569.91545  24507764.9064   24507760.2584
        36.5004         30.0004
 -10472520.18247  -8139796.71844  23866081.7194   23866073.7424
        42.5004         26.2504
 -18624840.52247 -14492003.40047  22010916.6484   22010911.3954
        46.7504         46.5004
 -27930333.50347 -21749958.47146  20359171.6334   20359165.4494
        47.0004         40.5004
 -16825935.14447 -13224315.26747  21741535.2114   21741530.7664
        46.5004         46.0004
  -6200786.32746  -4775289.71745  24430493.9694   24430487.4774
        40.5004         32.2504
 -16669512.81647 -12973555.63247  22057672.9774   22057668.5004
        45.5004         46.0004
  -2280682.39146  -1626692.53745  24723567.7894   24723560.2544
        39.5004         31.5004
 20  5  3  0 53  0.0000000  0  9G16G27G22G 9G 4G26G 7G 3G31
 -24291039.51747 -19220562.46946  20397126.9844   20397118.9654
        47.0004         39.7504
  -3610155.85646  -2791869.16245  24489620.9454   24489617.1564
        39.2504         35.7504
 -10370332.57047  -8060170.05344  23885528.5004   23885519.4304
        43.0004         25.5004
 -18702971.85047 -14552884.94247  21996048.9454   21996043.7114
        46.7504         47.0004
 -27953337.44147 -21767883.62046  20354794.5314   20354787.7384
        46.5004         40.5004
 -16758175.33947 -13171515.43147  21754429.7974   21754425.1564
        45.7504         46.0004
  -6278639.86646  -4835954.81345  24415679.3674   24415672.3834
        40.7504         34.0004
 -16582661.59947 -12905879.37847  22074200.3524   22074195.8484
        45.0004         45.7504
  -2187448.78246  -1554042.97145  24741309.0084   24741301.4964
        39.0004         30.2504
 20  5  3  0 53 30.0000000  0  9G16G27G22G 9G 4G26G 7G 3G31
 -24294640.02147 -19223368.05546  20396441.6884   20396434.0084
        47.5004         39.0004
  -3705438.45546  -2866115.26845  24471488.6094   24471484.8984
        37.7504         33.0004
 -10268042.90247  -7980463.84444  23904993.5554   23904983.9024
        42.7504         26.2504
 -18780899.58047 -14613607.83047  21981219.9454   21981214.3634
        47.0004         47.0004
 -27975965.47647 -21785515.86246  20350488.0704   20350481.6844
        47.0004         40.7504
 -16689977.69547 -13118374.41547  21767407.2814   21767402.8594
        45.7504         46.0004
  -6356394.92846  -4896543.17045  24400883.5004   24400876.4144
        41.2504         33.7504
 -16495457.15047 -12837927.87447  22090794.4144   22090790.1094
        45.2504         45.5004
  -2094243.26646  -1481415.31645  24759046.7974   24759038.3794
        39.7504         31.0004
 20  5  3  0 54  0.0000000  0  9G16G27G22G 9G 4G26G 7G 3G31
 -24297569.35147 -19225650.64946  20395884.5164   20395876.4844
        47.5004         39.5004
  -3800650.68646  -2940306.62546  24453371.4844   24453367.9264
        39.0004         37.5004
 -10165654.24247  -7900680.51244  23924477.0394   23924468.0744
        42.0004         25.5004
 -18858622.92247 -14674171.46247  21966429.5394   21966424.1804
        47.2504         47.0004
 -27998217.26347 -21802854.91346  20346254.2344   20346247.6214
        47.5004         41.0004
 -16621345.70147 -13064894.93947  21780467.5004   21780463.0664
        45.5004         45.7504
  -6434051.80546  -4957055.05945  24386104.7504   24386099.0784
        40.7504         34.0004
 -16407903.32947 -12769704.14847  22107455.0394   22107451.0164
        45.0004         45.2504
  -2001067.49246  -1408810.93445  24776775.6724   24776770.0354
        36.7504         30.5004
 20  5  3  0 54 30.0000000  0  9G16G27G22G 9G 4G26G 7G 3G31
 -24299826.90548 -19227409.77646  20395455.0084   20395447.0944
        48.0004         39.5004
  -3895788.48546  -3014439.93045  24435266.5084   24435262.7584
        38.0004         33.0004
 -10063168.98547  -7820821.89344  23943979.5234   23943970.1994
        42.5004         24.2504
 -18936139.23847 -14734573.76047  21951678.4224   21951673.1644
        46.5004         47.0004
 -28020090.69247 -21819899.14946  20342091.4064   20342085.0004
        47.0004         41.0004
 -16552280.99647 -13011078.29647  21793610.0784   21793605.9184
        45.2504         46.0004
  -6511609.93847  -5017489.97545  24371346.8984   24371339.9534
        42.0004         35.0004
 -16320002.11447 -12701209.71747  22124182.2814   22124178.3674
        45.5004         45.5004
  -1907921.51646  -1336229.67645  24794501.9384   24794494.8364
        39.2504         30.0004
 20  5  3  0 55  0.0000000  0  9G16G27G22G 9G 4G26G 7G 3G31
 -24301412.72848 -19228645.47146  20395152.9224   20395145.0234
        48.2504         39.7504
  -3990848.42446  -3088512.55045  24417177.2034   24417173.7304
        37.7504         35.0004
  -9960589.24846  -7740889.67144  23963499.7114   23963491.0314
        41.5004         25.5004
 -19013446.45747 -14794813.13047  21936967.3754   21936962.3324
        45.5004         47.0004
 -28041584.22247 -21836647.36946  20338001.4064   20337994.8834
        47.2504         40.7504
 -16482785.87447 -12956926.25347  21806834.4304   21806830.3204
        45.5004         45.7504
  -6589069.04746  -5077847.72445  24356606.8204   24356600.3484
        41.2504         35.0004
 -16231756.04047 -12632446.56647  22140975.7194   22140971.4304
        45.5004         45.7504
  -1814805.59146  -1263671.88245  24812221.9224   24812214.7274
        39.5004         31.2504
 20  5  3  0 55 30.0000000  0  9G16G27G22G 9G 4G26G 7G 3G31
 -24302328.22847 -19229358.84546  20394978.8134   20394970.9534
        47.2504         38.7504
  -4085828.15646  -3162522.68245  24399103.6724   24399099.4414
        39.0004         33.5004
  -9857918.82747  -7660886.80144  23983037.5474   23983028.1564
        42.2504         25.2504
 -19090543.70947 -14854888.89147  21922295.9924   21922291.1054
        46.0004         47.0004
 -28062697.59547 -21853099.35046  20333983.5784   20333977.0744
        47.5004         40.7504
 -16412863.78947 -12902441.51947  21820140.0164   21820135.9654
        45.7504         45.5004
  -6666430.00446  -5138128.99445  24341885.4774   24341879.2384
        40.5004         35.2504
 -16143168.96147 -12563417.69947  22157832.8914   22157828.6684
        45.0004         45.5004
  -1721722.01046  -1191139.21045  24829934.9304   24829928.0124
        40.0004         33.2504
 20  5  3  0 56  0.0000000  0  9G16G27G22G 9G 4G26G 7G 3G31
 -24302572.47947 -19229549.17646  20394931.9694   20394924.0554
        46.5004         39.5004
  -4180723.25646  -3236466.93945  24381046.3984   24381041.4064
        39.7504         34.0004
  -9755159.30146  -7580814.45844  24002590.9454   24002582.7974
        41.2504         24.5004
 -19167428.02947 -14914798.73547  21907665.8364   21907660.0314
        46.7504         47.2504
 -28083428.32347 -21869253.17046  20330038.7034   20330032.3364
        46.5004         40.5004
 -16342516.17447 -12847625.20347  21833526.6414   21833522.3134
        45.7504         45.5004
  -6743691.19546  -5198332.52645  24327183.3284   24327176.6564
        41.2504         35.0004
 -16054242.51547 -12494124.38847  22174754.7504   22174750.9304
        45.0004         45.5004
  -1628669.73146  -1118631.06145  24847641.3284   24847634.7624
        38.0004         31.0004
 20  5  3  0 56 30.0000000  0  9G16G27G22G 9G 4G26G 7G 3G31
 -24302147.30647 -19229217.86246  20395013.1334   20395005.1764
        47.2504         39.2504
  -4275531.53946  -3310343.58745  24363005.2114   24362999.8364
        40.5004         35.0004
  -9652314.11546  -7500675.37444  24022162.8054   24022153.3954
        41.5004         24.5004
 -19244098.66947 -14974542.07947  21893075.9144   21893070.6294
        46.0004         47.2504
 -28103776.24347 -21885108.69946  20326166.3054   20326159.9654
        47.2504         41.0004
 -16271746.61347 -12792480.09847  21846994.5314   21846989.6174
        45.2504         45.5004
  -6820853.70746  -5258459.14845  24312499.0634   24312493.0704
        40.0004         35.0004
 -15964980.68647 -12424569.73747  22191740.9534   22191736.4264
        45.0004         45.2504
  -1535650.99046  -1046148.93345  24865343.2894   24865335.9024
        39.5004         32.2504
 20  5  3  0 57  0.0000000  0  9G16G27G22G 9G 4G26G 7G 3G31
 -24301051.26047 -19228363.79746  20395221.7424   20395213.6054
        47.0004         39.7504
  -4370248.25446  -3384148.72745  24344979.0704   24344975.4534
        40.0004         32.2504
  -9549384.55647  -7420470.57044  24041750.7424   24041740.7424
        42.0004         26.0004
 -19320552.18547 -15034116.23047  21878527.6804   21878521.8554
        46.2504         47.5004
 -28123738.51947 -21900663.72946  20322367.8984   20322361.5234
        47.0004         40.5004
 -16200556.05647 -12737006.93747  21860540.6954   21860536.7424
        45.7504         45.5004
  -6897916.37646  -5318507.98445  24297834.5164   24297828.3834
        39.7504         35.0004
 -15875384.64747 -12354754.67047  22208790.6954   22208786.2814
        46.0004         45.2504
  -1442664.65046   -973692.16245  24883036.9534   24883030.9694
        37.7504         30.5004
 20  5  3  0 57 30.0000000  0  9G16G27G22G 9G 4G26G 7G 3G31
 -24299285.96147 -19226988.23246  20395557.5784   20395549.2774
        47.0004         39.2504
  -4464870.86146  -3457880.63345  24326973.3284   24326970.4104
        39.0004         35.5004
  -9446374.35446  -7340202.91744  24061352.2424   24061343.1804
        41.5004         25.5004
 -19396787.62947 -15093520.45747  21864020.7664   21864014.7814
        45.7504         47.5004
 -28143314.76147 -21915917.95246  20318642.4304   20318636.4064
        46.7504         40.7504
 -16128947.96647 -12681208.42947  21874167.2974   21874163.1644
        45.5004         45.0004
  -6974879.45546  -5378479.20845  24283189.2194   24283182.5084
        41.5004         34.7504
 -15785458.20847 -12284682.13747  22225903.1804   22225898.6174
        45.5004         45.0004
  -1349712.49246   -901261.98844  24900725.7664   24900718.9184
        38.5004         27.7504
 20  5  3  0 58  0.0000000  0  9G16G27G22G 9G 4G26G 7G 3G31
 -24296851.11347 -19225090.94946  20396021.0554   20396013.1374
        46.7504         39.0004
  -4559395.92146  -3531536.47445  24308987.1024   24308982.6454
        40.7504         35.7504
  -9343285.78146  -7259874.19744  24080968.4534   24080959.9104
        41.2504         26.0004
 -19472802.81047 -15152753.05247  21849554.8134   21849549.4494
        46.5004         47.7504
 -28162503.37447 -21930870.12946  20314991.0474   20314984.5274
        46.7504         41.0004
 -16056924.55947 -12625086.30847  21887873.1484   21887868.6334
        45.7504         45.0004
  -7051742.93046  -5438372.82345  24268562.7664   24268556.3364
        41.0004         35.0004
 -15695203.88447 -12214354.12347  22243077.8204   22243073.9804
        44.5004         44.7504
  -1256794.94146   -828858.69444  24918407.2114   24918399.3754
        38.2504         26.7504
 20  5  3  0 58 30.0000000  0  9G16G27G22G 9G 4G26G 7G 3G31
 -24293748.06448 -19222672.98846  20396611.2734   20396603.6024
        48.0004         39.2504
  -4653820.17546  -3605113.82645  24291017.3834   24291013.8094
        38.2504         35.0004
  -9240121.19546  -7179486.23843  24100599.3984   24100591.4144
        40.7504         23.5004
 -19548596.09147 -15211812.73947  21835131.1804   21835126.3014
        46.5004         47.5004
 -28181303.31747 -21945519.43746  20311413.6334   20311407.1684
        47.2504         40.7504
 -15984488.57247 -12568642.67847  21901657.2734   21901652.9774
        45.0004         45.0004
  -7128506.24946  -5498188.38645  24253955.8364   24253948.7974
        41.5004         35.2504
 -15604624.72847 -12143772.98647  22260314.6024   22260310.0864
        44.5004         45.0004
  -1163912.48745   -756482.81144  24936080.6414   24936075.0274
        35.5004         26.2504
 20  5  3  0 59  0.0000000  0  9G16G27G22G 9G 4G26G 7G 3G31
 -24289977.45047 -19219734.84546  20397328.9774   20397320.8054
        47.5004         39.2504
  -4748140.75946  -3678610.25345  24273068.7274   24273064.9264
        38.2504         33.2504
  -9136884.09146  -7099041.77044  24120243.7344   24120236.6564
        39.2504         25.5004
 -19624165.80547 -15270698.22947  21820751.2814   21820746.0434
        46.5004         47.7504
 -28199713.60647 -21959865.11846  20307910.7274   20307904.3594
        47.0004         41.2504
 -15911642.84847 -12511879.78847  21915519.6024   21915515.1564
        45.2504         45.5004
  -7205169.96447  -5557926.35145  24239366.2194   24239359.6294
        42.0004         35.0004
 -15513723.87447 -12072941.17247  22277612.3204   22277608.1294
        45.0004         44.5004
  -1071066.48646   -684135.31144  24953750.6174   24953742.1094
        40.5004         27.5004
 20  5  3  0 59 30.0000000  0  9G16G27G22G 9G 4G26G 7G 3G31
 -24285539.29147 -19216276.52846  20398173.4694   20398165.4614
        47.0004         38.7504
  -4842353.74046  -3752022.94245  24255140.2894   24255137.2074
        37.0004         34.0004
  -9033576.28646  -7018542.24243  24139903.8984   24139895.6094
        39.5004         23.7504
 -19699509.58647 -15329407.66347  21806414.1254   21806408.5634
        46.5004         47.7504
 -28217732.44647 -21973905.78246  20304481.5634   20304475.2544
        47.5004         41.5004
 -15838389.38447 -12454799.17447  21929458.6804   21929455.0824
        45.5004         45.0004
  -7281733.54846  -5617586.29145  24224796.3134   24224790.2894
        41.7504         34.2504
 -15422503.67047 -12001860.52447  22294971.0234   22294966.9534
        44.5004         44.5004
   -978257.03146   -611816.23245  24971412.5474   24971403.5824
        39.7504         30.0004
 20  5  3  1  0  0.0000000  0  9G16G27G22G 9G 4G26G 7G 3G31
 -24280433.97247 -19212298.35846  20399145.0164   20399137.0044
        47.7504         39.5004
  -4936455.52046  -3825348.94245  24237235.1644   24237231.5004
        39.5004         35.7504
  -8930200.68047  -6937989.86944  24159576.7344   24159567.1804
        42.0004         24.7504
 -19774625.24847 -15387939.34247  21792120.2344   21792114.6054
        46.2504         47.7504
 -28235358.32147 -21987640.22946  20301127.6024   20301121.1374
        47.5004         41.2504
 -15764730.53547 -12397402.67247  21943475.8444   21943471.5554
        46.2504         45.0004
  -7358197.00646  -5677168.22145  24210246.4844   24210240.1094
        41.2504         34.7504
 -15330966.71147 -11930533.05547  22312390.1094   22312385.5984
        45.2504         44.5004
   -885484.36346   -539525.96045  24989067.6484   24989058.3984
        41.2504         33.5004
 20  5  3  1  0 30.0000000  0  9G16G27G22G 9G 4G26G 7G 3G31
 -24274662.43147 -19207801.05246  20400243.4144   20400235.0704
        47.5004         39.2504
  -5030443.35846  -3898586.20545  24219348.5394   24219344.0234
        39.5004         34.0004
  -8826759.95246  -6857386.74843  24179260.5164   24179251.2934
        40.0004         22.7504
 -19849511.43047 -15446292.20547  21777868.9844   21777864.1134
        46.5004         47.7504
 -28252590.52247 -22001067.92046  20297848.0394   20297841.4844
        47.0004         41.0004
 -15690669.31147 -12339692.63647  21957569.4694   21957565.0164
        45.0004         45.0004
  -7434560.21446  -5736672.04845  24195715.1484   24195707.6524
        40.7504         35.0004
 -15239116.42347 -11858961.42347  22329868.4844   22329864.2464
        44.7504         44.5004
   -792749.49246   -467265.05744  25006711.4694   25006706.2894
        36.0004         28.7504
 20  5  3  1  1  0.0000000  0  9G16G27G22G 9G 4G26G 7G 3G31
 -24268224.83347 -19202784.73546  20401468.1954   20401460.4614
        47.0004         39.0004
  -5124313.15146  -3971731.42546  24201486.8284   24201483.4414
        40.0004         36.7504
  -8723256.13946  -6776734.44543  24198956.8204   24198948.1844
        41.2504         22.5004
 -19924165.40147 -15504464.12548  21763663.8364   21763658.0124
        46.2504         48.0004
 -28269426.98947 -22014187.25246  20294644.1024   20294637.6374
        47.5004         41.0004
 -15616207.51247 -12281670.46847  21971738.9144   21971734.5744
        45.7504         44.7504
  -7510822.06646  -5796096.84945  24181203.4924   24181195.5434
        41.7504         34.5004
 -15146954.79547 -11787147.19847  22347406.9534   22347402.1454
        45.7504         44.5004
   -700052.20845   -395033.57444  25024350.9614   25024346.1954
        34.5004         25.2504
 20  5  3  1  1 30.0000000  0  9G16G27G22G 9G 4G26G 7G 3G31
 -24261122.54947 -19197250.48846  20402819.6334   20402811.8484
        47.7504         39.2504
  -5218062.18146  -4044782.62145  24183645.9614   24183641.6414
        39.5004         35.0004
  -8619692.12746  -6696035.25943  24218664.5704   24218655.0704
        40.0004         23.5004
 -19998586.05247 -15562454.22548  21749501.6724   21749496.0744
        47.0004         48.0004
 -28285867.25848 -22026997.85546  20291515.9144   20291509.2664
        48.0004         41.2504
 -15541348.50247 -12223338.78147  21985983.8984   21985979.8634
        45.7504         44.7504
  -7586983.52947  -5855443.46246  24166710.3134   24166703.2704
        42.2504         36.0004
 -15054485.53947 -11715093.25547  22365002.5554   22364998.7114
        45.0004         44.0004
   -607394.29246   -322832.57645  25041984.7344   25041978.6484
        38.0004         30.2504
 20  5  3  1  2  0.0000000  0  9G16G27G22G 9G 4G26G 7G 3G31
 -24253355.71647 -19191198.40746  20404297.6954   20404290.0354
        47.5004         39.7504
  -5311686.66146  -4117736.74346  24165830.4924   24165825.8204
        41.5004         36.0004
  -8516070.52646  -6615291.20544  24238382.6644   24238374.3524
        40.0004         24.5004
 -20072770.80147 -15620260.50647  21735384.8284   21735379.2154
        46.7504         47.7504
 -28301909.47147 -22039498.27946  20288462.9064   20288456.6214
        47.2504         41.2504
 -15466094.18447 -12164699.06047  22000304.8914   22000300.6134
        45.5004         44.5004
  -7663044.16046  -5914711.49246  24152236.4304   24152229.9144
        41.7504         36.5004
 -14961710.92647 -11642801.37347  22382657.0704   22382652.8164
        44.5004         44.0004
   -514775.82246   -250662.42345  25059609.8834   25059603.3984
        40.5004         32.7504
 20  5  3  1  2 30.0000000  0  9G16G27G22G 9G 4G26G 7G 3G31
 -24244926.07148 -19184629.84646  20405901.6484   20405893.4924
        49.5004         39.2504
  -5405184.18046  -4190591.94146  24148038.1334   24148034.1994
        40.5004         36.0004
  -8412394.69846  -6534504.89043  24258111.5784   24258103.2034
        40.2504         22.5004
 -20146718.76447 -15677882.28148  21721312.5634   21721307.1724
        47.0004         48.0004
 -28317553.38747 -22051688.34846  20285486.2584   20285479.9024
        46.7504         41.7504
 -15390448.15047 -12105754.11047  22014699.5084   22014695.0554
        46.0004         44.5004
  -7739004.51447  -5973901.37546  24137781.4224   24137774.9144
        42.2504         36.2504
 -14868634.80347 -11570274.55447  22400369.2274   22400364.3754
        45.5004         44.0004
   -422198.10246   -178523.85445  25077227.0704   25077219.0044
        41.0004         31.0004
 20  5  3  1  3  0.0000000  0  9G16G27G22G 9G 4G26G 7G 3G31
 -24235833.31048 -19177544.58046  20407632.2034   20407623.9454
        48.0004         39.7504
  -5498550.29146  -4263344.70445  24130270.3444   24130267.2854
        38.0004         35.7504
  -8308666.40146  -6453677.69543  24277849.2814   24277841.9574
        39.5004         23.5004
 -20220426.87847 -15735317.15648  21707286.7894   21707280.9104
        46.7504         48.5004
 -28332796.75447 -22063566.30746  20282585.6804   20282579.4184
        46.5004         41.5004
 -15314411.90847 -12046505.09247  22029168.8834   22029164.3054
        45.0004         44.5004
  -7814863.39346  -6033012.16746  24123346.4384   24123339.0434
        41.7504         36.2504
 -14775259.00247 -11497514.21047  22418137.7274   22418133.5234
        45.0004         43.7504
   -329660.28346   -106416.49645  25094836.2194   25094829.9454
        40.0004         33.0004
 20  5  3  1  3 30.0000000  0  9G16G27G22G 9G 4G26G 7G 3G31
 -24226078.55948 -19169943.46746  20409488.1644   20409480.8014
        48.0004         39.0004
  -5591782.15246  -4335992.81246  24112529.4694   24112525.8404
        39.5004         36.5004
  -8204888.49346  -6372811.86543  24297599.9694   24297590.7464
        41.5004         22.5004
 -20293893.62847 -15792563.96948  21693306.0634   21693300.9384
        46.7504         48.5004
 -28347638.69847 -22075131.46246  20279761.3134   20279754.6804
        47.2504         41.5004
 -15237988.42247 -11986954.33747  22043711.8524   22043707.2504
        45.2504         44.2504
  -7890621.18647  -6092044.21046  24108929.9924   24108923.4264
        42.0004         36.5004
 -14681586.82047 -11424522.92647  22435963.0944   22435958.8524
        46.0004         43.7504
   -237163.70246    -34341.26745  25112436.9844   25112431.0084
        37.2504         31.5004
 20  5  3  1  4  0.0000000  0  9G16G27G22G 9G 4G26G 7G 3G31
 -24215662.47848 -19161827.04146  20411470.7504   20411462.6374
        48.0004         39.5004
  -5684875.86546  -4408533.34545  24094814.0084   24094809.1094
        39.0004         35.0004
  -8101062.99346  -6291908.91043  24317356.7424   24317347.4734
        40.5004         22.5004
 -20367116.72647 -15849620.91748  21679371.9304   21679366.7234
        46.5004         48.5004
 -28362077.59747 -22086382.55446  20277013.5704   20277007.5784
        47.7504         41.2504
 -15161179.88247 -11927103.54047  22058328.0784   22058323.9384
        45.2504         44.2504
  -7966277.17846  -6150996.92846  24094532.4384   24094526.1024
        40.7504         36.2504
 -14587620.75347 -11351302.63947  22453844.3204   22453840.0434
        45.5004         44.0004
   -144708.74146     37701.46845  25130029.9454   25130024.7384
        36.5004         30.7504
 20  5  3  1  4 30.0000000  0  9G16G27G22G 9G 4G26G 7G 3G31
 -24204585.99048 -19153196.00746  20413578.5474   20413570.3204
        48.0004         39.0004
  -5777828.48146  -4480963.87246  24077125.4064   24077122.3554
        39.0004         37.2504
  -7997193.09946  -6210971.36043  24337122.8444   24337112.9884
        39.7504         22.7504
 -20440094.52047 -15906486.71448  21665485.3284   21665479.8914
        47.0004         48.5004
 -28376112.61347 -22097318.93546  20274342.7974   20274336.3794
        47.2504         41.2504
 -15083989.26547 -11866955.01847  22073017.1954   22073012.2544
        44.5004         44.0004
  -8041831.71346  -6209870.58946  24080155.5864   24080148.5004
        41.5004         36.5004
 -14493364.03947 -11277855.88347  22471780.9614   22471776.4494
        45.0004         44.0004
    -52296.45345    109711.06344  25147614.5704   25147609.4614
        35.0004         28.7504
 20  5  3  1  5  0.0000000  0  9G16G27G22G 9G 4G26G 7G 3G31
 -24192849.60548 -19144050.76546  20415811.9064   20415804.1214
        48.2504         39.5004
  -5870636.26346  -4553281.58146  24059466.3284   24059461.1724
        41.2504         37.2504
  -7893281.11846  -6130001.01643  24356895.9064   24356887.1294
        40.0004         21.2504
 -20512824.74947 -15963159.60848  21651645.3134   21651639.6914
        46.2504         48.5004
 -28389742.25648 -22107939.43946  20271749.3524   20271742.7814
        48.0004         41.2504
 -15006418.78647 -11806510.50247  22087778.2974   22087773.5204
        45.0004         44.0004
  -8117284.51747  -6268664.95146  24065797.3524   24065790.6054
        42.7504         36.7504
 -14398819.28447 -11204184.66847  22489771.8364   22489767.7974
        45.2504         43.5004
     40073.41946    181687.39445  25165193.6334   25165187.1524
        37.5004         30.5004
 20  5  3  1  5 30.0000000  0  9G16G27G22G 9G 4G26G 7G 3G31
 -24180455.00947 -19134392.64046  20418170.3594   20418162.4804
        47.5004         39.7504
  -5963296.37746  -4625484.22545  24041832.6484   24041827.8874
        40.0004         35.2504
  -7789330.03646  -6049000.20443  24376676.8754   24376668.3444
        38.7504         21.5004
 -20585305.91547 -16019638.43248  21637852.5394   21637847.2154
        47.7504         48.7504
 -28402965.77347 -22118243.48346  20269233.0784   20269226.4534
        47.0004         41.7504
 -14928471.52147 -11745772.38647  22102610.8134   22102606.6524
        44.5004         44.0004
  -8192635.78146  -6327380.20546  24051457.9384   24051451.4884
        41.5004         36.2504
 -14303989.86047 -11130291.64647  22507817.4844   22507813.3914
        44.7504         43.0004
    132399.38446    253629.62145  25182763.9454   25182756.9924
        41.2504         34.0004
 20  5  3  1  6  0.0000000  0  9G16G27G22G 9G 4G26G 7G 3G31
 -24167403.05248 -19124222.27746  20420653.7274   20420645.4614
        48.2504         39.2504
  -6055805.35446  -4697569.14345  24024228.2734   24024223.9734
        40.0004         35.2504
  -7685342.10546  -5967970.74843  24396466.1884   24396457.2274
        40.5004         20.2504
 -20657535.97247 -16075921.58948  21624107.3054   21624102.0984
        46.5004         49.0004
 -28415781.87247 -22128230.05946  20266793.8754   20266787.5704
        46.7504         41.5004
 -14850150.00247 -11684742.64147  22117514.9064   22117510.5904
        44.5004         44.0004
  -8267885.55747  -6386016.39345  24037138.9454   24037131.4884
        42.0004         35.7504
 -14208878.57747 -11056178.98347  22525916.4144   22525911.6524
        44.5004         43.0004
    224681.27546    325537.58244  25200324.1174   25200316.3014
        39.2504         27.5004
 20  5  3  1  6 30.0000000  0  9G16G27G22G 9G 4G26G 7G 3G31
 -24153694.10747 -19113539.98446  20423262.6414   20423254.4884
        47.5004         39.0004
  -6148159.27846  -4769533.20245  24006654.0314   24006649.0394
        40.2504         34.0004
  -7581319.77046  -5886914.41843  24416261.6484   24416251.5664
        39.5004         22.5004
 -20729512.47547 -16132007.17248  21610411.1724   21610405.7194
        47.5004         48.7504
 -28428188.87047 -22137897.85046  20264433.0784   20264426.6884
        47.0004         41.2504
 -14771456.30047 -11623422.89247  22132489.7734   22132485.9064
        44.0004         44.0004
  -8343033.10347  -6444572.94945  24022838.2034   24022830.7464
        42.0004         35.2504
 -14113487.86547 -10981848.59147  22544069.0864   22544064.4924
        45.2504         42.7504
    316919.00446    397411.12544  25217875.2894   25217868.9184
        37.2504         28.0004
 20  5  3  1  7  0.0000000  0  9G16G27G22G 9G 4G26G 7G 3G31
 -24139328.58547 -19102346.06746  20425996.2274   20425988.4774
        47.0004         39.5004
  -6240354.64546  -4841373.74345  23989109.2734   23989105.6914
        38.2504         34.2504
  -7477265.55146  -5805833.25043  24436061.8134   24436052.8914
        41.7504         22.7504
 -20801233.19147 -16187893.44348  21596762.9614   21596757.5164
        47.0004         49.0004
 -28440185.40947 -22147245.80946  20262150.1414   20262143.9264
        47.0004         41.7504
 -14692392.88947 -11561815.05447  22147535.1724   22147530.9694
        44.5004         44.0004
  -8418078.71847  -6503050.06945  24008557.8984   24008550.1134
        42.5004         35.5004
 -14017820.47147 -10907302.58247  22562273.7734   22562269.2274
        44.5004         42.7504
    409112.37646    469250.17744  25235419.0864   25235411.5864
        37.5004         25.5004
 20  5  3  1  7 30.0000000  0  9G16G27G22G 9G 4G26G 7G 3G31
 -24124308.83447 -19090642.36346  20428854.6644   20428846.4144
        47.5004         39.2504
  -6332388.69846  -4913088.50646  23971596.7194   23971593.2464
        40.0004         36.0004
  -7373182.48547  -5724729.63143  24455867.9614   24455859.0904
        42.7504         22.5004
 -20872696.91647 -16243579.47248  21583163.6414   21583158.2854
        46.7504         49.0004
 -28451771.03547 -22156273.56846  20259945.6334   20259939.1684
        47.2504         41.7504
 -14612962.98447 -11499921.62547  22162650.1254   22162646.0044
        44.2504         43.7504
  -8493021.75346  -6561447.21145  23994297.0394   23994288.9264
        40.7504         34.5004
 -13921879.95847 -10832543.76347  22580530.1724   22580526.1994
        45.0004         43.0004
    501260.05445    541053.45844  25252954.2584   25252948.0944
        34.2504         26.0004
 20  5  3  1  8  0.0000000  0  9G16G27G22G 9G 4G26G 7G 3G31
 -24108634.96148 -19078428.95446  20431837.3284   20431829.0434
        48.2504         39.0004
  -6424257.36846  -4984674.48646  23954114.6564   23954111.3444
        40.7504         37.5004
  -7269072.34247  -5643604.89444  24475680.7584   24475671.0084
        42.0004         24.2504
 -20943900.92747 -16299063.11648  21569613.3284   21569608.6684
        46.5004         49.0004
 -28462943.87947 -22164979.68646  20257819.0164   20257812.9924
        47.0004         41.5004
 -14533168.53847 -11437744.14447  22177833.9844   22177830.3554
        44.0004         43.5004
  -8567862.03846  -6619764.30245  23980054.2114   23980047.2344
        40.2504         34.2504
 -13825668.59747 -10757573.91247  22598838.7504   22598835.2304
        44.0004         43.0004
    593361.86845    612821.03144  25270479.6334   25270475.4224
        33.0004         26.2504
 20  5  3  1  8 30.0000000  0  9G16G27G22G 9G 4G26G 7G 3G31
 -24092308.51547 -19065707.04446  20434943.9614   20434936.0634
        47.0004         39.5004
  -6515958.02146  -5056129.49346  23936663.5634   23936660.0004
        39.5004         37.0004
  -7164938.53747  -5562461.72843  24495497.4224   24495486.5704
        42.5004         21.7504
 -21014843.91647 -16354343.35348  21556114.0944   21556108.2154
        47.0004         49.0004
 -28473703.44847 -22173363.76746  20255772.0004   20255765.5164
        46.7504         41.5004
 -14453012.81747 -11375285.14747  22193087.7504   22193083.4024
        43.7504         43.2504
  -8642600.46247  -6678002.01745  23965833.0474   23965824.9184
        42.2504         35.7504
 -13729189.96747 -10682395.80647  22617198.3284   22617194.6214
        44.7504         43.2504
    685416.91946    684552.19945  25287998.7974   25287992.4924
        38.0004         30.7504
 20  5  3  1  9  0.0000000  0  9G16G27G22G 9G 4G26G 7G 3G31
 -24075330.53947 -19052477.44846  20438174.9844   20438166.9304
        47.2504         39.7504
  -6607486.91346  -5127450.64246  23919247.2274   23919242.3554
        41.0004         38.0004
  -7060783.50746  -5481302.00843  24515314.9144   24515306.8714
        40.0004         21.7504
 -21085523.66447 -16409418.47948  21542664.3984   21542658.5514
        46.7504         49.2504
 -28484048.32247 -22181424.71347  20253803.2424   20253796.7424
        47.0004         42.0004
 -14372498.18447 -11312546.48347  22208408.7504   22208404.6684
        43.7504         43.5004
  -8717236.51246  -6736159.98046  23951629.5704   23951623.4414
        41.5004         37.0004
 -13632446.80147 -10607011.54247  22635607.3754   22635603.7664
        45.0004         42.7504
    777424.80746    756246.62345  25305507.2664   25305501.3874
        39.0004         33.5004
 20  5  3  1  9 30.0000000  0  9G16G27G22G 9G 4G26G 7G 3G31
 -24057702.37847 -19038741.21646  20441529.3594   20441521.4734
        47.0004         39.5004
  -6698840.56346  -5198635.26646  23901862.9064   23901858.6054
        41.2504         37.5004
  -6956609.65746  -5400127.62743  24535138.0704   24535131.2774
        39.5004         19.7504
 -21155938.07947 -16464286.84948  21529264.8364   21529258.9104
        46.5004         49.2504
 -28493977.36447 -22189161.63346  20251913.9304   20251907.3404
        47.0004         41.5004
 -14291627.22947 -11249530.16447  22223797.9774   22223794.4264
        43.7504         43.0004
  -8791769.74247  -6794237.78546  23937447.8524   23937440.5084
        42.5004         37.7504
 -13535441.92747 -10531423.35847  22654067.3134   22654063.2934
        44.2504         42.2504
    869385.59846    827904.27945  25323007.2814   25323001.2814
        40.0004         34.0004
 20  5  3  1 10  0.0000000  0  9G16G27G22G 9G 4G26G 7G 3G31
 -24039424.97747 -19024499.07946  20445007.2424   20444999.6094
        47.0004         39.0004
  -6790015.81446  -5269680.84146  23884512.0004   23884508.8094
        39.7504         37.2504
  -6852419.43146  -5318940.55943  24554966.8054   24554957.0824
        41.5004         19.5004
 -21226085.27547 -16518946.99348  21515916.3284   21515910.7544
        46.5004         49.5004
 -28503489.49947 -22196573.69447  20250103.7814   20250097.2344
        46.7504         42.0004
 -14210402.60247 -11186238.26047  22239254.6724   22239250.7274
        43.5004         42.7504
  -8866200.09346  -6852235.45446  23923282.5944   23923276.8364
        41.0004         37.0004
 -13438178.37247 -10455633.61647  22672576.2894   22672571.6884
        45.2504         42.5004
    961298.03746    899524.28144  25340496.5554   25340491.0824
        38.0004         26.5004
 20  5  3  1 10 30.0000000  0  9G16G27G22G 9G 4G26G 7G 3G31
 -24020499.41247 -19009751.89346  20448609.0864   20448601.0664
        47.2504         39.2504
  -6881008.99546  -5340584.63746  23867197.7034   23867193.6524
        41.5004         37.7504
  -6748215.37147  -5237742.59643  24574796.5164   24574786.1994
        42.0004         20.0004
 -21295963.19947 -16573397.30848  21502619.0314   21502613.6294
        47.7504         49.5004
 -28512583.50247 -22203659.93147  20248373.1564   20248366.6804
        46.7504         42.0004
 -14128826.87047 -11122672.77047  22254778.1804   22254774.3754
        44.0004         42.7504
  -8940527.51547  -6910152.91946  23909139.1334   23909132.0234
        43.0004         37.0004
 -13340659.01847 -10379644.53347  22691133.5704   22691129.4304
        45.5004         42.2504
   1053162.09245    971106.72944  25357978.0784   25357971.3244
        35.2504         24.2504
 20  5  3  1 11  0.0000000  0  9G16G27G22G 9G 4G26G 7G 3G31
 -24000925.56547 -18994499.54146  20452333.4534   20452325.8284
        47.0004         39.5004
  -6971815.82446  -5411343.09946  23849917.6414   23849913.9024
        39.7504         37.0004
  -6643999.25546  -5156535.28043  24594627.2114   24594618.2854
        41.0004         21.2504
 -21365568.66147 -16627635.31748  21489373.2584   21489367.6024
        47.5004         49.5004
 -28521257.15547 -22210418.63047  20246722.6174   20246716.6374
        47.2504         42.0004
 -14046901.48447 -11058834.82047  22270368.2814   22270363.9454
        43.7504         43.0004
  -9014750.99947  -6967989.37946  23895014.9844   23895007.4304
        43.0004         36.5004
 -13242885.62347 -10303457.51547  22709739.5394   22709735.3164
        44.7504         42.0004
   1144978.45245   1042651.87443  25375449.9774   25375443.7734
        34.5004         23.7504
 20  5  3  1 11 30.0000000  0  9G16G27G22G 9G 4G26G 7G 3G31
 -23980707.01647 -18978744.82446  20456181.3524   20456173.2034
        47.7504         39.2504
  -7062434.62446  -5481955.15846  23832673.0784   23832670.0704
        40.5004         37.7504
  -6539775.36847  -5075321.90443  24614461.0784   24614451.0164
        42.0004         21.0004
 -21434901.65947 -16681661.02748  21476179.8364   21476174.3444
        47.2504         49.5004
 -28529511.29547 -22216850.43747  20245151.5864   20245145.8054
        47.0004         42.0004
 -13964631.08847 -10994728.03347  22286023.5314   22286019.3754
        44.0004         43.0004
  -9088872.23947  -7025746.18946  23880910.0864   23880903.1484
        43.2504         37.2504
 -13144863.15247 -10227076.40947  22728393.0704   22728388.1024
        45.7504         42.7504
   1236744.82246   1114158.07843  25392913.0944   25392906.1524
        37.5004         23.7504
 20  5  3  1 12  0.0000000  0 10G16G27G22G 9G 4G26G 7G 3G 8G31
 -23959844.18947 -18962488.07546  20460151.1254   20460143.7974
        47.7504         39.2504
  -7152861.35846  -5552417.48745  23815465.0474   23815460.3094
        38.2504         35.0004
  -6435545.30246  -4994103.73643  24634294.1484   24634286.2274
        40.5004         21.0004
 -21503959.34247 -16735472.21148  21463038.5164   21463032.4924
        47.5004         49.5004
 -28537344.02847 -22222953.87747  20243661.2664   20243655.0594
        46.7504         42.0004
 -13882017.43947 -10930353.77047  22301745.0554   22301740.6294
        43.7504         42.7504
  -9162890.82647  -7083422.98946  23866824.6254   23866818.6524
        43.0004         37.0004
 -13046593.72147 -10150502.85147  22747092.3524   22747088.0704
        45.5004         42.2504
    156202.51255    140515.15654  24997638.7274   24997635.1724
        35.0004         27.2504
   1328461.11346   1185625.41143  25410366.5164   25410359.0474
        41.5004         22.0004
 20  5  3  1 12 30.0000000  0 10G16G27G22G 9G 4G26G 7G 3G 8G31
 -23938338.00947 -18945730.01146  20464243.6094   20464235.6294
        47.5004         39.0004
  -7243092.17746  -5622727.27346  23798294.2344   23798290.7704
        41.5004         37.5004
  -6331311.30647  -4912882.49143  24654131.0234   24654120.8094
        42.2504         20.7504
 -21572739.51647 -16789067.14848  21449950.0234   21449944.8094
        47.5004         49.7504
 -28544754.02647 -22228727.90346  20242251.6724   20242245.1764
        47.5004         41.5004
 -13799062.94947 -10865713.91747  22317529.7814   22317526.3364
        43.5004         43.0004
  -9236805.54747  -7141018.87046  23852758.8594   23852752.3594
        42.2504         36.2504
 -12948080.08247 -10073739.00547  22765838.5864   22765834.6484
        45.2504         42.2504
     55990.01046     62427.46944  24978569.1724   24978565.9454
        36.7504         28.2504
   1420127.06846   1257053.41843  25427809.6094   25427803.0864
        38.7504         20.7504
 20  5  3  1 13  0.0000000  0 10G16G27G22G 9G 4G26G 7G 3G 8G31
 -23916189.31747 -18928471.28746  20468458.2664   20468450.3094
        47.0004         39.2504
  -7333123.35647  -5692881.39046  23781162.5784   23781158.4264
        42.5004         37.5004
  -6227075.98246  -4831660.20143  24673963.3284   24673956.7854
        37.5004         22.0004
 -21641239.62047 -16842443.85048  21436915.0004   21436909.4454
        47.0004         49.5004
 -28551739.66147 -22234171.26347  20240922.2344   20240915.8674
        47.7504         42.0004
 -13715769.73647 -10800810.13347  22333380.6334   22333376.4224
        43.7504         43.0004
  -9310616.42847  -7198533.83246  23838712.7034   23838706.8324
        42.5004         36.2504
 -12849324.60347  -9996786.72247  22784631.5634   22784627.1994
        44.5004         42.2504
    -44303.57146    -15723.37944  24959483.7344   24959480.2974
        36.2504         27.2504
   1511742.92146   1328442.29143  25445242.7274   25445237.9304
        37.0004         21.5004
 20  5  3  1 13 30.0000000  0 10G16G27G22G 9G 4G26G 7G 3G 8G31
 -23893399.94247 -18910713.33046  20472794.9064   20472787.6414
        47.5004         39.0004
  -7422951.99347  -5762877.69946  23764068.7504   23764064.5274
        42.2504         38.0004
  -6122842.08646  -4750439.06043  24693799.3364   24693792.1214
        37.5004         21.2504
 -21709458.12347 -16895601.12248  21423933.0784   21423927.6134
        46.7504         49.2504
 -28558300.42647 -22239283.54247  20239673.3984   20239667.4694
        47.2504         42.0004
 -13632140.90747 -10735644.82647  22349295.2114   22349290.2194
        43.5004         42.2504
  -9384323.84147  -7255968.15945  23824686.9924   23824680.6914
        42.5004         35.0004
 -12750330.83647  -9919648.75046  22803469.1564   22803465.0274
        44.5004         41.0004
   -144676.07146    -93935.76944  24940384.0234   24940379.7584
        38.2504         29.0004
   1603307.76146   1399791.41543  25462668.3984   25462662.2704
        39.7504         22.5004
 20  5  3  1 14  0.0000000  0 10G16G27G22G 9G 4G26G 7G 3G 8G31
 -23869971.47747 -18892457.39146  20477253.3204   20477245.6214
        47.0004         39.7504
  -7512574.63546  -5832713.52446  23747014.4224   23747010.0474
        41.7504         38.7504
  -6018612.06246  -4669220.98743  24713634.7274   24713626.2664
        40.0004         19.7504
 -21777393.10747 -16948537.46548  21411005.8364   21411000.1604
        46.7504         49.5004
 -28564435.33147 -22244064.00046  20238506.0164   20238499.8554
        47.7504         41.5004
 -13548179.22347 -10670220.14747  22365272.1954   22365267.4614
        43.5004         43.0004
  -9457927.51747  -7313321.67346  23810680.8834   23810674.6604
        43.0004         37.0004
 -12651101.75447  -9842327.41746  22822351.7114   22822347.7034
        45.0004         41.2504
   -245124.46346   -172207.31844  24921269.7194   24921264.4184
        37.2504         26.5004
   1694821.18945   1471100.55642  25480081.7274   25480076.5984
        35.0004         16.7504
 20  5  3  1 14 30.0000000  0 10G16G27G22G 9G 4G26G 7G 3G 8G31
 -23845904.94447 -18873704.24846  20481832.7894   20481825.2154
        46.7504         39.7504
  -7601987.98646  -5902386.24646  23729998.7734   23729994.5594
        40.0004         37.0004
  -5914388.36546  -4588007.77643  24733467.9304   24733459.0864
        41.2504         19.0004
 -21845042.61447 -17001251.36248  21398132.5944   21398126.7814
        46.5004         49.7504
 -28570143.30147 -22248511.77747  20237420.1804   20237413.5904
        46.7504         42.0004
 -13463887.28447 -10604538.12847  22381311.9694   22381307.7814
        43.0004         42.2504
  -9531427.17347  -7370594.13246  23796695.1094   23796687.8134
        43.7504         37.5004
 -12551640.34647  -9764825.05046  22841278.9384   22841274.6414
        44.7504         41.5004
   -345646.41346   -250536.07544  24902141.0634   24902137.2424
        36.5004         27.5004
   1786282.48645   1542369.00142  25497486.4454   25497481.2734
        34.2504         16.2504
 20  5  3  1 15  0.0000000  0 10G16G27G22G 9G 4G26G 7G 3G 8G31
 -23821201.97047 -18854455.17946  20486533.7894   20486526.1844
        46.7504         39.2504
  -7691188.51546  -5971893.09746  23713025.7664   23713021.4494
        41.0004         38.7504
  -5810173.66246  -4506801.62843  24753300.5394   24753290.7424
        40.5004         19.5004
 -21912404.42247 -17053741.07548  21385313.6174   21385308.5124
        47.2504         49.7504
 -28575423.20247 -22252625.98446  20236415.3134   20236409.0204
        47.0004         41.7504
 -13379267.58447 -10538600.71547  22397414.6254   22397410.5744
        42.7504         42.0004
  -9604823.18547  -7427785.81846  23782727.9454   23782721.0864
        43.2504         37.7504
 -12451949.50147  -9687143.89646  22860249.7894   22860245.1254
        45.0004         41.0004
   -446238.65745   -328919.64444  24882997.6094   24882995.2704
        34.7504         27.5004
   1877691.44945   1613596.62942  25514880.2894   25514876.0354
        35.2504         17.7504
 20  5  3  1 15 30.0000000  0 10G16G27G22G 9G 4G26G 7G 3G 8G31
 -23795864.22747 -18834711.48546  20491355.3054   20491347.5004
        47.0004         39.5004
  -7780172.95446  -6041231.56246  23696091.9534   23696087.6174
        40.5004         38.0004
  -5705970.66747  -4425604.51943  24773129.4694   24773119.1214
        42.2504         19.2504
 -21979476.70847 -17106005.19448  21372550.2814   21372544.8284
        47.0004         50.0004
 -28580274.13547 -22256405.93347  20235492.0864   20235485.6604
        46.7504         42.0004
 -13294322.94047 -10472410.10147  22413578.7424   22413574.6134
        43.0004         42.2504
  -9678115.14047  -7484896.41746  23768780.7504   23768773.7034
        43.7504         38.0004
 -12352032.25247  -9609286.33346  22879263.9304   22879258.4844
        45.0004         41.0004
   -546898.26646   -407355.70645  24863844.0474   24863839.5474
        36.5004         30.0004
   1969047.54346   1617657.36353  25532267.1804   25532259.6294
        41.7504         22.0004
 20  5  3  1 16  0.0000000  0 10G16G27G22G 9G 4G26G 7G 3G 8G31
 -23769893.00347 -18814474.16246  20496297.4694   20496289.8714
        47.0004         39.2504
  -7868938.19146  -6110399.25146  23679199.9534   23679196.4224
        40.5004         38.2504
  -5601781.84946  -4344418.46343  24792956.0864   24792946.3954
        41.0004         19.7504
 -22046257.68647 -17158042.31548  21359842.1024   21359836.7734
        47.0004         50.0004
 -28584695.34147 -22259851.03546  20234650.9694   20234644.3054
        46.7504         41.7504
 -13209056.27247 -10405968.55647  22429804.8594   22429800.8204
        43.0004         42.0004
  -9751303.45147  -7541926.27646  23754853.2034   23754846.9184
        44.0004         38.0004
 -12251891.92847  -9531254.93546  22898319.1024   22898315.2274
        44.5004         41.2504
   -647623.02145   -485842.48444  24844674.7034   24844672.2704
        34.7504         28.5004
   2060349.62546   1688801.85344  25549641.3524   25549634.3794
        40.5004         27.2504
 20  5  3  1 16 30.0000000  0 10G16G27G22G 9G 4G26G 7G 3G 8G31
 -23743289.44347 -18793744.12046  20501360.2504   20501352.3444
        47.0004         39.2504
  -7957479.88946  -6179392.79446  23662350.9614   23662347.3364
        40.7504         37.7504
  -5497608.98046  -4263244.77743  24812778.6094   24812769.4884
        40.5004         19.7504
 -22112744.46847 -17209850.19348  21347190.7194   21347185.2194
        47.2504         50.2504
 -28588684.96547 -22262959.83647  20233891.7664   20233885.4494
        47.0004         42.0004
 -13123469.30447 -10339277.42446  22446091.5554   22446086.9454
        43.2504         41.7504
  -9824387.39547  -7598874.79946  23740946.1954   23740939.1414
        43.5004         38.5004
 -12151530.53547  -9453051.27546  22917417.1254   22917413.2544
        45.0004         41.5004
   -748408.98746   -564376.94245  24825496.3984   24825494.0784
        36.5004         30.7504
   2151599.10045   1759905.01942  25567003.6644   25566999.6914
        33.0004         16.7504
 20  5  3  1 17  0.0000000  0 10G16G27G22G 9G 4G26G 7G 3G 8G31
 -23716055.39347 -18772522.77946  20506542.6484   20506534.8164
        47.2504         39.0004
  -8045795.25546  -6248209.95846  23645545.0864   23645539.6954
        41.0004         37.0004
  -5393455.10046  -4182086.04143  24832597.9774   24832589.6024
        38.5004         19.5004
 -22178935.57448 -17261427.67948  21334595.2114   21334588.9734
        48.0004         50.5004
 -28592242.51947 -22265731.96447  20233214.8284   20233208.5164
        47.2504         42.0004
 -13037565.18747 -10272339.15846  22462438.3054   22462433.8834
        43.0004         41.5004
  -9897367.13647  -7655742.11446  23727058.2424   23727051.9384
        42.7504         38.2504
 -12050951.69947  -9374678.19246  22936556.8444   22936552.7894
        44.5004         41.2504
   -849254.12546   -642957.50545  24806306.5554   24806304.4064
        37.5004         32.0004
   2242794.08446   1830966.24442  25584358.9774   25584352.0204
        38.2504         16.2504
 20  5  3  1 17 30.0000000  0 10G16G27G22G 9G 4G26G 7G 3G 8G31
 -23688191.46747 -18750810.63346  20511844.9844   20511837.2934
        47.2504         39.0004
  -8133880.01346  -6316847.43046  23628783.6564   23628780.2974
        41.0004         38.5004
  -5289322.45746  -4100943.77643  24852413.1094   24852405.5824
        38.5004         19.2504
 -22244828.12047 -17312772.52448  21322055.5704   21322050.3554
        47.7504         50.5004
 -28595366.17947 -22268165.99746  20232620.0164   20232614.0394
        47.0004         41.7504
 -12951345.77947 -10205155.21247  22478845.4064   22478841.3014
        43.0004         42.0004
  -9970241.69247  -7712527.46846  23713190.7424   23713183.4614
        42.7504         37.7504
 -11950157.48847  -9296137.28446  22955737.8134   22955733.5394
        45.2504         41.2504
   -950154.41846   -721581.09145  24787107.0394   24787101.9734
        38.2504         30.2504
   2333935.44345   1901985.24642  25601700.0474   25601696.2384
        32.2504         15.5004
 20  5  3  1 18  0.0000000  0 10G16G27G22G 9G 4G26G 7G 3G 8G31
 -23659700.56047 -18728609.92546  20517266.7034   20517258.4184
        47.2504         39.5004
  -8221732.05446  -6385303.48946  23612066.1954   23612061.8364
        41.2504         38.5004
  -5185213.99146  -4019820.42043  24872227.4614   24872217.1374
        41.7504         20.0004
 -22310421.36647 -17363884.14448  21309573.3914   21309568.3714
        47.0004         50.2504
 -28598056.23147 -22270262.15247  20232108.4144   20232102.4844
        47.0004         42.2504
 -12864814.89547 -10137728.56446  22495311.9064   22495307.8444
        43.0004         41.5004
 -10043012.22647  -7769231.75346  23699343.1094   23699335.7974
        44.0004         37.5004
 -11849152.13347  -9217431.83946  22974958.0554   22974954.2344
        44.2504         41.2504
  -1051108.49846   -800246.58844  24767894.5554   24767891.1094
        36.2504         28.5004
   2425021.53146   1972961.30643  25619035.9924   25619029.2034
        41.2504         22.7504
 20  5  3  1 18 30.0000000  0 10G16G27G22G 9G 4G26G 7G 3G 8G31
 -23630583.61047 -18705921.39046  20522807.0394   20522799.1524
        47.2504         40.2504
  -8309347.21246  -6453575.04646  23595393.2974   23595388.5664
        41.0004         38.2504
  -5081131.79246  -3938717.37843  24892029.8914   24892023.4924
        36.0004         20.0004
 -22375712.52647 -17414760.37548  21297149.1094   21297143.8284
        47.5004         50.2504
 -28600310.96747 -22272019.09847  20231679.2584   20231673.3364
        47.0004         42.2504
 -12777974.52347 -10070060.75046  22511837.3204   22511832.9924
        42.7504         41.2504
 -10115678.18247  -7825854.56346  23685515.5944   23685508.1914
        44.5004         37.2504
 -11747937.87947  -9138563.62246  22994218.1024   22994214.2074
        43.5004         40.0004
  -1152112.95346   -878951.17144  24748674.1724   24748671.9144
        36.7504         28.5004
   2516052.48645   2043894.67942  25636358.3524   25636350.6684
        34.7504         17.7504
 20  5  3  1 19  0.0000000  0 10G16G27G22G 9G 4G26G 7G 3G 8G31
 -23600841.62247 -18682745.80946  20528466.8754   20528458.9884
        47.2504         39.5004
  -8396721.67346  -6521658.97946  23578766.0394   23578763.3984
        40.7504         39.0004
  -4977077.81745  -3857636.49443  24911829.0864   24911824.2774
        34.0004         20.0004
 -22440699.11047 -17465399.27448  21284782.4924   21284777.2934
        47.2504         50.5004
 -28602128.97847 -22273435.74047  20231333.7034   20231327.0274
        46.7504         42.2504
 -12690826.77947 -10002153.42546  22528420.7194   22528416.1684
        43.0004         41.5004
 -10188239.09347  -7882395.52346  23671706.9614   23671699.8754
        43.5004         37.0004
 -11646517.29647  -9059534.63246  23013518.4454   23013513.9844
        44.0004         40.0004
  -1253164.10346   -957692.29745  24729447.7504   24729443.9104
        41.0004         32.5004
   2607029.01345   2114785.25542  25653670.1804   25653664.8134
        34.7504         15.5004
 20  5  3  1 19 30.0000000  0 10G16G27G22G 9G 4G26G 7G 3G 8G31
 -23570477.38647 -18659085.37246  20534245.3284   20534236.8484
        47.2504         38.7504
  -8483853.04746  -6589553.47446  23562185.3914   23562181.6174
        40.5004         38.5004
  -4873055.84946  -3776580.50843  24931627.8914   24931619.8794
        39.2504         20.5004
 -22505380.10247 -17515800.05248  21272474.1644   21272469.0984
        47.2504         50.5004
 -28603510.29947 -22274512.10846  20231070.6954   20231064.5084
        46.7504         41.7504
 -12603375.39947  -9934009.50646  22545062.2814   22545058.0004
        42.7504         41.7504
 -10260695.63647  -7938855.15546  23657919.7274   23657911.7814
        43.5004         36.7504
 -11544894.30147  -8980347.91646  23032857.1024   23032852.5824
        44.0004         40.2504
  -1354260.12546  -1036468.49345  24710206.1644   24710203.4304
        36.7504         30.5004
   2697948.86147   2185631.75243  25670972.1724   25670965.8484
        42.0004         21.7504
 20  5  3  1 20  0.0000000  0 10G16G27G22G 9G 4G26G 7G 3G 8G31
 -23539491.86847 -18634940.81246  20540141.9614   20540133.6054
        47.0004         39.5004
  -8570737.29846  -6657255.48346  23545651.7344   23545648.0474
        40.7504         38.7504
  -4769067.91346  -3695551.00643  24951414.5944   24951408.4574
        37.5004         20.2504
 -22569752.82047 -17565960.61048  21260224.7194   21260219.2774
        47.2504         50.5004
 -28604453.40847 -22275247.01447  20230891.2584   20230884.9224
        47.0004         42.0004
 -12515622.29747  -9865630.47646  22561761.1414   22561756.5164
        42.7504         41.5004
 -10333047.30347  -7995233.06746  23644151.2424   23644143.8984
        43.5004         37.7504
 -11443071.36047  -8901005.39146  23052232.7974   23052228.9344
        44.2504         40.5004
  -1455397.67646  -1115276.88845  24690962.7194   24690958.1804
        39.7504         31.2504
   2788812.811 5                  25688261.750
        34.750
 20  5  3  1 20 30.0000000  0 10G16G27G22G 9G 4G26G 7G 3G 8G31
 -23507883.89547 -18610311.21846  20546156.6174   20546148.4964
        47.2504         39.2504
  -8657368.04646  -6724759.90546  23529166.7504   23529162.4614
        41.0004         38.5004
  -4665112.90246  -3614547.14343  24971196.6724   24971189.6804
        39.5004         19.7504
 -22633812.30347 -17615877.08848  21248034.4924   21248029.1134
        47.2504         50.5004
 -28604954.38847 -22275637.39447  20230796.0084   20230789.4064
        47.0004         42.0004
 -12427567.16247  -9797016.09746  22578517.4614   22578513.4574
        42.5004         41.0004
 -10405290.72847  -8051526.62546  23630404.0554   23630396.7894
        44.0004         38.5004
 -11341048.40347  -8821507.00846  23071647.2034   23071643.1604
        44.7504         40.7504
  -1556570.54645  -1194112.96944  24671707.1174   24671706.4144
        34.7504         29.7504
   2879623.49145   2227910.60553  25705543.3834   25705536.1054
        34.2504         19.5004
 20  5  3  1 21  0.0000000  0 10G16G27G22G 9G 4G26G 7G 3G 8G31
 -23475660.60747 -18585202.16346  20552288.4064   20552280.1844
        47.0004         39.0004
  -8743747.56847  -6792068.58446  23512730.0084   23512725.1294
        43.0004         39.2504
  -4561198.96746  -3533575.33843  24990973.1884   24990963.1024
        40.2504         19.2504
 -22697562.07747 -17665552.23848  21235903.4064   21235897.4734
        47.2504         50.5004
 -28605017.86147 -22275686.87547  20230783.8444   20230777.6334
        46.7504         42.0004
 -12339218.22047  -9728172.78046  22595329.6484   22595325.5824
        43.0004         41.0004
 -10477431.56547  -8107740.21946  23616676.2034   23616668.7854
        44.0004         38.7504
 -11238834.07347  -8741859.50346  23091097.7274   23091094.0314
        44.0004         40.5004
  -1657781.93846  -1272978.90244  24652448.7344   24652444.9494
        36.7504         29.2504
   2970374.49345   2298625.51543  25722812.8834   25722806.9304
        34.5004         21.2504
 20  5  3  1 21 30.0000000  0 10G16G27G22G 9G 4G26G 7G 3G 8G31
 -23442821.83747 -18559613.51046  20558537.4774   20558528.9844
        47.2504         39.0004
  -8829870.32646  -6859177.23646  23496341.0314   23496334.9614
        41.5004         37.5004
  -4457326.60546  -3452635.86643  25010740.7584   25010729.4304
        41.0004         18.2504
 -22760998.00847 -17714982.84448  21223831.6724   21223826.2194
        47.5004         50.5004
 -28604640.93047 -22275393.17747  20230855.4774   20230849.1844
        47.0004         42.2504
 -12250576.01147  -9659100.93946  22612197.4774   22612193.9344
        42.5004         41.2504
 -10549467.67447  -8163872.23446  23602967.6884   23602960.8094
        44.2504         39.2504
 -11136429.17147  -8662063.51846  23110585.1094   23110581.2384
        44.0004         40.2504
  -1759026.00046  -1351870.43244  24633182.0704   24633178.7664
        37.2504         29.2504
   3061067.95045   2369295.60843  25740069.6884   25740065.2074
        33.0004         19.7504
 20  5  3  1 22  0.0000000  0 10G16G27G22G 9G 4G26G 7G 3G 8G31
 -23409368.24247 -18533545.77346  20564903.4384   20564895.0394
        47.0004         38.7504
  -8915731.91746  -6926082.36746  23480002.3134   23479997.6414
        41.2504         39.0004
  -4353497.47146  -3371730.11243  25030495.3754   25030487.6094
        38.7504         18.5004
 -22824117.07447 -17764166.53548  21211820.9064   21211815.3204
        47.5004         50.7504
 -28603821.60447 -22274754.74647  20231011.3594   20231005.0234
        47.0004         42.0004
 -12161642.18247  -9589801.86746  22629121.1954   22629116.9884
        42.7504         41.2504
 -10621398.12747  -8219921.91746  23589280.1024   23589273.0394
        44.2504         39.2504
 -11033835.69147  -8582120.58746  23130107.8444   23130103.7194
        43.5004         40.0004
  -1860299.62646  -1430784.84144  24613911.4144   24613907.5744
        38.2504         29.5004
   3151704.14546   2439921.14343  25757318.7974   25757312.6484
        40.7504         21.2504
 20  5  3  1 22 30.0000000  0 10G16G27G22G 9G 4G26G 7G 3G 8G31
 -23375302.54547 -18507001.07946  20571385.6804   20571377.7194
        47.2504         38.7504
  -9001329.86446  -6992781.99946  23463712.6564   23463709.0204
        40.2504         37.5004
  -4249714.92746  -3290860.60543  25050244.6804   25050238.0004
        38.2504         18.5004
 -22886918.08048 -17813102.37948  21199870.0004   21199864.4964
        48.0004         50.7504
 -28602559.89647 -22273771.60947  20231251.4454   20231245.2114
        47.0004         42.0004
 -12072420.21247  -9520278.26546  22646099.2034   22646095.3754
        42.5004         40.7504
 -10693223.39747  -8275889.64446  23575612.2114   23575605.1954
        44.7504         38.7504
 -10931057.52147  -8502033.72746  23149665.7734   23149661.8834
        44.5004         39.7504
  -1961600.14045  -1509720.35244  24594632.2344   24594630.0554
        35.0004         28.5004
   3242281.94746   2510501.42343  25774555.7114   25774548.6334
        41.2504         21.5004
 20  5  3  1 23  0.0000000  0 10G16G27G22G 9G 4G26G 7G 3G 8G31
 -23340625.79547 -18479980.22746  20577984.4384   20577976.7234
        47.0004         38.7504
  -9086660.06346  -7059273.09046  23447473.6094   23447470.8204
        39.5004         38.0004
  -4145980.18346  -3210028.44543  25069985.0474   25069978.4494
        38.0004         19.5004
 -22949398.27247 -17861788.24948  21187980.4534   21187975.2154
        47.5004         51.0004
 -28600854.15847 -22272442.46646  20231575.9454   20231569.6884
        47.0004         41.7504
 -11982911.95147  -9450531.59046  22663132.7504   22663128.2544
        43.0004         41.0004
 -10764942.69747  -8331774.80246  23561963.9304   23561956.8754
        44.0004         38.5004
 -10828096.87947  -8421804.68646  23169258.5314   23169254.8094
        44.0004         39.2504
  -2062924.37046  -1588674.23745  24575352.7424   24575349.3874
        39.5004         32.7504
   3332802.45546   2581036.82943  25791780.3834   25791774.2384
        38.2504         21.7504
 20  5  3  1 23 30.0000000  0 10G16G27G22G 9G 4G26G 7G 3G 8G31
 -23305340.00647 -18452484.81946  20584698.9924   20584691.5314
        47.0004         38.5004
  -9171719.49746  -7125553.05946  23431289.5394   23431286.0164
        41.0004         40.5004
  -4042296.69046  -3129236.13543  25089716.7584   25089708.8914
        40.0004         19.7504
 -23011555.97348 -17910222.82048  21176152.2974   21176146.9924
        48.0004         50.7504
 -28598703.94347 -22270766.98247  20231985.5234   20231978.9774
        46.7504         42.0004
 -11893120.43747  -9380564.18346  22680219.3674   22680214.9494
        42.5004         40.5004
 -10836556.50547  -8387577.74946  23548336.9224   23548329.8204
        44.2504         38.7504
 -10724957.13847  -8341436.08146  23188884.7344   23188881.5864
        43.5004         38.7504
  -2164269.30146  -1667644.22645  24556067.8754   24556064.0274
        40.0004         33.2504
   3423264.73445   2651526.78342  25808995.8204   25808989.1334
        35.5004         17.2504
 20  5  3  1 24  0.0000000  0 10G16G27G22G 9G 4G26G 7G 3G 8G31
 -23269443.40947 -18424513.44346  20591529.8914   20591521.9494
        47.7504         38.7504
  -9256500.89647  -7191616.42446  23415155.7194   23415151.2464
        42.0004         40.5004
  -3938662.73046  -3048482.42243  25109436.6254   25109429.0234
        40.0004         21.0004
 -23073385.31547 -17958401.53048  21164386.6954   21164381.1024
        47.7504         51.0004
 -28596104.56647 -22268741.51147  20232479.8204   20232473.1804
        47.0004         42.0004
 -11803044.47547  -9310375.13846  22697360.2114   22697355.8954
        42.5004         40.5004
 -10908061.04947  -8443295.56546  23534729.6414   23534722.6644
        44.7504         39.7504
 -10621637.47547  -8260927.29546  23208546.7974   23208542.4104
        44.0004         39.5004
  -2265628.32346  -1746625.25345  24536779.8054   24536776.2974
        39.0004         33.5004
                                  25826198.734
        31.250
 20  5  3  1 24 30.0000000  0 10G16G27G22G 9G 4G26G 7G 3G 8G31
 -23232948.26348 -18396075.67146  20598475.0084   20598466.9224
        48.2504         38.5004
  -9341011.46247  -7257468.86947  23399074.8914   23399070.2974
        44.5004         42.0004
  -3835091.21846  -2967777.48443  25129145.9224   25129138.0234
        40.0004         20.0004
 -23134894.80347 -18006330.99648  21152681.7664   21152676.3164
        47.7504         51.0004
 -28593065.74147 -22266373.60147  20233057.7114   20233051.8984
        47.0004         42.2504
 -11712697.21047  -9239974.68946  22714552.9694   22714548.0514
        42.2504         40.5004
 -10979466.70547  -8498936.31746  23521141.3444   23521134.8984
        43.5004         39.5004
 -10518151.40947  -8180288.82446  23228239.1804   23228235.1994
        44.2504         39.5004
  -2367008.82046  -1825623.01345  24517486.4384   24517483.7894
        37.5004         31.0004
  30386153.40515                  25843390.680
        31.750
 20  5  3  1 25  0.0000000  0 10G16G27G22G 9G 4G26G 7G 3G 8G31
 -23195845.91648 -18367164.75046  20605535.1724   20605527.1374
        48.0004         39.0004
  -9425237.39046  -7323099.35746  23383044.8834   23383042.6254
        40.7504         40.5004
  -3731574.36546  -2887114.98843  25148842.9534   25148837.0944
        37.0004         20.0004
 -23196071.87347 -18054001.44648  21141039.9614   21141034.4024
        47.5004         51.2504
 -28589576.08347 -22263654.39347  20233722.1254   20233715.9184
        47.0004         42.0004
 -11622070.74047  -9169356.67346  22731798.1414   22731794.1254
        42.5004         40.0004
 -11050762.97347  -8554491.85046  23507573.7814   23507567.2114
        44.2504         39.5004
 -10414491.33747  -8099514.77046  23247964.9844   23247961.1414
        44.0004         39.5004
  -2468397.73546  -1904627.28045  24498192.0634   24498191.0164
        37.2504         31.5004
  30476439.22846  23526860.57853  25860571.2034   25860565.3914
        37.2504         20.2504
 20  5  3  1 25 30.0000000  0 10G16G27G22G 9G 4G26G 7G 3G 8G31
 -23158142.33748 -18337785.34046  20612709.7814   20612701.9694
        48.0004         38.5004
  -9509178.96446  -7388508.38046  23367072.6724   23367067.6024
        41.2504         38.7504
  -3628118.26746  -2806499.93843  25168532.4774   25168524.1804
        41.2504         19.2504
 -23256918.30848 -18101414.25148  21129461.7664   21129456.1684
        48.2504         51.5004
 -28585638.56847 -22260586.21247  20234471.4844   20234465.2034
        46.5004         42.0004
 -11531171.49147  -9098526.09746  22749095.7194   22749092.0514
        42.0004         40.2504
 -11121953.08347  -8609964.65446  23494027.7814   23494020.6454
        44.2504         39.0004
 -10310664.13847  -8018610.48746  23267722.9224   23267718.7114
        43.2504         39.5004
  -2569795.46346  -1983638.45845  24478897.8284   24478894.5594
        37.7504         30.5004
  30566665.16746  23597166.49543  25877739.8134   25877734.4224
        37.0004         19.2504
 20  5  3  1 26  0.0000000  0 10G16G27G22G 9G 4G26G 7G 3G 8G31
 -23119838.62748 -18307938.28946  20619999.1174   20619990.6604
        48.7504         38.5004
  -9592832.35546  -7453692.81746  23351153.0314   23351149.0084
        40.7504         37.2504
  -3524724.54346  -2725933.51543  25188205.6484   25188199.5554
        37.0004         20.0004
 -23317431.37447 -18148567.29648  21117946.0474   21117941.2274
        47.7504         51.5004
 -28581251.72247 -22257167.89547  20235306.1954   20235300.2074
        47.5004         42.0004
 -11440001.41547  -9027484.49146  22766444.7274   22766440.9384
        42.0004         40.2504
 -11193037.02947  -8665354.72146  23480500.8674   23480493.0864
        45.0004         39.5004
 -10206672.07047  -7937577.74746  23287512.0784   23287507.8834
        43.5004         38.5004
  -2671198.62946  -2062653.83245  24459601.6484   24459598.6684
        38.2504         30.5004
  30656832.09146  23667426.36344  25894899.2894   25894892.7274
        39.0004         24.0004
 20  5  3  1 26 30.0000000  0 10G16G27G22G 9G 4G26G 7G 3G 8G31
 -23080937.19648 -18277625.48846  20627401.8284   20627394.1724
        48.2504         38.7504
  -9676194.56146  -7518650.35246  23335290.5084   23335286.2194
        40.7504         37.7504
  -3421396.38047  -2645418.10542  25207872.2974   25207862.9804
        42.0004         17.7504
 -23377609.61348 -18195459.42248  21106494.4694   21106489.1954
        48.0004         51.2504
 -28576415.37047 -22253399.32047  20236226.7814   20236220.7034
        46.7504         42.0004
 -11348563.67246  -8956234.32646  22783845.0084   22783841.0664
        41.2504         40.0004
 -11264014.40947  -8720661.76246  23466993.9844   23466986.4184
        44.2504         40.0004
 -10102518.70647  -7856419.32346  23307331.9384   23307327.9804
        43.2504         38.5004
  -2772604.75046  -2141671.55044  24440304.4384   24440300.7774
        38.0004         28.2504
  30746938.63145  23737639.26143  25912044.7814   25912039.0664
        34.7504         19.2504
 20  5  3  1 27  0.0000000  0  9G16G27G22G 9G 4G26G 7G 3G 8
 -23041437.98048 -18246846.88146  20634918.2274   20634909.9454
        48.0004         39.0004
  -9759260.38146  -7583376.94846  23319483.4924   23319476.7894
        40.5004         36.0004
  -3318134.13346  -2586019.03852  25227519.8054   25227511.4574
        38.2504         17.7504
 -23437448.97448 -18242087.49748  21095107.7504   21095102.1334
        48.2504         51.5004
 -28571126.67147 -22249278.27147  20237233.1884   20237227.0824
        47.2504         42.0004
 -11256858.88047  -8884776.06746  22801295.7034   22801291.8524
        42.7504         40.0004
 -11334883.37747  -8775884.33746  23453507.5084   23453500.8244
        44.7504         39.5004
  -9998205.01247  -7775135.95346  23327181.3284   23327178.1954
        42.7504         38.7504
  -2874008.61246  -2220687.50145  24421008.3754   24421004.6684
        39.2504         31.7504
 20  5  3  1 27 30.0000000  0  9G16G27G22G 9G 4G26G 7G 3G 8
 -23001347.66548 -18215607.66746  20642547.0474   20642539.3634
        49.0004         38.7504
  -9842030.83647  -7647873.40347  23303734.5554   23303730.5434
        43.7504         42.7504
  -3214944.85046  -2505611.67043  25247154.0784   25247148.0124
        37.2504         19.0004
 -23496951.93248 -18288453.43448  21083784.5944   21083778.9534
        48.5004         51.5004
 -28565389.39647 -22244807.67447  20238324.7584   20238318.3554
        47.2504         42.0004
 -11164894.11146  -8813115.23246  22818796.5554   22818792.1414
        41.5004         40.2504
 -11405648.95047  -8831026.33346  23440041.8204   23440034.4064
        44.5004         39.5004
  -9893738.46647  -7693733.50046  23347061.9384   23347057.1054
        43.2504         38.5004
  -2975411.79746  -2299702.96045  24401711.7734   24401707.7704
        40.2504         31.2504
 20  5  3  1 28  0.0000000  0  9G16G27G22G 9G 4G26G 7G 3G 8
 -22960665.17448 -18183907.02646  20650288.6414   20650280.7734
        49.0004         39.0004
  -9924499.34746  -7712134.51746  23288039.0084   23288034.5904
        41.0004         39.0004
  -3111827.43446  -2425260.44642  25266779.7194   25266770.9304
        39.5004         17.7504
 -23556113.14347 -18334553.08248  21072526.3984   21072521.1374
        47.7504         51.5004
 -28559199.45747 -22239984.34947  20239502.8984   20239496.5084
        47.0004         42.0004
 -11072668.76347  -8741251.33046  22836346.3754   22836342.2154
        42.5004         40.0004
 -11476307.49247  -8886084.92746  23426595.2974   23426588.7854
        44.5004         39.5004
  -9789118.78347  -7612211.70346  23366970.2424   23366966.1954
        43.0004         39.0004
  -3076808.01746  -2378712.92745  24382417.2504   24382413.4844
        39.7504         32.5004
 20  5  3  1 28 30.0000000  0  9G16G27G22G 9G 4G26G 7G 3G 8
 -22919393.19448 -18151747.04746  20658142.5164   20658134.1914
        48.7504         39.5004
 -10006663.36147  -7776158.45747  23272405.9534   23272400.8164
        44.5004         43.5004
  -3008785.16846  -2363825.99752  25286386.7034   25286379.2544
        36.0004         17.2504
 -23614931.42148 -18380385.50048  21061333.8444   21061328.3524
        48.0004         51.5004
 -28552556.92847 -22234808.36247  20240766.8204   20240760.9654
        47.5004         42.0004
 -10980186.14146  -8669186.96946  22853944.9454   22853941.1174
        41.7504         40.0004
 -11546859.71747  -8941060.66246  23413169.5084   23413163.4224
        44.5004         39.2504
  -9684349.67447  -7530573.46646  23386906.8444   23386902.9534
        43.2504         39.0004
  -3178195.14446  -2457715.84845  24363123.1024   24363119.5434
        39.5004         31.0004
 20  5  3  1 29  0.0000000  0  9G16G27G22G 9G 4G26G 7G 3G 8
 -22877533.21448 -18119128.88046  20666108.2194   20666099.9654
        48.5004         39.0004
 -10088519.41246  -7839942.29246  23256826.4694   23256824.4184
        39.5004         40.5004
  25451739.61655  19813206.43552  25305978.2114   25305973.5704
        32.7504         17.7504
 -23673404.57247 -18425948.99848  21050206.1954   21050201.3284
        47.5004         51.2504
 -28545460.92747 -22229279.01647  20242116.8834   20242110.5784
        47.0004         42.0004
 -10887448.78747  -8596924.10546  22871592.9694   22871588.1604
        42.2504         39.7504
 -11617304.88647  -8995952.98646  23399765.2424   23399758.1844
        44.2504         40.0004
  -9579434.05947  -7448821.06746  23406871.7114   23406867.6214
        42.7504         38.5004
  -3279569.94946  -2536709.16945  24343831.4774   24343828.3364
        38.7504         32.2504
 20  5  3  1 29 30.0000000  0  9G16G27G22G 9G 4G26G 7G 3G 8
 -22835087.03148 -18086053.93446  20674185.7194   20674177.2344
        48.2504         38.5004
 -10170063.51447  -7903483.20346  23241310.0704   23241304.5004
        42.5004         40.5004
  25554625.51346  19893377.12343  25325560.5004   25325551.4804
        39.5004         19.5004
 -23731529.89848 -18471241.46148  21039145.6174   21039140.4924
        48.2504         51.2504
 -28537910.07048 -22223395.24646  20243554.0394   20243547.2974
        48.0004         41.7504
 -10794458.56946  -8524464.22346  22889288.2034   22889283.5864
        41.5004         39.5004
 -11687642.87147  -9050761.78646  23386379.3834   23386373.1844
        44.7504         39.7504
  -9474374.24446  -7366956.30946  23426863.9694   23426859.9184
        41.5004         38.7504
  -3380928.64146  -2615689.90645  24324544.5704   24324540.3524
        38.7504         31.2504
 20  5  3  1 30  0.0000000  0  9G16G27G22G 9G 4G26G 7G 3G 8
 -22792057.45048 -18052524.39646  20682373.5004   20682365.6884
        48.7504         38.5004
 -10251293.19446  -7966778.92646  23225852.3674   23225849.1054
        41.0004         39.0004
  25657429.26746  19973484.06143  25345122.2504   25345114.2464
        39.0004         20.0004
 -23789306.13147 -18516261.90448  21028151.4614   21028145.6764
        47.7504         51.5004
 -28529904.42248 -22217157.08846  20245077.6254   20245071.3984
        48.0004         41.5004
 -10701218.93847  -8451809.97746  22907030.7114   22907026.8754
        42.5004         40.0004
 -11757874.68247  -9105487.84946  23373015.2114   23373008.7424
        44.5004         40.5004
  -9369173.96347  -7284982.10246  23446882.7194   23446878.8874
        42.5004         38.0004
  -3482269.33146  -2694656.58845  24305258.7894   24305255.9494
        37.5004         31.7504
 20  5  3  1 30 30.0000000  0  9G16G27G22G 9G 4G26G 7G 3G 8
 -22748446.21548 -18018541.61446  20690672.5004   20690664.4884
        48.5004         38.0004
 -10332204.49147  -8029826.68646  23210455.8204   23210449.6724
        42.5004         38.0004
  25760149.07846  20053525.28143  25364668.0704   25364662.1604
        36.5004         18.5004
 -23846730.80848 -18561008.40948  21017223.9534   21017218.3594
        48.5004         51.7504
 -28521442.84147 -22210563.65847  20246687.6564   20246681.2934
        47.7504         42.0004
 -10607731.90846  -8378962.95946  22924820.6644   22924816.6914
        41.5004         40.0004
 -11827998.91047  -9160130.07746  23359671.2664   23359664.4104
        44.5004         40.5004
  -9263835.65647  -7202900.34646  23466928.0864   23466924.3134
        42.2504         38.0004
  -3583588.02746  -2773606.15945  24285979.5474   24285975.6214
        38.0004         32.5004
 20  5  3  1 31  0.0000000  0  9G16G27G22G 9G 4G26G 7G 3G 8
 -22704255.92348 -17984107.61346  20699081.6804   20699073.7854
        48.5004         38.2504
 -10412794.72347  -8092624.25846  23195119.8364   23195115.2304
        43.2504         39.2504
  25862781.56146  20133498.72943  25384198.6254   25384192.7504
        36.2504         18.2504
 -23903802.42848 -18605479.80648  21006363.5944   21006358.0004
        48.5004         51.7504
 -28512525.20847 -22203614.86146  20248384.2894   20248378.3244
        47.5004         41.5004
 -10514000.71947  -8305925.68446  22942656.8364   22942653.0864
        42.0004         39.5004
 -11898016.28047  -9214689.04446  23346347.6954   23346340.3554
        45.0004         40.2504
  -9158362.97347  -7120713.87146  23486998.5634   23486994.7974
        42.5004         37.5004
  -3684882.70246  -2852536.96945  24266703.5314   24266700.1524
        38.0004         33.0004
 20  5  3  1 31 30.0000000  0  9G16G27G22G 9G 4G26G 7G 3G 8
 -22659481.98348 -17949218.83446  20707601.9534   20707594.0084
        48.7504         38.5004
 -10493054.28447  -8155164.14446  23179847.3134   23179842.3984
        44.7504         40.0004
  25965330.96845  20213407.29242  25403710.4304   25403706.3014
        32.7504         17.7504
 -23960512.63248 -18649669.58448  20995571.8984   20995566.4924
        48.0004         51.7504
 -28503144.46347 -22196305.19746  20250169.6484   20250163.3054
        47.7504         41.7504
 -10420021.56746  -8232695.19446  22960541.2194   22960536.6094
        41.5004         39.0004
 -11967920.48447  -9269159.83646  23333044.8204   23333037.5594
        45.0004         40.5004
  -9052752.48347  -7038420.00346  23507095.1644   23507092.1484
        42.2504         37.5004
  -3786143.62546  -2931441.53745  24247433.4144   24247430.7544
        38.5004         33.2504
 20  5  3  1 32  0.0000000  0  9G16G27G22G 9G 4G26G 7G 3G 8
 -22614139.03348 -17913886.65846  20716230.4924   20716222.5784
        49.0004         38.5004
 -10572991.36347  -8217452.76946  23164635.2504   23164630.8834
        43.5004         40.2504
                                  25423207.5234   25423204.5474
        24.5004         18.5004
 -24016870.97848 -18693585.18748  20984847.2114   20984841.6804
        48.0004         51.7504
 -28493311.51648 -22188643.17146  20252040.8444   20252034.6954
        48.0004         41.7504
 -10325808.59247  -8159282.49546  22978469.3204   22978465.0274
        42.0004         39.2504
 -12037723.27347  -9323551.62246  23319762.1484   23319754.8594
        45.0004         40.5004
  -8947018.71047  -6956030.10146  23527216.4144   23527212.4694
        42.5004         37.7504
  -3887379.24646  -3010326.36945  24228169.8054   24228165.6564
        39.0004         33.5004
 20  5  3  1 32 30.0000000  0  9G16G27G22G 9G 4G26G 7G 3G 8
 -22568229.42048 -17878112.93646  20724966.7274   20724959.0124
        49.2504         39.0004
 -10652603.49847  -8279488.17646  23149486.2974   23149481.2464
        43.7504         41.0004
  26170136.40515                  25442685.328
        34.500
 -24072876.12648 -18737225.55748  20974189.9534   20974184.4534
        49.0004         52.0004
 -28483026.45048 -22180628.84847  20253997.9924   20253991.8094
        48.0004         42.0004
 -10231365.14747  -8085690.20646  22996441.2344   22996437.0744
        42.0004         39.2504
 -12107424.78147  -9377864.46746  23306498.2814   23306490.7074
        45.0004         40.5004
  -8841165.30647  -6873546.96146  23547359.2194   23547355.8554
        42.7504         38.5004
  -3988586.93946  -3089189.47545  24208910.2814   24208907.0274
        39.0004         33.5004
 20  5  3  1 33  0.0000000  0  9G16G27G22G 9G 4G26G 7G 3G 8
 -22521742.23848 -17841889.16846  20733812.9384   20733805.0124
        48.5004         39.0004
 -10731874.03747  -8341257.38146  23134400.6414   23134396.8874
        42.7504         41.5004
  26272399.48955  20387736.51452  25462145.4224   25462140.6994
        34.2504         17.7504
 -24128512.86948 -18780578.86548  20963602.6174   20963597.0824
        48.7504         52.0004
 -28472275.44748 -22172251.45346  20256043.9694   20256037.7544
        48.0004         41.7504
 -10136680.48047  -8011909.97146  23014458.9614   23014454.3674
        42.0004         38.5004
 -12177011.85147  -9432088.14246  23293255.5704   23293248.9024
        43.5004         40.0004
  -8735182.11847  -6790962.69546  23567527.8364   23567523.7194
        42.2504         38.0004
  -4089750.91546  -3168018.51845  24189659.4774   24189655.4344
        38.5004         32.7504
 20  5  3  1 33 30.0000000  0  9G16G27G22G 9G 4G26G 7G 3G 8
 -22474686.41348 -17805222.29546  20742767.3444   20742759.1294
        48.7504         38.7504
 -10810806.50847  -8402763.16146  23119380.7734   23119375.7734
        43.0004         41.0004
  26374564.32146  20467345.41643  25481590.3134   25481583.1334
        41.0004         18.5004
 -24183785.97448 -18823648.81848  20953084.2974   20953079.2504
        48.7504         52.0004
 -28461064.63448 -22163515.76546  20258177.0704   20258170.9264
        48.5004         41.5004
 -10041764.01946  -7937949.11846  23032521.0164   23032517.0234
        41.5004         39.2504
 -12246491.39147  -9486228.02946  23280034.4304   23280027.6844
        43.7504         40.5004
  -8629078.78546  -6708284.82346  23587718.9224   23587714.6564
        41.7504         38.0004
  -4190874.56646  -3246816.11745  24170416.1174   24170412.6994
        37.7504         31.5004
 20  5  3  1 34  0.0000000  0  9G16G27G22G 9G 4G26G 7G 3G 8
 -22427063.87948 -17768113.82746  20751829.7274   20751821.7464
        49.0004         38.0004
 -10889397.34047  -8464002.71847  23104425.4924   23104421.6954
        43.5004         42.0004
  26476628.61446  20503660.95753  25501010.0234   25501007.1024
        37.7504         19.0004
 -24238693.11748 -18866433.60748  20942635.8444   20942630.4574
        49.2504         52.0004
 -28449393.13148 -22154421.10346  20260398.2424   20260391.8754
        48.0004         41.7504
  -9946618.00247  -7863809.38246  23050626.6644   23050622.4734
        42.0004         38.5004
 -12315863.16147  -9540283.93546  23266833.4694   23266826.2974
        44.0004         40.2504
  -8522858.07946  -6625515.48346  23607932.2344   23607928.0164
        41.5004         38.0004
  -4291955.20446  -3325580.17145  24151181.2274   24151177.5664
        38.7504         33.2504
 20  5  3  1 34 30.0000000  0  9G16G27G22G 9G 4G26G 7G 3G 8
 -22378876.58848 -17730565.30046  20760999.3134   20760991.4064
        48.0004         38.2504
 -10967643.01847  -8524973.33046  23089535.7974   23089530.5784
        43.7504         40.5004
  26578590.65246  20541369.04953  25520413.6644   25520406.0394
        38.5004         21.2504
 -24293232.02648 -18908931.46248  20932257.3134   20932252.0314
        50.0004         52.2504
 -28437260.04047 -22144966.75847  20262707.3594   20262700.8364
        47.7504         42.0004
  -9851244.72847  -7789492.55346  23068775.6254   23068771.2424
        42.0004         38.5004
 -12385126.46447  -9594255.33046  23253652.9774   23253645.9844
        43.0004         40.7504
  -8416522.57047  -6542656.69446  23628167.3284   23628162.6684
        42.0004         37.2504
  -4392989.05846  -3404307.79245  24131954.4304   24131950.9304
        38.0004         32.5004
 20  5  3  1 35  0.0000000  0  9G16G27G22G 9G 4G26G 7G 3G 8
 -22330128.27148 -17692579.60746  20770275.8204   20770267.9024
        48.2504         38.0004
 -11045541.60347  -8585673.52546  23074711.3524   23074707.2894
        43.5004         40.2504
  26680446.819 6                  25539796.609
        39.500
 -24347402.08948 -18951141.90548  20921949.3204   20921944.4184
        48.0004         52.2504
 -28424666.16948 -22135153.36446  20265103.4844   20265097.3164
        48.0004         41.5004
  -9755648.09746  -7715001.68646  23086966.7814   23086962.7774
        41.7504         38.0004
 -12454282.48447  -9648143.11746  23240492.6094   23240486.3594
        43.0004         40.7504
  -8310076.68846  -6459711.89446  23648423.2504   23648418.5084
        40.7504         36.0004
  -4493973.96246  -3482997.23945  24112738.1024   24112734.1134
        39.0004         32.5004
 20  5  3  1 35 30.0000000  0  9G16G27G22G 9G 4G26G 7G 3G 8
 -22280819.44748 -17654157.15146  20779658.9144   20779651.1334
        48.5004         38.2504
 -11123088.23647  -8646099.45846  23059955.2584   23059949.9304
        43.5004         39.7504
  26782196.05245  20636749.72052  25559158.1644   25559149.6764
        35.7504         17.7504
 -24401199.58648 -18993062.03148  20911712.3134   20911706.4804
        49.2504         52.2504
 -28411609.25148 -22124979.16146  20267588.2664   20267581.8874
        48.5004         41.5004
  -9659829.05347  -7640337.52346  23105201.1094   23105196.3054
        42.5004         38.0004
 -12523330.15747  -9701946.48346  23227353.8594   23227347.0314
        44.5004         41.5004
  -8203521.62046  -6376681.99846  23668699.5314   23668695.3094
        40.5004         36.0004
  -4594905.58546  -3561645.19845  24093531.3284   24093528.6484
        38.2504         34.7504
 20  5  3  1 36  0.0000000  0  9G16G27G22G 9G 4G26G 7G 3G 8
 -22230952.99548 -17615300.18446  20789148.3204   20789140.1334
        48.7504         38.2504
 -11200280.44547  -8706249.23946  23045265.9454   23045261.2464
        44.2504         40.0004
  26883835.49445  20715949.28542  25578499.4924   25578491.3164
        33.0004         17.2504
 -24454623.38648 -19034690.97748  20901545.6174   20901540.5164
        50.0004         52.2504
 -28398089.64047 -22114444.41546  20270161.3134   20270154.9654
        47.5004         41.5004
  -9563790.95246  -7565502.65246  23123476.3364   23123472.2154
        41.7504         38.0004
 -12592269.41047  -9755665.36446  23214235.5234   23214228.2304
        43.7504         41.2504
  -8096861.34646  -6293570.13346  23688996.8834   23688992.3134
        41.7504         36.7504
  -4695781.44946  -3640249.73545  24074335.0164   24074331.1134
        39.0004         34.5004
 20  5  3  1 36 30.0000000  0  8G16G27G 9G 4G26G 7G 3G 8
 -22180524.81348 -17576005.50446  20798744.3524   20798736.3984
        48.5004         38.5004
 -11277107.91347  -8766114.76546  23030646.8284   23030641.7304
        44.0004         40.7504
 -24507664.36348 -19076021.60648  20891452.4304   20891446.7704
        48.2504         52.2504
 -28384099.68147 -22103543.15946  20272823.3594   20272817.1484
        47.5004         41.5004
  -9467529.22346  -7490493.52346  23141793.9614   23141790.0824
        41.2504         38.0004
 -12661093.21547  -9809294.28046  23201138.3524   23201131.4804
        44.7504         41.2504
  -7990091.43046  -6210372.81846  23709314.1644   23709309.9184
        40.7504         36.5004
  -4796591.34546  -3718802.82345  24055151.5394   24055148.0514
        39.0004         34.5004
 20  5  3  1 37  0.0000000  0  8G16G27G 9G 4G26G 7G 3G 8
 -22129550.57848 -17536285.33046  20808444.3204   20808436.7274
        48.2504         39.0004
 -11353581.06547  -8825704.22746  23016094.3674   23016089.4964
        43.7504         40.5004
 -24560334.25948 -19117063.08448  20881429.3754   20881424.3444
        48.7504         52.2504
 -28369652.45547 -22092285.59746  20275572.5314   20275566.6454
        47.7504         41.2504
  -9371060.05846  -7415322.77546  23160152.3594   23160147.8364
        41.0004         38.5004
 -12729815.58547  -9862844.17046  23188060.8204   23188054.2034
        44.0004         41.5004
  -7883228.77746  -6127103.26646  23729648.9064   23729645.3794
        40.7504         37.0004
  -4897346.02546  -3797312.92845  24035979.5084   24035975.7774
        39.7504         35.2504
 20  5  3  1 37 30.0000000  0  8G16G27G 9G 4G26G 7G 3G 8
 -22078026.05148 -17496136.35346  20818249.4774   20818241.4304
        48.5004         38.2504
 -11429689.90347  -8885009.78446  23001611.0084   23001606.2034
        43.5004         41.0004
 -24612624.20348 -19157808.50248  20871479.2974   20871473.6804
        48.0004         52.5004
 -28354740.73048 -22080666.08047  20278410.0554   20278403.8094
        48.7504         42.2504
  -9274379.27146  -7339987.12746  23178550.0004   23178545.6294
        41.5004         38.2504
 -12798429.22647  -9916309.33346  23175003.6644   23174996.9184
        44.7504         41.2504
  -7776269.38446  -6043758.32746  23750003.0234   23749999.2114
        40.7504         37.0004
  -4998035.16446  -3875771.98945  24016819.0084   24016815.0824
        39.7504         34.5004
 20  5  3  1 38  0.0000000  0  8G16G27G 9G 4G26G 7G 3G 8
 -22025953.42748 -17455560.29146  20828158.6804   20828150.5124
        48.5004         38.5004
 -11505431.23347  -8944028.99846  22987197.5234   22987193.4774
        42.5004         41.0004
 -24664532.38248 -19198256.43748  20861601.2894   20861596.0124
        49.0004         52.2504
 -28339364.06447 -22068684.27046  20281336.0704   20281329.6254
        47.5004         41.5004
  -9177489.40146  -7264488.54246  23196986.5164   23196982.8954
        40.7504         38.0004
 -12866934.02047  -9969689.67646  23161968.2664   23161960.9494
        44.0004         41.0004
  -7669216.33146  -5960340.41646  23770374.7814   23770370.8444
        41.7504         37.0004
  -5098656.34246  -3954178.05145  23997670.3204   23997666.5474
        38.2504         32.2504
 20  5  3  1 38 30.0000000  0  8G16G27G 9G 4G26G 7G 3G 8
 -21973334.84148 -17414558.79446  20838171.4694   20838163.5984
        48.7504         38.5004
 -11580801.50947  -9002759.05246  22972855.0634   22972851.0664
        42.7504         41.5004
 -24716056.33448 -19238404.97248  20851796.2424   20851790.8444
        49.2504         52.2504
 -28323521.55048 -22056339.47246  20284351.0474   20284344.6454
        48.2504         41.0004
  -9080392.57946  -7188828.70746  23215463.8444   23215460.0234
        40.7504         38.0004
 -12935329.99447 -10022985.23046  23148953.0314   23148945.6844
        44.2504         41.2504
  -7562072.09146  -5876851.45046  23790762.1644   23790759.2734
        40.0004         36.5004
  -5199205.73246  -4032528.20345  23978535.6484   23978533.4344
        37.5004         33.5004
 20  5  3  1 39  0.0000000  0  8G16G27G 9G 4G26G 7G 3G 8
 -21920172.78147 -17373133.82546  20848287.6804   20848279.8674
        47.7504         38.0004
 -11655797.53847  -9061197.47346  22958584.4844   22958579.5634
        44.5004         41.5004
 -24767194.16548 -19278252.63648  20842065.2424   20842060.0514
        49.7504         52.5004
 -28307212.80848 -22043631.36846  20287454.5084   20287448.2074
        48.2504         41.7504
  -8983091.41346  -7113009.65046  23233979.6724   23233976.0474
        41.5004         38.0004
 -13003616.65647 -10076195.60146  23135958.4614   23135951.4454
        44.2504         41.0004
  -7454839.74646  -5793293.84046  23811169.0474   23811165.1914
        41.2504         36.2504
  -5299680.00546  -4110819.78845  23959416.6254   23959414.0634
        38.7504         34.2504
 20  5  3  1 39 30.0000000  0  8G16G27G 9G 4G26G 7G 3G 8
 -21866469.72848 -17331287.29746  20858506.7664   20858499.1844
        48.2504         38.0004
 -11730416.28847  -9119341.96047  22944384.3134   22944380.6454
        43.5004         42.0004
 -24817944.14348 -19317798.07448  20832408.1024   20832402.7304
        50.0004         52.5004
 -28290437.55847 -22030559.76546  20290646.5314   20290640.8364
        47.7504         41.2504
  -8885588.60946  -7037033.46046  23252533.6884   23252530.2154
        40.2504         37.0004
 -13071794.49247 -10129321.17646  23122984.4064   23122977.6914
        44.0004         41.2504
  -7347522.36846  -5709669.95445  23831591.1174   23831587.2544
        41.0004         34.5004
  -5400076.44846  -4189050.76945  23940312.1334   23940308.9144
        38.0004         34.2504
 20  5  3  1 40  0.0000000  0  8G16G27G 9G 4G26G 7G 3G 8
 -21812228.06248 -17289021.06946  20868829.0394   20868821.0554
        48.0004         37.5004
 -11804654.58147  -9177189.95946  22930257.4694   22930252.8444
        43.5004         41.7504
 -24868304.14848 -19357039.64148  20822825.1024   20822819.6604
        49.5004         52.5004
 -28273195.28447 -22017124.24046  20293927.5864   20293921.6054
        47.7504         41.2504
  -8787886.53646  -6960901.99346  23271125.6954   23271122.1214
        40.7504         37.2504
 -13139863.14247 -10182361.66846  23110030.8134   23110024.0124
        43.7504         41.0004
  -7240122.87546  -5625982.07145  23852028.2974   23852024.3554
        41.0004         35.2504
  -5500391.48646  -4267218.27346  23921222.8674   23921220.3594
        39.2504         36.0004
 20  5  3  1 40 30.0000000  0  8G16G27G 9G 4G26G 7G 3G 8
 -21757450.02748 -17246336.89346  20879252.7114   20879244.9804
        48.0004         38.2504
 -11878509.33947  -9234739.06946  22916204.1414   22916198.8284
        44.2504         41.2504
 -24918272.35248 -19395975.90048  20813316.0634   20813311.0944
        49.7504         52.5004
 -28255485.68047 -22003324.56447  20297297.7194   20297291.9614
        47.5004         42.0004
  -8689987.88846  -6884617.34746  23289755.2344   23289751.3054
        40.7504         37.2504
 -13207822.50547 -10235317.01046  23097099.1334   23097091.8484
        44.0004         41.7504
  -7132644.21247  -5542232.50345  23872481.2114   23872477.1414
        42.0004         35.7504
  -5600622.71946  -4345320.51046  23902149.7894   23902146.1134
        40.0004         36.0004
 20  5  3  1 41  0.0000000  0  8G16G27G 9G 4G26G 7G 3G 8
 -21702138.52347 -17203237.02146  20889778.0164   20889770.0164
        47.7504         37.5004
 -11951977.29547  -9291986.83046  22902222.3594   22902218.0474
        43.0004         40.7504
 -24967846.77848 -19434605.33048  20803882.5864   20803877.1524
        49.5004         52.5004
 -28237308.26447 -21989160.34746  20300756.9384   20300750.5744
        47.7504         41.2504
  -8591895.08446  -6808181.41646  23308422.1954   23308417.8954
        40.7504         37.2504
 -13275672.31147 -10288186.97346  23084188.0394   23084180.5124
        44.2504         41.2504
  -7025089.30446  -5458423.53146  23892948.7274   23892944.5004
        41.7504         36.7504
  -5700766.60046  -4423354.64046  23883092.6564   23883090.0084
        40.0004         36.7504
 20  5  3  1 41 30.0000000  0  8G16G27G 9G 4G26G 7G 3G 8
 -21646295.09747 -17159722.66846  20900404.8834   20900396.8134
        47.7504         38.0004
 -12025054.56847  -9348930.13746  22888317.0784   22888311.8364
        43.2504         41.2504
 -25017024.68848 -19472925.77948  20794524.1414   20794519.1644
        49.7504         52.7504
 -28218661.88747 -21974630.71946  20304305.0864   20304298.9964
        47.5004         41.7504
  -8493609.87046  -6731595.55146  23327124.8914   23327120.7344
        41.0004         37.0004
 -13343412.20347 -10340971.29846  23071297.3054   23071290.4304
        44.2504         41.7504
  -6917460.29546  -5374556.81845  23913428.9384   23913425.4574
        41.0004         35.7504
  -5800819.29946  -4501317.76745  23864053.2664   23864050.1844
        39.0004         35.7504
 20  5  3  1 42  0.0000000  0  8G16G27G 9G 4G26G 7G 3G 8
 -21589923.06247 -17115796.40046  20911132.6024   20911124.4614
        47.5004         37.5004
 -12097738.71247  -9405567.11247  22874485.3984   22874480.8244
        43.7504         42.0004
 -25065804.83748 -19510936.28748  20785242.1024   20785236.2854
        50.0004         52.7504
 -28199546.90147 -21959735.92846  20307942.3754   20307936.2934
        47.0004         41.5004
  -8395135.39146  -6654862.22946  23345864.6024   23345859.8204
        41.5004         37.2504
 -13411042.46347 -10393670.18647  23058427.8444   23058420.8954
        44.0004         42.0004
  -6809760.88846  -5290635.22946  23933922.1094   23933920.3444
        39.7504         36.0004
  -5900778.22846  -4579207.83845  23845031.7814   23845027.7584
        39.0004         34.0004
 20  5  3  1 42 30.0000000  0  9G16G30G27G 9G 4G26G 7G 3G 8
 -21533024.40547 -17071459.79246  20921959.7814   20921951.7154
        47.7504         37.5004
   -518961.55755   -393138.80554  25658417.3364   25658413.7934
        35.0004         29.0004
 -12170026.27647  -9461895.06047  22860729.6644   22860724.7584
        43.0004         42.0004
 -25114184.96548 -19548635.08748  20776035.2974   20776030.1414
        50.2504         52.7504
 -28179962.58247 -21944475.43646  20311669.1254   20311663.3524
        46.7504         41.0004
  -8296473.88546  -6577983.14946  23364638.8594   23364634.6294
        40.5004         37.2504
 -13478562.73047 -10446283.36347  23045579.3914   23045572.6024
        44.5004         42.5004
  -6701993.55946  -5206660.78146  23954432.4694   23954427.8984
        41.2504         36.0004
  -6000639.70446  -4657021.90245  23826028.4384   23826024.8714
        39.0004         34.2504
 20  5  3  1 43  0.0000000  0  9G16G30G27G 9G 4G26G 7G 3G 8
 -21475607.64647 -17026719.46246  20932885.4304   20932877.7234
        47.5004         38.0004
   -605321.33345   -460432.28844  25641983.9304   25641979.6914
        35.0004         27.2504
 -12241920.15847  -9517916.24647  22847047.8284   22847043.7504
        43.0004         42.0004
 -25162169.16548 -19586025.37648  20766904.2274   20766898.8834
        50.2504         52.7504
 -28159914.64147 -21928853.67246  20315484.1484   20315478.0664
        47.5004         41.7504
  -8197633.85946  -6500964.98046  23383447.2344   23383443.9734
        40.5004         37.0004
 -13545978.94347 -10498815.45547  23032750.1024   23032743.4494
        44.2504         42.2504
  -6594167.32146  -5122640.37445  23974950.0164   23974946.6294
        39.5004         35.5004
  -6100406.98246  -4734762.62346  23807044.0784   23807039.8754
        40.7504         36.0004
 20  5  3  1 43 30.0000000  0  9G16G30G27G 9G 4G26G 7G 3G 8
 -21417663.63347 -16981568.28846  20943912.2194   20943904.1414
        47.5004         37.2504
   -691651.22945   -527702.43643  25625556.8594   25625551.6484
        33.5004         23.0004
 -12313405.36747  -9573618.97946  22833444.7424   22833440.7194
        42.5004         41.7504
 -25209743.59348 -19623096.36548  20757851.0474   20757845.4924
        48.2504         52.7504
 -28139390.77147 -21912861.06046  20319389.9304   20319383.9104
        47.2504         41.5004
  -8098605.77547  -6423800.26946  23402292.3444   23402288.0784
        42.0004         37.0004
 -13613279.11747 -10551257.14647  23019942.8984   23019936.3914
        44.7504         42.0004
  -6486273.18046  -5038567.09645  23995482.0394   23995477.8204
        40.0004         35.5004
  -6200064.83746  -4812418.08745  23788079.6024   23788077.0514
        40.7504         35.5004
 20  5  3  1 44  0.0000000  0  9G16G30G27G 9G 4G26G 7G 3G 8
 -21359200.65347 -16936012.72346  20955037.3914   20955029.2704
        47.2504         37.5004
   -777956.96545   -594953.71343  25609131.7584   25609128.4844
        34.0004         23.0004
 -12384484.47347  -9629005.27147  22819918.8524   22819914.9024
        43.0004         42.0004
 -25256912.07148 -19659851.02148  20748875.0164   20748869.4734
        50.5004         52.7504
 -28118396.44947 -21896501.86246  20323385.0554   20323378.7774
        47.0004         41.0004
  -7999397.96247  -6346495.51146  23421171.1484   23421166.5004
        42.0004         37.0004
 -13680468.84947 -10603612.76247  23007157.2344   23007150.2934
        44.5004         42.0004
  -6378319.79246  -4954447.61945  24016025.1724   24016020.5784
        39.7504         35.5004
  -6299615.78146  -4889990.25045  23769136.5004   23769131.5274
        40.7504         35.5004
 20  5  3  1 44 30.0000000  0  9G16G30G27G 9G 4G26G 7G 3G 8
 -21300221.52847 -16890054.96946  20966260.8204   20966252.8324
        47.7504         37.0004
   -864238.70145   -662186.30144  25592713.7814   25592709.2034
        35.0004         27.0004
 -12455154.82547  -9684073.03747  22806471.5634   22806466.4574
        44.2504         42.7504
 -25303673.04248 -19696288.14448  20739977.0084   20739971.5474
        50.0004         52.7504
 -28096931.79247 -21879776.16646  20327469.6254   20327463.3054
        46.5004         41.0004
  -7900013.21746  -6269052.88046  23440082.4614   23440079.2234
        41.2504         37.2504
 -13747548.24147 -10655882.40447  22994392.6094   22994386.0204
        44.7504         42.0004
  -6270310.46046  -4870284.53945  24036578.0704   24036574.1684
        40.5004         34.7504
  -6399057.03846  -4967476.90046  23750213.0164   23750209.3204
        40.5004         36.0004
 20  5  3  1 45  0.0000000  0  9G16G30G27G 9G 4G26G 7G 3G 8
 -21240728.25147 -16843696.57746  20977581.5864   20977574.1294
        47.7504         38.0004
   -950495.54346   -729399.47144  25576299.5704   25576295.8094
        37.5004         29.7504
 -12525412.75547  -9738819.45947  22793101.2344   22793096.4964
        43.2504         42.0004
 -25350023.98848 -19732405.75048  20731156.6644   20731151.5394
        48.2504         52.5004
 -28074995.78247 -21862683.19246  20331643.6414   20331638.0084
        46.7504         41.0004
  -7800453.37846  -6191473.81146  23459027.9304   23459024.6524
        40.7504         36.5004
 -13814516.70847 -10708065.60147  22981649.0084   22981642.1054
        44.2504         42.0004
  -6162247.36646  -4786079.60345  24057142.6884   24057137.8324
        41.2504         34.7504
  -6498384.95246  -5044875.21845  23731310.7734   23731306.3284
        40.2504         35.7504
 20  5  3  1 45 30.0000000  0  9G16G30G27G 9G 4G26G 7G 3G 8
 -21180723.83148 -16796939.89646  20989000.1644   20988992.5124
        48.0004         38.0004
  -1036727.83446   -796593.51744  25559889.4304   25559886.3524
        36.5004         26.2504
 -12595255.53147  -9793242.37046  22779810.3204   22779805.9844
        43.5004         41.7504
 -25395963.44148 -19768202.72548  20722414.5634   20722408.8674
        49.0004         52.7504
 -28052588.57247 -21845223.03846  20335908.0704   20335902.0664
        46.7504         41.0004
  -7700721.30846  -6113760.54046  23478006.6644   23478002.9924
        41.5004         36.5004
 -13881374.45447 -10760162.52547  22968926.2344   22968919.0944
        44.2504         42.0004
  -6054133.95146  -4701835.41445  24077715.0554   24077711.4024
        40.0004         34.5004
  -6597596.54446  -5122182.91546  23712432.4384   23712428.2384
        40.0004         36.2504
 20  5  3  1 46  0.0000000  0  9G16G30G27G 9G 4G26G 7G 3G 8
 -21120210.38047 -16749786.56046  21000515.7274   21000507.6294
        47.0004         37.5004
  -1122935.06245   -863768.09944  25543484.7734   25543481.6334
        35.5004         24.5004
 -12664679.76847  -9847339.15946  22766599.4694   22766594.9184
        43.7504         41.7504
 -25441489.10948 -19803677.27348  20713751.3674   20713746.0744
        48.7504         52.7504
 -28029709.58147 -21827395.26446  20340261.7504   20340255.7544
        47.2504         41.5004
  -7600819.06646  -6035914.68046  23497017.7274   23497014.2114
        41.5004         36.0004
 -13948121.21447 -10812172.96147  22956224.8524   22956217.7734
        45.5004         42.2504
  -5945972.65446  -4617553.93745  24098297.1024   24098293.9384
        39.0004         34.5004
  -6696688.16046  -5199397.10145  23693575.2664   23693571.0434
        39.7504         35.7504
 20  5  3  1 46 30.0000000  0  9G16G30G27G 9G 4G26G 7G 3G 8
 -21059190.55047 -16702238.64646  21012127.3524   21012119.4964
        47.5004         37.2504
  -1209116.86246   -930922.87344  25527085.2344   25527081.6334
        36.7504         29.5004
 -12733682.45447  -9901107.47047  22753468.8984   22753464.1994
        43.2504         42.0004
 -25486599.12048 -19838827.93248  20705167.2424   20705162.0634
        50.5004         53.0004
 -28006358.55047 -21809199.67046  20344705.2734   20344699.5354
        47.0004         41.5004
  -7500749.09446  -5957938.10246  23516060.2584   23516056.3134
        41.2504         36.0004
 -14014757.08247 -10864096.99247  22943544.2974   22943537.0664
        45.5004         42.2504
  -5837766.40446  -4533237.45745  24118890.1884   24118885.0084
        40.5004         34.7504
  -6795656.88946  -5276515.55846  23674741.3834   23674739.8364
        38.0004         36.7504
 20  5  3  1 47  0.0000000  0  9G16G30G27G 9G 4G26G 7G 3G 8
 -20997667.07047 -16654298.27246  21023834.7424   21023826.9774
        47.5004         37.0004
  -1295273.64746   -998058.04244  25510691.0084   25510686.8984
        37.0004         28.5004
 -12802260.85947  -9954545.16647  22740419.7424   22740414.5744
        43.5004         42.2504
 -25531291.91648 -19873653.49348  20696662.5554   20696657.1954
        48.5004         53.0004
 -27982535.62347 -21790636.36846  20349238.6254   20349232.5984
        46.5004         41.0004
  -7400514.26146  -5879833.07445  23535134.4144   23535130.5204
        41.0004         35.5004
 -14081281.78847 -10915934.41747  22930885.1094   22930877.9924
        45.2504         42.7504
  -5729518.43746  -4448888.45745  24139487.5234   24139483.6764
        39.0004         34.5004
  -6894499.73446  -5353535.93645  23655932.0234   23655928.0864
        38.0004         34.2504
 20  5  3  1 47 30.0000000  0  9G16G30G27G 9G 4G26G 7G 3G 8
 -20935642.89147 -16605967.74746  21035637.6564   21035629.3094
        47.7504         36.7504
  -1381404.82645  -1065173.37844  25494300.6564   25494296.6994
        35.7504         27.2504
 -12870411.72147 -10007649.70747  22727450.5394   22727446.0044
        43.0004         42.2504
 -25575565.36548 -19908152.28948  20688237.5554   20688232.5124
        48.2504         53.0004
 -27958240.23547 -21771704.89646  20353861.9064   20353855.4734
        47.0004         41.0004
  -7300116.64546  -5801601.19045  23554240.0084   23554235.3094
        41.5004         35.2504
 -14147695.16847 -10967685.08247  22918247.3284   22918240.4144
        44.7504         42.5004
  -5621231.41146  -4364508.99245  24160094.3914   24160090.2424
        40.5004         34.0004
  -6993213.30746  -5430455.50445  23637147.4614   23637143.9104
        39.5004         34.7504
 20  5  3  1 48  0.0000000  0  9G16G30G27G 9G 4G26G 7G 3G 8
 -20873120.35647 -16557248.89246  21047535.2194   21047527.2464
        47.5004         37.0004
  -1467510.19546  -1132268.56444  25477915.1884   25477911.3484
        36.7504         28.2504
 -12938131.97747 -10060418.70747  22714563.3594   22714558.6604
        44.0004         42.7504
 -25619417.51648 -19942322.80648  20679892.8594   20679887.3834
        49.2504         53.2504
 -27933472.20147 -21752405.14246  20358574.8054   20358568.6454
        46.7504         40.5004
  -7199558.55546  -5723244.24945  23573374.3834   23573371.0394
        40.5004         35.5004
 -14213997.22247 -11019349.00347  22905630.5784   22905623.4574
        44.5004         42.5004
  -5512908.03246  -4280101.22445  24180706.8054   24180703.4734
        40.7504         33.7504
  -7091794.25446  -5507271.82345  23618388.5864   23618384.0944
        40.0004         35.7504
 20  5  3  1 48 30.0000000  0  9G16G30G27G 9G 4G26G 7G 3G 8
 -20810101.42347 -16508143.23546  21059527.5084   21059519.6414
        47.7504         37.5004
  -1553589.22245  -1199343.18344  25461534.4224   25461531.1254
        34.2504         27.2504
 -13005418.29347 -10112849.58547  22701759.5234   22701754.7504
        43.7504         42.2504
 -25662846.18148 -19976163.32548  20671628.7344   20671623.2584
        50.5004         53.2504
 -27908230.98947 -21732736.67146  20363377.9614   20363372.0984
        46.5004         41.0004
  -7098842.20946  -5644764.03545  23592541.0084   23592536.7114
        41.5004         35.0004
 -14280187.23947 -11070925.62347  22893034.8134   22893027.9104
        44.5004         42.0004
  -5404550.89746  -4195667.15645  24201326.7504   24201323.0594
        40.5004         34.2504
  -7190239.34746  -5583982.24446  23599655.1254   23599651.4774
        39.5004         36.0004
 20  5  3  1 49  0.0000000  0  9G16G30G27G 9G 4G26G 7G 3G 8
 -20746589.78547 -16458653.65346  21071613.3364   21071605.3324
        47.5004         37.0004
  -1639642.44045  -1266397.65844  25445159.4614   25445156.4384
        34.5004         26.2504
 -13072268.29047 -10164940.47547  22689038.4534   22689033.6054
        44.0004         43.0004
 -25705850.10948 -20009672.88448  20663445.0784   20663439.7854
        50.0004         53.2504
 -27882517.03647 -21712699.83846  20368271.5004   20368265.1134
        46.0004         40.7504
  -6997970.56146  -5566162.77045  23611736.7344   23611732.1454
        41.7504         35.5004
 -14346265.61147 -11122415.25147  22880460.0234   22880453.0434
        44.5004         42.5004
  -5296163.52346  -4111209.52245  24221952.0004   24221948.5084
        40.2504         33.5004
  -7288545.43146  -5660584.38446  23580947.9614   23580946.3134
        39.0004         37.2504
 20  5  3  1 49 30.0000000  0  9G16G30G27G 9G 4G26G 7G 3G 8
 -20682587.82547 -16408782.00146  21083792.3754   21083784.4224
        47.7504         36.7504
  -1725669.32446  -1333431.71044  25428790.6174   25428786.0904
        36.2504         28.5004
 -13138678.90747 -10216688.98447  22676400.5944   22676396.1564
        43.2504         42.7504
 -25748427.33948 -20042849.95348  20655342.9304   20655337.3594
        49.7504         53.2504
 -27856330.04247 -21692294.40046  20373254.8594   20373248.5984
        46.0004         40.5004
  -6896945.86546  -5487442.24845  23630959.7504   23630957.1024
        40.0004         35.0004
 -14412232.35147 -11173817.88947  22867907.1564   22867900.3634
        44.2504         42.5004
  -5187748.63946  -4026730.45645  24242583.0634   24242579.3754
        40.5004         33.0004
  -7386709.69046  -5737075.99546  23562267.4454   23562263.6644
        39.2504         36.2504
 20  5  3  1 50  0.0000000  0  9G16G30G27G 9G 4G26G 7G 3G 8
 -20618097.52348 -16358529.82446  21096064.3284   21096056.5744
        48.2504         36.7504
  -1811668.97445  -1400444.54144  25412423.8204   25412419.8444
        35.5004         27.0004
 -13204646.33547 -10268092.14747  22663847.5004   22663842.9534
        43.7504         43.0004
 -25790575.22148 -20075692.46148  20647322.6484   20647317.0784
        48.7504         53.2504
 -27829669.09847 -21671519.65246  20378328.1484   20378321.8714
        46.5004         40.5004
  -6795769.72246  -5408603.75046  23650213.0944   23650209.8714
        41.5004         36.0004
 -14478086.76047 -11225132.99447  22855375.7344   22855368.7504
        44.2504         42.7504
  -5079308.25246  -3942231.51045  24263219.2274   24263214.7194
        40.7504         33.0004
  -7484727.88546  -5813453.75746  23543614.8834   23543611.2034
        38.0004         36.0004
 20  5  3  1 50 30.0000000  0  9G16G30G27G 9G 4G26G 7G 3G 8
 -20553121.91548 -16307899.48246  21108428.6484   21108421.0744
        48.0004         36.5004
  -1897641.93545  -1467436.44244  25396063.7584   25396060.7074
        34.2504         27.0004
 -13270168.14047 -10319148.07847  22651379.0944   22651373.9734
        43.7504         42.7504
 -25832292.33648 -20108199.30448  20639384.1094   20639378.4344
        49.7504         53.2504
 -27802534.49647 -21650375.82146  20383491.5784   20383485.7034
        46.2504         40.5004
  -6694445.00146  -5329649.45746  23669495.6094   23669491.5944
        41.2504         36.0004
 -14543828.82747 -11276360.56047  22842865.0704   22842858.3054
        44.5004         43.2504
  -4970845.71446  -3857715.30245  24283857.9224   24283854.9924
        39.5004         33.2504
  -7582597.40746  -5889715.65146  23524991.2814   23524988.2584
        39.2504         37.2504
 20  5  3  1 51  0.0000000  0  9G16G30G27G 9G 4G26G 7G 3G 8
 -20487663.72748 -16256893.10346  21120885.6954   21120877.4774
        48.2504         36.7504
  -1983587.65546  -1534407.18344  25379710.0394   25379705.4844
        36.0004         27.7504
 -13335241.36547 -10369854.46647  22638995.9534   22638991.6294
        43.5004         42.7504
 -25873576.87448 -20140369.07948  20631527.8284   20631522.6604
        50.0004         53.2504
 -27774926.13747 -21628862.82546  20388745.0864   20388739.2544
        46.0004         40.2504
  -6592974.03546  -5250581.20645  23688804.9924   23688800.9494
        41.5004         35.2504
 -14609458.23647 -11327500.32347  22830376.6254   22830369.1414
        44.5004         43.0004
  -4862363.86646  -3773184.03045  24304501.5634   24304498.6684
        39.0004         33.0004
  -7680314.90446  -5965859.14546  23506396.9144   23506393.8594
        40.0004         38.0004
 20  5  3  1 51 30.0000000  0  9G16G30G27G 9G 4G26G 7G 3G 8
 -20421725.52248 -16205512.69046  21133432.8914   21133424.5634
        48.7504         36.2504
  -2069506.06045  -1601356.65844  25363359.8674   25363356.4534
        35.5004         28.5004
 -13399863.11247 -10420209.04547  22626698.7734   22626694.5474
        44.0004         43.0004
 -25914427.08448 -20172200.41348  20623754.5164   20623749.2304
        50.0004         53.2504
 -27746843.94247 -21606980.61046  20394089.5164   20394083.1374
        46.2504         40.7504
  -6491359.24446  -5171400.89045  23708141.7974   23708137.5434
        41.0004         35.0004
 -14674975.14147 -11378552.44747  22817908.9774   22817901.8634
        44.7504         43.2504
  -4753865.51946  -3688639.94745  24325149.4774   24325145.0554
        39.7504         33.5004
  -7777877.26846  -6041881.71546  23487830.9384   23487826.9144
        39.5004         37.0004
 20  5  3  1 52  0.0000000  0  9G16G30G27G 9G 4G26G 7G 3G 8
 -20355310.44048 -16153760.68746  21146071.3524   21146063.1724
        49.0004         36.7504
  -2155397.02946  -1668284.74045  25347015.8364   25347011.8674
        37.0004         30.5004
 -13464030.37347 -10470209.49647  22614488.5234   22614483.5204
        44.0004         42.7504
 -25954841.02148 -20203691.79148  20616063.6644   20616058.4574
        50.2504         53.2504
 -27718287.78847 -21584729.07546  20399523.3674   20399517.0744
        46.5004         40.2504
  -6389602.94446  -5092110.30845  23727504.9304   23727500.6564
        41.7504         34.5004
 -14740379.22847 -11429516.65847  22805463.2814   22805455.9964
        45.0004         43.0004
  -4645353.57546  -3604085.23845  24345798.0394   24345794.6644
        38.2504         33.5004
  -7875280.89246  -6117780.63646  23469295.0784   23469291.5634
        40.0004         37.0004
 20  5  3  1 52 30.0000000  0  9G16G30G27G 9G 4G26G 7G 3G 8
 -20288420.36448 -16101638.55946  21158800.3524   21158791.7934
        48.5004         37.0004
  -2241259.68546  -1735190.74844  25330676.2664   25330672.2504
        37.0004         29.2504
 -13527739.80547 -10519853.19647  22602365.1094   22602360.2194
        43.7504         43.0004
 -25994816.31448 -20234841.37948  20608456.7664   20608451.4574
        50.0004         53.2504
 -27689257.06247 -21562107.73946  20405047.9534   20405041.4924
        46.2504         40.7504
  -6287706.88246  -5012710.80945  23746894.6644   23746890.9064
        41.2504         34.5004
 -14805669.90847 -11480392.49047  22793038.7584   22793031.8524
        44.5004         43.2504
  -4536830.16746  -3519521.65045  24366451.2814   24366445.7504
        40.5004         33.5004
  -7972522.05446  -6193552.89846  23450791.2194   23450788.0594
        39.7504         36.7504
 20  5  3  1 53  0.0000000  0  9G16G30G27G 9G 4G26G 7G 3G 8
 -20221058.81148 -16049149.04146  21171618.4774   21171610.5594
        48.5004         37.2504
  -2327094.81746  -1802075.30844  25314342.2734   25314339.3054
        36.7504         28.2504
 -13590989.39947 -10569138.58147  22590329.4924   22590324.2774
        44.0004         43.0004
 -26034352.12848 -20265648.50448  20600933.2664   20600927.7504
        49.0004         53.2504
 -27659752.55347 -21539117.22146  20410662.4614   20410655.9884
        45.7504         40.2504
  -6185674.38546  -4933204.98745  23766310.1644   23766307.1254
        40.2504         34.2504
 -14870848.10347 -11531180.67947  22780635.5864   22780628.4024
        45.0004         43.0004
  -4428299.11746  -3434952.03845  24387101.5554   24387098.2074
        38.5004         33.0004
  -8069598.90346  -6269197.18946  23432318.6484   23432314.4964
        41.2504         37.0004
 20  5  3  1 53 30.0000000  0  9G16G30G27G 9G 4G26G 7G 3G 8
 -20153227.80248 -15996293.72146  21184526.5634   21184518.4614
        48.7504         36.5004
  -2412901.28846  -1868937.57544  25298013.9144   25298009.7344
        37.0004         28.0004
 -13653775.36347 -10618062.70047  22578380.7734   22578376.0984
        43.5004         42.5004
 -26073445.72148 -20296111.04948  20593494.0864   20593488.9414
        48.5004         53.2504
 -27629773.39147 -21515756.84246  20416367.0164   20416361.0274
        46.0004         40.0004
  -6083506.85546  -4853593.97345  23785753.2504   23785749.2664
        40.5004         34.7504
 -14935912.49247 -11581880.17647  22768254.2274   22768247.3284
        44.5004         43.5004
  -4319762.32446  -3350377.95345  24407755.3524   24407752.6134
        39.0004         33.5004
  -8166506.95846  -6344709.94046  23413877.0004   23413874.6134
        39.5004         37.0004
 20  5  3  1 54  0.0000000  0  9G16G30G27G 9G 4G26G 7G 3G 8
 -20084930.57448 -15943075.10446  21197522.7504   21197514.8524
        49.0004         36.0004
  -2498679.41546  -1935777.74444  25281690.8984   25281687.9104
        36.0004         28.5004
 -13716095.34947 -10666623.72047  22566521.9844   22566517.1804
        43.7504         42.5004
 -26112095.81448 -20326228.00448  20586139.0864   20586133.8714
        49.0004         53.2504
 -27599320.01647 -21492026.95546  20422162.2504   20422156.0634
        46.2504         39.7504
  -5981207.11446  -4773879.92445  23805219.6414   23805216.1884
        40.7504         35.2504
 -15000863.38847 -11632491.24747  22755894.2664   22755887.5664
        44.7504         43.2504
  -4211223.12046  -3265802.02845  24428409.5704   24428407.0634
        38.0004         33.2504
  -8263243.57446  -6420089.06146  23395468.7274   23395466.0314
        40.5004         38.0004
 20  5  3  1 54 30.0000000  0  9G16G30G27G 9G 4G26G 7G 3G 8
 -20016169.77248 -15889495.27146  21210607.4064   21210599.5634
        48.5004         36.2504
  -2584428.99646  -2002595.60444  25265372.8204   25265369.4534
        36.5004         27.0004
 -13777946.49247 -10714819.40347  22554751.8284   22554747.4344
        43.5004         42.7504
 -26150300.56448 -20355997.93948  20578869.0084   20578863.8794
        48.7504         53.2504
 -27568392.34547 -21467927.47646  20428047.5084   20428041.7974
        45.7504         39.7504
  -5878777.37546  -4694064.58845  23824711.9844   23824707.6844
        40.7504         34.7504
 -15065700.61447 -11683013.74747  22743555.9384   22743549.3554
        44.2504         43.2504
  -4102684.16146  -3181226.25945  24449063.2424   24449061.1174
        37.2504         31.5004
  -8359805.56346  -6495332.15146  23377092.8594   23377088.7894
        39.5004         36.5004
 20  5  3  1 55  0.0000000  0  9G16G30G27G 9G 4G26G 7G 3G 8
 -19946947.56848 -15835555.90346  21223780.0164   21223772.5474
        48.7504         36.5004
  -2670149.22246  -2069390.62144  25249062.1644   25249057.8634
        36.7504         28.5004
 -13839325.43247 -10762647.13747  22543071.7894   22543067.0044
        43.5004         43.0004
 -26188057.73148 -20385419.11248  20571684.4144   20571678.9064
        48.5004         53.5004
 -27536989.92847 -21443458.08046  20434023.4384   20434017.2584
        45.7504         40.0004
  -5776219.57646  -4614149.44945  23844227.2734   23844224.1454
        40.0004         34.2504
 -15130423.72647 -11733447.32247  22731239.9064   22731232.5594
        44.5004         43.2504
  -3994147.90046  -3096652.61645  24469718.4694   24469714.8054
        39.2504         31.5004
  -8456189.15746  -6570436.21046  23358752.8674   23358749.3524
        40.7504         37.7504
 20  5  3  1 55 30.0000000  0  9G16G30G27G 9G 4G26G 7G 3G 8
 -19877267.25548 -15781259.56246  21237039.5784   21237031.5864
        48.2504         36.2504
  -2755840.32946  -2136162.95444  25232754.8834   25232751.6954
        36.7504         29.5004
 -13900229.75947 -10810105.04347  22531482.1334   22531477.1994
        43.7504         43.0004
 -26225365.85748 -20414490.37448  20564584.6564   20564579.1724
        49.5004         53.5004
 -27505113.07847 -21418618.98946  20440089.2194   20440083.3054
        45.5004         40.0004
  -5673536.22146  -4534136.52545  23863768.3284   23863764.2274
        40.5004         34.5004
 -15195032.77047 -11783792.02247  22718945.0474   22718938.0434
        45.0004         43.7504
  -3885617.31046  -3012083.37545  24490370.9454   24490367.0904
        39.0004         31.2504
  -8552391.28146  -6645398.84346  23340445.9144   23340442.2154
        40.7504         37.2504
 20  5  3  1 56  0.0000000  0  9G16G30G27G 9G 4G26G 7G 3G 8
 -19807131.52248 -15726608.35046  21250386.2894   21250377.9104
        48.2504         36.2504
  -2841502.25446  -2202912.55944  25216454.4384   25216450.2894
        37.2504         27.0004
 -13960656.76047 -10857191.01247  22519983.0704   22519978.4574
        43.7504         43.0004
 -26262223.33148 -20443210.48948  20557570.4924   20557565.1604
        49.5004         53.5004
 -27472761.99947 -21393410.36646  20446245.4694   20446239.6454
        45.7504         39.7504
  -5570729.89246  -4454027.71145  23883330.6174   23883327.3094
        39.2504         34.0004
 -15259527.58247 -11834047.70747  22706672.4454   22706665.3284
        45.0004         44.0004
  -3777095.42546  -2927520.92445  24511022.0704   24511018.2304
        39.2504         31.7504
  -8648408.94546  -6720217.80946  23322173.9384   23322170.5944
        40.5004         38.0004
 20  5  3  1 56 30.0000000  0  9G16G30G27G 9G 4G26G 7G 3G 8
 -19736543.10048 -15671604.39745  21263818.6254   21263810.9964
        48.5004         35.7504
  -2927134.40645  -2269638.95344  25200157.5314   25200155.6914
        35.2504         29.7504
 -14020603.32647 -10903902.61847  22508575.4844   22508571.5434
        43.5004         43.5004
 -26298628.11448 -20471577.85448  20550643.2424   20550638.1914
        49.5004         53.5004
 -27439936.40447 -21367832.00346  20452491.9694   20452485.6884
        46.0004         39.7504
  -5467802.36346  -4373824.48845  23902918.4614   23902913.4454
        39.7504         34.0004
 -15323908.02647 -11884214.26547  22694421.0554   22694414.2464
        45.0004         44.0004
  -3668584.70746  -2842967.13245  24531671.7894   24531667.7664
        40.0004         31.2504
  -8744238.57046  -6794890.18746  23303938.7814   23303934.8594
        41.5004         37.7504
 20  5  3  1 57  0.0000000  0  9G16G30G27G 9G 4G26G 7G 3G 8
 -19665504.70248 -15616249.81046  21277336.7584   21277329.0234
        48.5004         36.7504
  -3012736.80546  -2336342.09344  25183869.6174   25183865.8284
        37.0004         29.0004
 -14080066.92047 -10950237.88347  22497260.4304   22497255.3634
        44.0004         43.0004
 -26334578.60748 -20499591.22648  20543801.9304   20543796.8484
        49.0004         53.5004
 -27406636.52747 -21341884.06746  20458828.6024   20458822.5744
        46.5004         39.5004
  -5364756.25646  -4293528.86545  23922527.1334   23922523.2234
        41.2504         34.5004
 -15388173.89647 -11934291.54047  22682191.4454   22682184.7584
        45.0004         44.0004
  -3560088.06946  -2758424.34545  24552318.8284   24552314.1724
        41.7504         32.2504
  -8839876.96146  -6869413.61446  23285738.4144   23285735.2504
        39.7504         38.0004
 20  5  3  1 57 30.0000000  0  9G16G30G27G 9G 4G26G 7G 3G 8
 -19594018.93148 -15560546.61846  21290940.0554   21290932.3054
        48.5004         36.0004
  -3098309.02646  -2403021.79745  25167584.8984   25167582.0274
        36.7504         30.0004
 -14139044.50747 -10996194.43847  22486037.6254   22486032.1994
        44.5004         43.2504
 -26370072.78648 -20527249.03348  20537047.9304   20537042.1094
        49.2504         53.5004
 -27372862.20347 -21315566.41846  20465255.8754   20465249.2544
        46.5004         39.7504
  -5261593.49546  -4213142.32645  23942158.8204   23942154.2974
        41.2504         34.0004
 -15452324.47247 -11984278.98547  22669984.3594   22669977.2274
        45.2504         43.7504
  -3451607.90146  -2673894.41645  24572961.6884   24572956.8164
        41.2504         31.5004
  -8935320.61546  -6943785.23846  23267576.6024   23267572.5164
        40.7504         37.0004
 20  5  3  1 58  0.0000000  0  9G16G30G27G 9G 4G26G 7G 3G 8
 -19522088.84248 -15504497.20846  21304627.8674   21304620.1374
        48.5004         36.5004
  -3183851.22346  -2469678.04445  25151307.8524   25151304.1454
        37.7504         30.2504
 -14197533.77347 -11041770.48647  22474906.8674   22474902.1604
        44.0004         43.2504
 -26405109.42848 -20554550.31648  20530380.5394   20530375.3054
        49.5004         53.5004
 -27338613.93647 -21288879.47646  20471772.9454   20471766.7154
        46.5004         40.0004
  -5158316.78846  -4132667.01145  23961811.5634   23961807.1954
        41.2504         34.5004
 -15516360.11347 -12034176.86047  22657798.1644   22657791.2814
        45.5004         43.5004
  -3343147.64746  -2589379.93845  24593598.9924   24593596.3244
        37.7504         31.7504
  -9030567.00746  -7018003.18246  23249452.1174   23249448.2154
        40.7504         38.7504
 20  5  3  1 58 30.0000000  0  9G16G30G27G 9G 4G26G 7G 3G 8
 -19449716.96448 -15448103.54345  21318399.9534   21318392.2774
        48.0004         35.2504
  -3269362.60146  -2536310.32244  25135035.3674   25135031.3954
        37.7504         29.7504
 -14255531.42647 -11086963.46147  22463870.3134   22463865.6914
        44.0004         43.5004
 -26439686.21548 -20581493.27048  20523800.6644   20523795.5664
        49.0004         53.7504
 -27303891.20547 -21261822.82146  20478379.8834   20478374.3404
        46.5004         40.0004
  -5054927.80146  -4052104.15945  23981484.7504   23981480.8634
        39.7504         32.5004
 -15580280.27147 -12083984.75347  22645634.8204   22645627.7504
        44.7504         43.5004
  -3234709.26246  -2504882.52845  24614233.5084   24614231.8404
        38.7504         32.7504
  -9125612.09546  -7092064.25546  23231365.2734   23231361.3984
        41.2504         39.0004
 20  5  3  1 59  0.0000000  0  9G16G30G27G 9G 4G26G 7G 3G 8
 -19376906.22448 -15391367.90846  21332255.6724   21332248.0704
        49.0004         36.5004
  -3354843.23846  -2602918.66645  25118768.1884   25118764.7384
        36.0004         30.0004
 -14313035.11147 -11131771.51147  22452928.2274   22452923.1334
        44.5004         43.2504
 -26473801.78148 -20608076.83248  20517308.8914   20517303.4384
        48.7504         53.7504
 -27268694.55247 -21234396.87346  20485078.0864   20485072.0784
        46.2504         40.0004
  -4951429.10046  -3971455.87345  24001180.4774   24001177.4614
        39.2504         34.5004
 -15644085.04447 -12133702.73747  22633493.7344   22633486.1254
        44.7504         43.5004
  -3126295.93346  -2420404.69345  24634865.5314   24634861.8054
        40.5004         32.0004
  -9220452.89646  -7165966.15546  23213317.4454   23213314.2424
        40.7504         39.0004
 20  5  3  1 59 30.0000000  0  9G16G30G27G 9G 4G26G 7G 3G 8
 -19303658.87248 -15334292.06445  21346193.8914   21346186.2974
        48.5004         35.7504
  -3440292.50246  -2669502.52445  25102507.7194   25102504.3874
        38.2504         31.0004
 -14370041.49747 -11176192.06647  22442079.8914   22442075.2154
        44.5004         43.7504
 -26507453.84348 -20634299.23348  20510905.0704   20510899.8284
        48.5004         53.7504
 -27233023.44447 -21206601.22446  20491866.1254   20491860.2274
        46.5004         39.7504
  -4847822.33146  -3890723.42245  24020896.6884   24020893.3164
        39.7504         33.7504
 -15707773.64647 -12183330.21947  22621373.6954   22621366.4574
        45.0004         43.5004
  -3017909.82846  -2335948.03245  24655491.2734   24655487.5704
        40.0004         31.2504
  -9315085.91746  -7239706.12846  23195309.1884   23195306.7664
        40.5004         39.2504
 20  5  3  2  0  0.0000000  0  9G16G30G27G 9G 4G26G 7G 3G 8
 -19229978.55548 -15276878.83345  21360214.8594   21360206.9224
        48.5004         35.5004
  -3525710.61046  -2736062.11745  25086253.3524   25086250.4264
        37.0004         32.0004
 -14426548.67047 -11220223.62047  22431326.9844   22431321.9454
        45.0004         43.7504
 -26540641.32748 -20660159.61648  20504590.0234   20504584.5864
        48.7504         53.7504
 -27196878.73047 -21178436.52746  20498744.0634   20498737.9734
        46.5004         39.5004
  -4744110.36646  -3809908.92745  24040632.6804   24040628.5274
        41.5004         33.7504
 -15771346.67847 -12232867.62647  22609276.4924   22609268.9454
        45.2504         44.0004
  -2909554.19646  -2251515.09745  24676109.9384   24676106.8914
        38.5004         31.2504
  -9409508.12446  -7313281.84646  23177341.4144   23177338.3014
        40.5004         38.7504
 20  5  3  2  0 30.0000000  0  9G16G30G27G 9G 4G26G 7G 3G 8
 -19155866.83748 -15219129.44846  21374317.9694   21374310.2034
        48.5004         36.0004
  -3611096.40846  -2802596.50545  25070005.5004   25070001.5664
        38.2504         30.7504
 -14482552.81147 -11263863.19547  22420669.6024   22420664.7194
        45.7504         43.7504
 -26573361.45448 -20685655.82748  20498363.0634   20498357.9614
        49.5004         53.5004
 -27160259.44747 -21149902.02746  20505712.6174   20505706.8524
        46.5004         39.5004
  -4640294.33046  -3729013.35745  24060387.4064   24060384.0434
        40.0004         34.2504
 -15834802.54147 -12282313.73447  22597201.0944   22597193.8984
        45.5004         44.0004
  -2801230.68146  -2167107.23245  24696723.2734   24696719.4384
        38.5004         30.2504
  -9503715.44846  -7386690.11846  23159414.2584   23159410.5664
        41.0004         37.7504
 20  5  3  2  1  0.0000000  0  9G16G30G27G 9G 4G26G 7G 3G 8
 -19081328.16048 -15161047.37145  21388502.1174   21388494.1914
        48.2504         35.2504
  -3696451.30246  -2869106.80445  25053763.3984   25053758.9574
        38.7504         30.5004
 -14538052.89847 -11307110.01047  22410108.5704   22410103.2114
        45.7504         43.5004
 -26605614.23848 -20710787.86548  20492225.7894   20492220.3324
        49.0004         53.7504
 -27123167.42747 -21120999.16946  20512771.4384   20512765.2114
        47.0004         39.0004
  -4536378.04646  -3648039.62845  24080161.9454   24080158.3524
        40.2504         34.2504
 -15898142.74247 -12331669.71547  22585148.0394   22585140.9224
        45.2504         44.2504
  -2692943.78446  -2082727.84045  24717328.5394   24717326.1994
        37.2504         30.5004
  -9597706.11746  -7459929.56646  23141528.3834   23141524.8594
        40.2504         37.7504
 20  5  3  2  1 30.0000000  0  9G16G30G27G 9G 4G26G 7G 3G 8
 -19006364.30548 -15102633.99345  21402767.3674   21402759.4844
        48.2504         35.5004
  -3781774.06646  -2935592.11444  25037527.2344   25037522.2074
        38.0004         29.0004
 -14593045.36647 -11349961.27647  22399643.5164   22399638.9734
        44.7504         43.5004
 -26637397.04448 -20735553.69648  20486178.0704   20486172.6764
        49.0004         53.7504
 -27085601.90647 -21091727.34446  20519919.9454   20519913.4654
        46.5004         39.5004
  -4432362.74946  -3566988.83145  24099956.0864   24099952.4924
        39.5004         34.5004
 -15961366.21147 -12380934.71547  22573117.0394   22573109.5984
        45.2504         44.5004
  -2584695.22346  -1998378.35145  24737927.3364   24737924.9494
        38.0004         30.7504
  -9691476.16046  -7532997.10346  23123684.0084   23123680.4924
        41.0004         37.7504
 20  5  3  2  2  0.0000000  0  9G16G30G27G 9G 4G26G 7G 3G 8
 -18930978.80148 -15043892.04445  21417112.6644   21417104.9844
        48.0004         35.7504
  -3867065.02546  -3002052.64345  25021296.3594   25021292.8754
        37.5004         30.7504
 -14647528.23147 -11392415.44047  22389276.1484   22389270.9104
        44.5004         43.5004
 -26668708.84148 -20759952.49948  20480219.7664   20480213.8554
        49.0004         53.7504
 -27047563.66147 -21062087.16446  20527158.3284   20527151.6724
        47.2504         39.2504
  -4328251.28346  -3485863.02745  24119767.2814   24119764.6564
        39.7504         34.0004
 -16024473.01147 -12430108.82447  22561107.7504   22561100.5394
        45.5004         44.5004
  -2476488.21646  -1914061.27545  24758520.9774   24758516.2464
        40.5004         30.7504
  -9785022.33946  -7605890.21446  23105883.8204   23105879.7704
        40.5004         37.5004
 20  5  3  2  2 30.0000000  0  9G16G30G27G 9G 4G26G 7G 3G 8
 -18855173.64448 -14984823.09545  21431538.0474   21431530.2584
        48.0004         35.7504
  -3952323.30346  -3068487.68844  25005072.1484   25005068.0704
        37.5004         29.0004
 -14701498.15447 -11434469.91747  22379005.7194   22379000.5554
        45.5004         43.5004
 -26699547.23448 -20783982.41948  20474350.9144   20474345.7114
        49.0004         53.7504
 -27009052.23147 -21032078.26846  20534486.2814   20534480.3634
        46.7504         39.7504
  -4224044.95346  -3404663.36445  24139597.1254   24139594.3674
        37.2504         32.7504
 -16087462.82347 -12479191.79647  22549120.9844   22549113.9064
        45.2504         44.5004
  -2368324.79146  -1829778.06744  24779102.3204   24779099.1804
        36.5004         29.5004
  -9878341.36846  -7678606.32546  23088125.6254   23088121.2704
        41.2504         38.5004
 20  5  3  2  3  0.0000000  0  9G16G30G27G 9G 4G26G 7G 3G 8
 -18778952.46948 -14925429.97846  21446042.0704   21446034.4534
        48.2504         36.0004
  -4037549.13946  -3134897.42044  24988853.6954   24988851.1644
        36.7504         28.7504
 -14754953.07947 -11476123.08747  22368833.7424   22368828.2544
        45.2504         43.7504
 -26729911.11048 -20807642.58848  20468572.8984   20468567.4344
        48.7504         53.7504
 -26970068.33147 -21001701.22046  20541904.7584   20541898.5634
        46.5004         39.2504
  -4119746.60446  -3323391.93845  24159444.0864   24159440.5234
        39.0004         32.0004
 -16150335.50047 -12528183.47147  22537156.4224   22537149.6484
        45.5004         44.2504
  -2260208.07646  -1745531.32744  24799675.9454   24799672.9414
        37.0004         29.7504
  -9971429.85346  -7751142.79946  23070411.4384   23070408.1334
        41.2504         39.5004
 20  5  3  2  3 30.0000000  0  9G16G30G27G 9G 4G26G 7G 3G 8
 -18702316.96347 -14865714.01845  21460625.8204   21460618.0204
        47.7504         35.5004
  -4122741.43446  -3201281.08744  24972642.0474   24972638.4654
        37.0004         28.2504
 -14807889.65747 -11517372.35347  22358759.8984   22358755.2774
        45.0004         43.7504
 -26759798.03448 -20830931.10148  20462885.5864   20462880.3594
        49.0004         53.7504
 -26930611.38547 -20970955.56746  20549413.5944   20549407.3444
        46.5004         38.7504
  -4015357.42345  -3242049.74945  24179308.3524   24179305.1214
        35.5004         32.0004
 -16213089.95747 -12577083.01147  22525214.8134   22525208.1564
        44.7504         44.0004
  -2152140.03646  -1661322.48845  24820241.1174   24820238.5944
        38.2504         30.0004
 -10064283.93446  -7823496.60346  23052740.8284   23052738.5084
        41.0004         39.7504
 20  5  3  2  4  0.0000000  0  9G16G30G27G 9G 4G26G 7G 3G 8
 -18625270.74447 -14805678.00345  21475287.1094   21475279.2664
        47.7504         35.0004
  -4207900.73846  -3267638.97045  24956437.6414   24956433.6174
        37.2504         30.5004
 -14860306.00947 -11558216.24447  22348785.4614   22348780.5514
        45.5004         44.0004
 -26789207.07248 -20853847.23648  20457289.5394   20457284.0824
        48.7504         53.7504
 -26890682.35847 -20939842.04646  20557011.6954   20557005.6644
        47.2504         39.0004
  -3910880.36946  -3160639.09545  24199190.7664   24199186.3094
        39.0004         32.7504
 -16275726.60647 -12625890.76347  22513295.9694   22513288.8094
        45.0004         44.2504
  -2044123.77246  -1577153.99345  24840795.5704   24840793.3874
        37.7504         31.0004
 -10156901.20246  -7895665.86346  23035117.0944   23035113.0274
        40.7504         39.5004
 20  5  3  2  4 30.0000000  0  9G16G30G27G 9G 4G26G 7G 3G 8
 -18547816.67848 -14745324.19445  21490025.8834   21490018.0944
        48.0004         34.5004
  -4293026.58346  -3333970.81645  24940238.8524   24940234.6604
        37.2504         31.0004
 -14912199.51147 -11598652.70747  22338910.2114   22338905.7074
        45.0004         43.7504
 -26818136.51048 -20876389.66248  20451783.9224   20451778.7234
        49.0004         53.7504
 -26850281.44547 -20908360.83746  20564699.6724   20564693.8754
        46.7504         39.0004
  -3806317.37246  -3079161.47145  24219087.5164   24219085.0204
        38.7504         32.5004
 -16338245.23447 -12674606.56047  22501398.9304   22501391.8444
        45.5004         44.2504
  -1936162.14246  -1493028.10845  24861340.7114   24861337.8134
        38.2504         31.7504
 -10249278.26246  -7967647.93546  23017538.0234   23017534.9844
        40.5004         39.0004
 20  5  3  2  5  0.0000000  0  9G16G30G27G 9G 4G26G 7G 3G 8
 -18469957.53847 -14684654.74545  21504841.7814   21504833.9884
        47.5004         35.5004
  -4378118.74146  -3400276.39645  24924046.4614   24924042.4884
        37.5004         30.5004
 -14963567.61047 -11638679.76947  22329135.0084   22329130.6484
        45.0004         43.7504
 -26846584.76348 -20898557.13348  20446370.9224   20446365.0234
        49.5004         53.7504
 -26809408.81347 -20876512.04746  20572477.4534   20572471.7114
        46.7504         39.0004
  -3701670.47646  -2997618.51745  24239003.7424   24238999.2034
        41.5004         34.2504
 -16400645.57247 -12723230.18747  22489524.6724   22489517.0204
        45.7504         44.2504
  -1828257.59946  -1408946.70345  24881874.7274   24881870.7814
        38.5004         31.0004
 -10341411.70846  -8039440.18946  23000006.1094   23000001.7304
        41.5004         39.7504
 20  5  3  2  5 30.0000000  0  9G16G30G27G 9G 4G26G 7G 3G 8
 -18391696.26147 -14623671.94545  21519734.8364   21519726.7384
        47.5004         34.5004
  -4463177.32546  -3466555.83445  24907860.5084   24907856.5434
        37.7504         31.0004
 -15014408.24447 -11678295.81947  22319460.6484   22319456.2344
        45.5004         44.2504
 -26874550.56048 -20920348.67748  20441049.0234   20441043.6214
        48.5004         53.7504
 -26768065.18947 -20844296.25346  20580345.1334   20580338.9734
        46.5004         39.2504
  -3596942.27646  -2916012.16945  24258933.0474   24258928.3984
        41.2504         33.7504
 -16462927.58747 -12771761.61147  22477672.6724   22477665.7074
        45.2504         44.5004
  -1720413.16846  -1324912.14745  24902396.8834   24902392.8094
        38.5004         31.0004
 -10433298.61246  -8111040.33646  22982520.9064   22982516.5044
        41.5004         39.5004
 20  5  3  2  6  0.0000000  0  9G16G30G27G 9G 4G26G 7G 3G 8
 -18313035.32547 -14562377.71445  21534703.4924   21534695.5274
        47.5004         34.7504
  -4548201.68946  -3532808.58845  24891679.5394   24891677.0204
        37.0004         31.0004
 -15064718.44647 -11717498.55147  22309886.8204   22309882.6334
        44.7504         44.2504
 -26902031.90448 -20941762.72148  20435819.6954   20435814.0704
        49.5004         53.7504
 -26726250.46847 -20811713.36446  20588301.9454   20588295.8094
        46.7504         38.7504
  -3492134.28146  -2834343.69945  24278877.3204   24278872.2934
        40.0004         33.0004
 -16525090.74147 -12820200.42147  22465843.2734   22465835.9024
        46.0004         44.5004
  -1612631.08746  -1240926.09545  24922904.9384   24922903.0234
        36.7504         30.0004
 -10524935.42746  -8182445.62046  22965082.4384   22965079.0084
        41.7504         39.2504
 20  5  3  2  6 30.0000000  0  9G16G30G27G 9G 4G26G 7G 3G 8
 -18233977.99647 -14500774.60845  21549747.5314   21549739.8484
        47.7504         34.7504
  -4633191.59346  -3599034.44445  24875507.1414   24875503.9694
        36.7504         31.0004
 -15114495.89047 -11756286.14747  22300414.8674   22300409.9534
        46.0004         44.5004
 -26929027.37148 -20962798.15448  20430682.1254   20430676.7304
        49.2504         53.7504
 -26683965.08047 -20778763.73346  20596348.8444   20596343.0474
        46.7504         39.0004
  -3387248.97546  -2752614.82745  24298833.2274   24298832.1884
        37.5004         32.5004
 -16587134.66147 -12868546.31747  22454036.7194   22454029.5474
        45.5004         45.0004
  -1504914.07446  -1156990.84044  24943405.7814   24943400.4804
        40.5004         29.0004
 -10616319.11447  -8253653.68846  22947692.7734   22947688.9734
        42.2504         39.2504
 20  5  3  2  7  0.0000000  0  9G16G30G27G 9G 4G26G 7G 3G 8
 -18154526.54347 -14438864.39745  21564866.7424   21564858.7854
        47.5004         35.5004
  -4718146.60846  -3665233.19645  24859340.0394   24859336.9304
        37.0004         31.5004
 -15163737.88247 -11794656.50747  22291044.4454   22291039.4304
        46.2504         44.0004
 -26955535.12348 -20983453.55648  20425638.1954   20425632.9144
        50.0004         53.7504
 -26641209.04947 -20745447.35946  20604484.9694   20604478.8484
        46.2504         39.2504
  -3282287.85546  -2670827.01845  24318807.0004   24318805.6254
        37.5004         32.0004
 -16649059.01247 -12916799.03747  22442253.1644   22442245.5274
        45.5004         44.7504
  -1397264.41846  -1073107.98044  24963889.5084   24963885.9064
        37.5004         29.5004
 -10707445.83846  -8324661.50746  22930352.2894   22930348.1414
        41.5004         39.2504
 20  5  3  2  7 30.0000000  0  9G16G30G27G 9G 4G26G 7G 3G 8
 -18074683.86847 -14376649.33745  21580060.1024   21580052.2504
        47.7504         35.0004
  -4803066.33646  -3731404.39245  24843181.9224   24843177.2734
        37.7504         31.0004
 -15212441.90647 -11832607.68047  22281776.7814   22281771.5784
        45.7504         44.2504
 -26981553.52148 -21003727.63748  20420686.8914   20420681.7894
        50.0004         53.7504
 -26597982.71047 -20711764.51646  20612710.5314   20612704.5394
        46.2504         39.0004
  -3177252.93546  -2588981.72045  24338796.8284   24338792.3794
        39.7504         31.0004
 -16710863.49147 -12964958.36347  22430491.8594   22430484.7814
        45.7504         45.0004
  -1289684.69846   -989279.62844  24984362.3444   24984357.1174
        38.7504         28.5004
 -10798312.74747  -8395466.88046  22913060.8134   22913057.4454
        42.0004         40.0004
 20  5  3  2  8  0.0000000  0  9G16G30G27G 9G 4G26G 7G 3G 8
 -17994453.57647 -14314132.23745  21595327.6564   21595319.8674
        47.5004         34.7504
  -4887951.55646  -3797548.71945  24827028.0554   24827025.1454
        38.0004         32.2504
 -15260606.58947 -11870138.59647  22272610.7894   22272606.0744
        45.5004         44.2504
 -27007082.02448 -21023619.99448  20415829.1724   20415823.6414
        50.0004         53.7504
 -26554287.39847 -20677716.22946  20621025.5474   20621019.0274
        47.0004         38.5004
  -3072147.39846  -2507081.23745  24358795.0864   24358792.6804
        36.7504         31.2504
 -16772548.84747 -13013024.85947  22418753.7114   22418746.4884
        45.5004         45.2504
  -1182178.46946   -905508.52844  25004819.0634   25004814.9144
        36.5004         27.2504
 -10888916.72146  -8466067.35346  22895819.2034   22895815.4924
        41.5004         40.0004
 20  5  3  2  8 30.0000000  0  9G16G30G27G 9G 4G26G 7G 3G 8
 -17913837.20747 -14251314.29645  21610668.2974   21610660.6644
        47.0004         34.7504
  -4972800.39846  -3863664.67044  24810881.9924   24810877.8094
        37.5004         29.7504
 -15308228.01847 -11907246.18247  22263548.6884   22263544.1094
        46.0004         44.5004
 -27032117.65748 -21043128.28649  20411065.0474   20411059.5904
        49.7504         54.0004
 -26510122.01147 -20643301.65646  20629429.9304   20629423.7274
        46.5004         38.2504
  -2966971.75546  -2425126.29845  24378811.3284   24378806.4924
        39.2504         30.2504
 -16834113.01047 -13060996.91247  22407038.5634   22407031.2194
        45.5004         45.0004
  -1074746.90046   -821795.59544  25025262.6414   25025258.7734
        37.5004         28.0004
 -10979253.40446  -8536459.53946  22878628.4694   22878624.2974
        41.7504         40.2504
 20  5  3  2  9  0.0000000  0  9G16G30G27G 9G 4G26G 7G 3G 8
 -17832838.86847 -14188198.71945  21626081.8594   21626074.0164
        47.0004         35.0004
  -5057613.93946  -3929753.13945  24794742.7974   24794738.8284
        37.0004         30.5004
 -15355305.15647 -11943929.64347  22254589.8444   22254585.2734
        45.7504         44.0004
 -27056660.14348 -21062252.30649  20406394.9224   20406389.2234
        50.0004         54.0004
 -26465488.22847 -20608522.10346  20637923.4534   20637917.7664
        47.2504         38.5004
  -2861729.29046  -2343119.23145  24398838.9774   24398833.8244
        40.0004         32.5004
 -16895556.96847 -13108875.30547  22395345.3674   22395338.8554
        45.2504         45.0004
   -967393.67045   -738143.75944  25045689.9614   25045689.1024
        34.0004         27.5004
 -11069321.18446  -8606642.17046  22861489.0164   22861484.9104
        41.5004         40.0004
 20  5  3  2  9 30.0000000  0  9G16G30G27G 9G 4G26G 7G 3G 8
 -17751460.68347 -14124787.16345  21641567.4924   21641560.1994
        47.2504         34.7504
  -5142391.68246  -3995813.72544  24778609.2034   24778605.8794
        36.0004         29.2504
 -15401835.42047 -11980186.97747  22245735.6024   22245730.9734
        45.5004         44.2504
 -27080707.81948 -21080990.75248  20401818.7344   20401813.3874
        50.0004         53.7504
 -26420386.23347 -20573377.70246  20646506.0474   20646500.2304
        46.0004         37.7504
  -2756421.92946  -2261061.53545  24418879.3674   24418873.5824
        40.7504         33.5004
 -16956880.28447 -13156659.67947  22383676.5084   22383668.8484
        45.0004         45.0004
   -860121.34046   -654555.07644  25066105.5394   25066102.0204
        37.0004         29.7504
 -11159116.31746  -8676612.36746  22844401.5554   22844397.7384
        41.5004         39.7504
 20  5  3  2 10  0.0000000  0  9G16G30G27G 9G 4G26G 7G 3G 8
 -17669706.21647 -14061082.39845  21657124.8204   21657117.0514
        47.0004         34.2504
  -5227133.32346  -4061846.15444  24762483.9694   24762479.2344
        38.5004         29.5004
 -15447816.50047 -12016016.37747  22236985.5004   22236981.2664
        45.5004         44.5004
 -27104259.16148 -21099342.46249  20397336.9534   20397331.4224
        50.5004         54.0004
 -26374816.49847 -20537868.83546  20655177.4924   20655171.7814
        46.5004         38.0004
  -2651051.49146  -2178954.69745  24438927.3284   24438924.6764
        36.7504         30.7504
 -17018082.78747 -13204349.95947  22372029.8364   22372022.6294
        45.2504         45.0004
   -752932.47646   -571031.21644  25086501.5634   25086499.3054
        36.0004         29.0004
 -11248635.43047  -8746367.49446  22827367.2194   22827362.4694
        42.5004         40.0004
 20  5  3  2 10 30.0000000  0  9G16G30G27G 9G 4G26G 7G 3G 8
 -17587577.38947 -13997085.91245  21672754.1564   21672745.7814
        47.0004         34.5004
  -5311837.94546  -4127849.78145  24746364.1644   24746361.4734
        37.0004         31.7504
 -15493245.51547 -12051415.59547  22228341.3984   22228336.5354
        46.0004         44.7504
 -27127312.08948 -21117305.78748  20392950.1024   20392944.5124
        49.7504         53.5004
 -26328778.80947 -20501995.32546  20663938.3984   20663932.3204
        47.2504         38.2504
  -2545619.46146  -2096800.00645  24458992.1334   24458987.4304
        38.7504         30.5004
 -17079163.40747 -13251945.22847  22360406.5784   22360399.2034
        45.2504         45.0004
   -645828.80246   -487573.94945  25106883.6644   25106881.5004
        38.7504         32.5004
 -11337874.39047  -8815904.34946  22810384.9694   22810381.1024
        42.5004         40.0004
 20  5  3  2 11  0.0000000  0  9G16G30G27G 9G 4G26G 7G 3G 8
 -17505078.08947 -13932800.76245  21688453.1484   21688445.0234
        47.2504         34.2504
  -5396506.28246  -4193825.10045  24730253.6484   24730249.0514
        37.7504         31.7504
 -15538121.02047 -12086383.51747  22219801.5164   22219796.5984
        46.2504         44.7504
 -27149866.09548 -21134880.34748  20388658.2424   20388652.7544
        48.7504         53.5004
 -26282274.56247 -20465758.26046  20672787.4694   20672781.9184
        46.2504         38.0004
  -2440128.77246  -2014599.46145  24479066.7584   24479061.5664
        40.0004         31.0004
 -17140122.67647 -13299445.92547  22348806.5314   22348798.7774
        46.0004         44.7504
   -538813.99046   -404185.73745  25127250.0864   25127244.0004
        40.0004         32.5004
 -11426831.25347  -8885221.34446  22793458.0004   22793453.3484
        42.2504         38.7504
 20  5  3  2 11 30.0000000  0  9G16G30G27G 9G 4G26G 7G 3G 8
 -17422210.59147 -13868228.69045  21704221.6334   21704213.8364
        47.0004         34.5004
  -5481137.69446  -4259771.63745  24714148.9774   24714144.2664
        39.2504         32.5004
 -15582440.56447 -12120918.20747  22211367.9924   22211363.0124
        46.0004         45.0004
 -27171919.44948 -21152064.78148  20384461.5084   20384456.2234
        50.0004         53.5004
 -26235303.96447 -20429157.81346  20681725.9924   20681720.4144
        46.5004         38.0004
  -2334581.13946  -1932354.57644  24499148.9774   24499146.6254
        36.0004         28.5004
 -17200960.05147 -13346851.66047  22337229.5164   22337221.9144
        46.0004         45.2504
   -431890.09246   -320868.45944  25147594.2814   25147591.2384
        36.2504         28.7504
 -11515502.64447  -8954315.92246  22776583.8914   22776579.6844
        42.0004         40.7504
 20  5  3  2 12  0.0000000  0  9G16G30G27G 9G 4G26G 7G 3G 8
 -17338977.71547 -13803371.91245  21720060.7424   21720052.5514
        46.7504         33.7504
  -5565731.50746  -4325688.93445  24698049.7734   24698047.2114
        37.0004         31.7504
 -15626201.57047 -12155017.67147  22203040.8284   22203035.4304
        46.2504         45.0004
 -27193470.35548 -21168857.70748  20380360.4454   20380355.1054
        50.0004         53.7504
 -26187867.12147 -20392194.06146  20690753.1644   20690747.2704
        47.0004         38.5004
  -2228978.03646  -1850066.55844  24519246.3364   24519243.1484
        37.5004         29.2504
 -17261674.72647 -13394161.78247  22325676.2424   22325668.5904
        45.5004         45.2504
   -325059.54546   -237623.82644  25167923.5634   25167920.1764
        37.0004         27.7504
 -11603884.43647  -9023184.81346  22759765.4384   22759761.4454
        42.2504         40.7504
 20  5  3  2 12 30.0000000  0  9G16G30G27G 9G 4G26G 7G 3G 8
 -17255382.31847 -13738232.65745  21735968.1804   21735960.4064
        46.7504         34.2504
  -5650287.60046  -4391576.76645  24681959.6334   24681956.5044
        37.0004         32.0004
 -15669401.80447 -12188680.18947  22194819.8524   22194814.4024
        45.2504         44.5004
 -27214517.48648 -21185258.06749  20376355.2194   20376350.0314
        50.2504         54.0004
 -26139964.67547 -20354867.48846  20699868.6724   20699863.0004
        46.5004         38.0004
  -2123321.65446  -1767736.94044  24539353.8284   24539347.0004
        39.0004         29.7504
 -17322266.96947 -13441376.53047  22314145.6724   22314138.1094
        45.7504         45.2504
   -218324.73446   -154453.99144  25188236.9924   25188231.2664
        39.7504         28.2504
 -11691974.05447  -9091826.04046  22743002.3914   22742998.3714
        43.0004         41.0004
 20  5  3  2 13  0.0000000  0  9G16G30G27G 9G 4G26G 7G 3G 8
 -17171427.54447 -13672813.36045  21751944.2504   21751936.7544
        45.7504         33.7504
  -5734806.11746  -4457435.30245  24665877.3914   24665873.2304
        39.0004         31.7504
 -15712039.61447 -12221904.44747  22186705.6884   22186700.7114
        45.7504         44.5004
 -27235059.89248 -21201265.14749  20372446.3594   20372440.7854
        50.5004         54.0004
 -26091597.53047 -20317178.81946  20709073.1644   20709066.8794
        46.5004         38.5004
  -2017614.49646  -1685367.70645  24559468.3524   24559463.5784
        38.5004         31.0004
 -17382736.12447 -13488495.33047  22302638.7814   22302631.4494
        46.0004         45.2504
   -111688.75846    -71360.87644  25208528.9924   25208525.1294
        37.7504         29.5004
 -11779768.21647  -9160237.04146  22726295.6954   22726291.8324
        43.0004         41.5004
 20  5  3  2 13 30.0000000  0  9G16G30G27G 9G 4G26G 7G 3G 8
 -17087115.68047 -13607115.81945  21767988.4844   21767980.5164
        46.2504         33.5004
  -5819286.29546  -4523263.97845  24649800.5864   24649797.4614
        38.0004         31.5004
 -15754112.39347 -12254688.41747  22178699.6564   22178694.4264
        45.7504         45.0004
 -27255095.77048 -21216877.53449  20368633.8444   20368628.2544
        50.7504         54.0004
 -26042765.84447 -20279128.16746  20718364.9774   20718359.0514
        46.5004         38.0004
  -1911857.85946  -1602959.95845  24579592.0394   24579589.6954
        37.0004         30.2504
 -17443082.05047 -13535518.10947  22291155.1954   22291147.8674
        45.5004         45.5004
     -5153.54145     11653.42043  25228798.0314   25228797.6724
        32.5004         22.0004
 -11867263.58747  -9228415.20947  22709645.5164   22709641.8634
        42.5004         42.0004
 20  5  3  2 14  0.0000000  0  9G16G30G27G 9G 4G26G 7G 3G 8
 -17002450.28047 -13541142.78845  21784099.7974   21784091.8244
        45.7504         33.5004
  -5903728.09046  -4589062.75445  24633731.5554   24633728.3204
        38.0004         31.2504
 -15795618.30047 -12287030.67447  22170802.0944   22170796.7734
        46.2504         45.2504
 -27274624.03548 -21232094.37149  20364918.0394   20364912.4414
        50.5004         54.0004
 -25993470.48447 -20240716.22546  20727745.5314   20727739.8554
        47.2504         38.5004
  -1806054.07845  -1520515.49445  24599724.8914   24599723.3324
        35.0004         30.0004
 -17503304.65247 -13582444.79347  22279695.1564   22279687.9104
        46.0004         45.5004
    101277.95345     94587.10844  25249051.3754   25249050.6684
        33.7504         25.0004
 -11954457.16047  -9296358.21546  22693053.6804   22693049.6524
        42.5004         41.7504
 20  5  3  2 14 30.0000000  0  9G16G30G27G 9G 4G26G 7G 3G 8
 -16917434.09747 -13474896.42845  21800277.6564   21800270.0704
        46.5004         33.7504
  -5988131.58346  -4654831.67445  24617669.5784   24617667.1294
        38.5004         32.2504
 -15836555.46247 -12318929.75147  22163011.0554   22163006.2034
        46.0004         44.7504
 -27293643.59048 -21246914.82149  20361298.4144   20361293.1174
        50.5004         54.0004
 -25943712.25547 -20201943.58646  20737214.1334   20737208.2504
        46.2504         38.5004
  -1700205.36145  -1438036.08544  24619868.5704   24619865.6414
        35.5004         29.2504
 -17563403.63847 -13629275.16447  22268258.7894   22268251.3594
        45.5004         45.5004
    207603.10546    177437.79643  25269287.2034   25269283.1024
        37.2504         23.0004
 -12041346.23447  -9364063.95446  22676518.7274   22676515.3714
        43.0004         41.5004
 20  5  3  2 15  0.0000000  0  9G16G30G27G 9G 4G26G 7G 3G 8
 -16832069.49547 -13408378.57845  21816521.9844   21816514.3094
        45.5004         33.5004
  -6072495.95346  -4720570.11745  24601616.4144   24601613.0554
        38.5004         32.2504
 -15876921.33347 -12350383.67047  22155329.8284   22155324.5314
        45.5004         44.7504
 -27312152.60348 -21261337.43749  20357776.3524   20357770.6844
        50.5004         54.0004
 -25893491.23947 -20162810.34846  20746771.2424   20746765.0204
        47.0004         38.2504
  -1594313.13846  -1355522.75445  24640020.8834   24640016.6764
        38.0004         30.2504
 -17623378.41647 -13676008.74047  22256846.4064   22256838.5634
        46.0004         45.5004
    313819.73146    260204.05144  25289500.8754   25289495.7854
        40.2504         29.5004
 -12127926.69847  -9431529.23246  22660042.5474   22660038.6054
        43.0004         41.5004
 20  5  3  2 15 30.0000000  0  9G16G30G27G 9G 4G26G 7G 3G 8
 -16746359.96847 -13341591.95245  21832832.2814   21832824.1564
        46.0004         33.2504
  -6156821.34246  -4786278.20845  24585569.1334   24585566.4414
        38.2504         32.0004
 -15916714.30047 -12381391.17847  22147757.7814   22147752.7664
        45.5004         44.7504
 -27330150.28748 -21275361.61649  20354351.3134   20354345.8594
        50.0004         54.0004
 -25842808.59647 -20123317.39546  20756415.5474   20756409.8134
        47.0004         38.5004
  -1488379.82946  -1272977.32345  24660178.4454   24660175.5044
        38.7504         32.0004
 -17683228.85247 -13722645.42747  22245456.5704   22245449.3594
        45.5004         45.7504
    419924.91646    342883.51245  25309691.4534   25309686.1524
        40.7504         32.5004
 -12214195.50447  -9498751.63846  22643626.8834   22643622.6454
        42.5004         40.7504
 20  5  3  2 16  0.0000000  0  9G16G30G27G 9G 4G26G 7G 3G 8
 -16660308.44347 -13274538.82445  21849207.1644   21849199.3204
        46.0004         34.0004
  -6241107.56046  -4851955.72145  24569531.0704   24569526.9924
        39.7504         32.2504
 -15955932.36847 -12411950.70947  22140294.0944   22140289.3794
        45.2504         45.0004
 -27347635.30348 -21288986.31349  20351024.1334   20351018.2384
        50.0004         54.0004
 -25791664.91447 -20083465.19546  20766148.2194   20766142.0204
        46.5004         37.7504
  -1382407.35746  -1190401.35045  24680344.3754   24680340.0514
        38.5004         32.7504
 -17742954.70447 -13769185.02747  22234091.5164   22234083.8834
        46.5004         45.5004
    525916.17946    425473.96645  25329862.5164   25329862.2034
        40.0004         31.2504
 -12300150.03747  -9565729.17346  22627270.1954   22627265.9734
        43.5004         41.2504
 20  5  3  2 16 30.0000000  0  9G16G30G27G 9G 4G26G 7G 3G 8
 -16573916.86447 -13207220.72845  21865646.8674   21865638.9224
        45.5004         33.0004
  -6325353.48646  -4917601.91145  24553498.5634   24553495.7114
        38.2504         32.0004
 -15994572.70047 -12442060.04147  22132942.1254   22132936.5824
        45.2504         45.0004
 -27364605.64948 -21302209.96449  20347794.6954   20347789.5864
        50.5004         54.0004
 -25740060.06247 -20043253.62946  20775968.3284   20775962.1884
        46.2504         37.5004
  -1276396.85146  -1107795.81245  24700517.5004   24700513.1174
        37.2504         31.5004
 -17802554.76047 -13815626.62447  22222749.7194   22222742.5204
        46.2504         46.0004
    631792.05645    488730.89655  25350004.8984   25350003.0394
        35.0004         30.0004
 -12385786.38847  -9632458.77446  22610973.5864   22610969.7584
        43.7504         41.5004
 20  5  3  2 17  0.0000000  0  9G16G30G27G 9G 4G26G 7G 3G 8
 -16487188.63747 -13139640.30445  21882150.6644   21882143.0594
        45.5004         33.5004
  -6409559.77446  -4983217.16745  24537475.9064   24537471.5904
        40.2504         32.5004
 -16032634.33247 -12471718.44647  22125697.8204   22125693.5354
        46.0004         45.2504
 -27381061.00348 -21315032.32049  20344663.5394   20344657.9454
        49.7504         54.0004
 -25687995.74947 -20002684.05446  20785875.5634   20785869.9734
        46.2504         38.2504
  -1170351.19146  -1025162.84844  24720696.0704   24720693.3484
        36.5004         29.5004
 -17862029.78747 -13861970.78747  22211431.8754   22211424.9064
        46.7504         46.0004
    737548.77245    571138.57145  25370128.0864   25370131.4064
        31.0004         31.7504
 -12471102.13447  -9698938.55946  22594738.5554   22594734.6484
        42.7504         41.5004
 20  5  3  2 17 30.0000000  0  8G16G30G27G 9G 4G26G 7G 8
 -16400121.96947 -13071796.16945  21898718.8984   21898711.3094
        45.5004         33.0004
  -6493720.87046  -5048797.24845  24521459.3984   24521456.1294
        38.7504         32.5004
 -16070109.93347 -12500920.20847  22118567.5004   22118562.3444
        45.0004         45.2504
 -27396994.70048 -21327448.19749  20341631.3524   20341626.0394
        50.0004         54.0004
 -25635467.24547 -19961752.76046  20795871.8204   20795865.6804
        46.5004         37.5004
  -1064266.85946   -942499.72444  24740883.9384   24740880.5394
        36.2504         29.2504
 -17921373.93147 -13908212.97147  22200139.3914   22200131.7464
        46.2504         46.0004
 -12556089.06847  -9765162.12247  22578566.7894   22578562.0474
        44.0004         42.0004
 20  5  3  2 18  0.0000000  0  9G16G30G27G 9G 4G26G 7G 3G 8
 -16312728.93147 -13003697.71245  21915349.7664   21915341.8914
        45.2504         33.0004
  -6577845.84746  -5114349.14845  24505451.4694   24505447.5594
        39.0004         32.0004
 -16107007.01547 -12529671.17347  22111545.6954   22111541.0044
        45.5004         45.2504
 -27412415.10148 -21339464.10349  20338697.1564   20338691.7624
        50.5004         54.0004
 -25582484.69847 -19920467.68346  20805953.5554   20805947.6374
        46.2504         38.0004
   -958155.35245   -859815.44344  24761075.7424   24761072.0744
        34.7504         27.2504
 -17980596.32947 -13954360.29747  22188869.4924   22188861.7034
        46.0004         45.5004
                                  25410315.930
        40.250
 -12640752.88147  -9831133.88947  22562455.6724   22562451.2774
        43.2504         42.2504
 20  5  3  2 18 30.0000000  0  9G16G30G27G 9G 4G26G 7G 3G 8
 -16225007.61347 -12935343.45745  21932042.0004   21932034.0864
        45.2504         32.2504
  -6661929.81446  -5179869.11345  24489451.3834   24489447.4844
        40.2504         34.2504
 -16143319.08347 -12557966.27947  22104636.1724   22104630.9024
        45.0004         45.2504
 -27427316.28548 -21351075.42249  20335861.4384   20335855.9144
        51.0004         54.0004
 -25529044.24047 -19878825.77746  20816122.9844   20816117.1564
        46.0004         37.5004
   -852013.66546   -777107.77844  24781274.3524   24781272.4534
        36.0004         29.0004
 -18039692.37247 -14000409.15447  22177623.9384   22177616.0044
        46.2504         45.7504
                                  25430368.8674   25430367.6804
        39.0004         25.2504
 -12725085.92847  -9896847.92247  22546407.7194   22546403.2774
        44.5004         42.2504
 20  5  3  2 19  0.0000000  0  9G16G30G27G 9G 4G26G 7G 3G 8
 -16136965.75947 -12866739.42845  21948795.9844   21948788.1644
        45.0004         31.7504
  -6745977.26146  -5245360.58645  24473458.1954   24473453.7624
        40.0004         33.2504
 -16179049.01647 -12585807.77447  22097836.7894   22097832.0744
        45.5004         45.2504
 -27441701.84248 -21362284.95549  20333123.7114   20333118.3204
        50.7504         54.0004
 -25475151.34547 -19836831.33546  20826378.5234   20826373.1294
        46.0004         38.0004
   -745848.63245   -694381.77344  24801475.5554   24801474.7114
        33.0004         29.0004
 -18098666.03347 -14046362.64347  22166401.6484   22166394.1564
        46.2504         46.0004
    429799.36046  20413771.73553  25450397.6884   25450396.2114
        37.5004         23.2504
 -12809090.08147  -9962305.68847  22530422.3754   22530418.0274
        44.7504         42.5004
 20  5  3  2 19 30.0000000  0  9G16G30G27G 9G 4G26G 7G 3G 8
 -16048596.58247 -12797880.35045  21965612.2194   21965603.9734
        45.0004         31.7504
  -6829978.42946  -5310816.03545  24457471.9224   24457468.6524
        38.2504         33.0004
 -16214185.39247 -12613186.75147  22091150.3284   22091145.5394
        45.0004         45.2504
 -27455561.11248 -21373084.39249  20330486.5084   20330481.0704
        50.0004         54.0004
 -25420797.26947 -19794477.52846  20836721.5394   20836716.0204
        46.0004         38.2504
   -639652.57446   -611631.54844  24821686.1484   24821680.8054
        37.5004         28.7504
 -18157507.48647 -14092213.11947  22155204.0704   22155197.0984
        45.7504         45.7504
    534927.03055  20476557.47554  25470400.8284   25470400.2384
        33.2504         28.0004
 -12892752.62047 -10027497.26547  22514501.2814   22514497.8324
        44.5004         42.5004
 20  5  3  2 20  0.0000000  0  9G16G30G27G 9G 4G26G 7G 3G 8
 -15959907.72147 -12728772.16145  21982489.0554   21982481.2114
        45.2504         32.7504
  -6913937.49446  -5376238.64845  24441495.1414   24441491.7664
        38.2504         31.7504
 -16248731.00047 -12640105.40147  22084576.9064   22084572.0164
        45.2504         45.5004
 -27468897.47748 -21383476.37749  20327948.8134   20327943.1844
        50.0004         54.0004
 -25365987.33647 -19751768.50746  20847151.8054   20847146.3014
        45.7504         37.7504
   -533431.89146   -528862.30144  24841898.1884   24841895.4384
        36.5004         29.5004
 -18216221.02447 -14137963.91747  22144031.3054   22144024.0394
        46.0004         46.0004
    639921.74045  20558371.56844  25490379.6804   25490378.4844
        32.7504         25.5004
 -12976074.95447 -10092423.74147  22498645.3834   22498642.0944
        44.5004         42.5004
 20  5  3  2 20 30.0000000  0  9G16G30G27G 9G 4G26G 7G 3G 8
 -15870901.88547 -12659416.97345  21999426.1414   21999418.3364
        45.0004         31.5004
  -6997854.69946  -5441628.61645  24425526.9454   24425523.3594
        39.5004         32.5004
 -16282684.53347 -12666562.68547  22078114.9384   22078110.7734
        45.2504         45.5004
 -27481710.32248 -21393460.42249  20325510.4224   20325505.2464
        49.7504         54.0004
 -25310722.85047 -19708705.28546  20857668.4534   20857662.1884
        45.7504         37.2504
   -427188.93346   -446075.58045  24862116.1884   24862112.2034
        36.2504         30.0004
 -18274806.62747 -14183615.02147  22132882.8674   22132876.0204
        46.0004         46.0004
    744780.52546  20640079.75745  25510335.9064   25510331.9534
        38.2504         30.7504
 -13059054.51347 -10157083.11847  22482855.1414   22482852.2154
        44.5004         42.7504
 20  5  3  2 21  0.0000000  0  9G16G30G27G 9G 4G26G 7G 3G 8
 -15781582.42147 -12589817.41445  22016423.3754   22016415.5084
        45.2504         32.2504
  -7081729.55346  -5506985.62745  24409563.8524   24409561.7234
        37.5004         33.2504
 -16316043.91747 -12692557.00047  22071767.4384   22071762.7854
        45.7504         45.7504
 -27493998.22548 -21403035.42049  20323172.3984   20323166.9414
        50.0004         54.0004
 -25255004.31447 -19665288.26546  20868271.0554   20868265.3014
        46.0004         37.5004
   -320925.29346   -363272.80044  24882337.6484   24882333.0864
        36.5004         28.0004
 -18333263.73147 -14229166.00547  22121759.0234   22121751.7774
        46.0004         46.0004
    849501.24546  20721680.41144  25530262.6484   25530259.1644
        37.5004         25.5004
 -13141687.94447 -10221472.76047  22467130.8914   22467126.8134
        44.2504         42.7504
 20  5  3  2 21 30.0000000  0  9G16G30G27G 9G 4G26G 7G 3G 8
 -15691952.18847 -12519975.69345  22033479.6724   22033471.7934
        45.0004         32.5004
  -7165562.09146  -5572309.63245  24393612.4064   24393609.1804
        39.0004         33.5004
 -16348807.88647 -12718087.34847  22065532.7274   22065528.0984
        45.0004         45.7504
 -27505760.55048 -21412200.87749  20320934.1954   20320928.6374
        50.0004         54.0004
 -25198833.05247 -19621518.46346  20878960.5554   20878954.5904
        45.7504         37.0004
   -214643.27445   -280455.66445  24902560.3674   24902560.2304
        33.2504         30.0004
 -18391592.43747 -14274616.93247  22110660.0234   22110652.7344
        46.5004         46.5004
    954081.12246  20803171.19044  25550162.6884   25550159.8444
        37.0004         28.7504
 -13223972.23347 -10285590.38547  22451471.9924   22451469.0314
        45.0004         42.5004
 20  5  3  2 22  0.0000000  0  8G16G30G27G 9G 4G26G 7G 8
 -15602007.57547 -12449889.01045  22050595.1334   22050587.8794
        44.7504         31.5004
  -7249345.15346  -5637595.10545  24377668.5394   24377665.7734
        39.2504         34.0004
 -16380967.80047 -12743147.01147  22059412.6884   22059408.1524
        45.0004         46.0004
 -27516989.24148 -21420950.51649  20318797.3284   20318791.6094
        50.2504         54.0004
 -25142202.87847 -19577391.07646  20889736.5234   20889730.6524
        45.7504         37.0004
   -108337.65046   -197620.11645  24922791.5394   24922789.2234
        36.0004         30.5004
 -18449785.40047 -14319962.08547  22099585.9224   22099578.6524
        46.2504         46.2504
 -13305897.55047 -10349428.29347  22435882.3284   22435878.4844
        45.2504         42.5004
 20  5  3  2 22 30.0000000  0  8G16G30G27G 9G 4G26G 7G 8
 -15511763.53447 -12379568.99545  22067767.8674   22067760.4614
        44.5004         31.5004
  -7333090.82646  -5702851.43145  24361733.3754   24361729.5274
        40.0004         33.0004
 -16412534.38747 -12767744.34247  22053406.2974   22053401.1024
        45.0004         45.5004
 -27527695.70248 -21429293.22949  20316759.5394   20316754.6334
        50.0004         54.2504
 -25085127.17047 -19532916.51946  20900597.6094   20900592.2034
        45.7504         37.5004
     -2022.78146   -114777.39444  24943022.9844   24943018.3674
        37.0004         28.0004
 -18507854.80347 -14365210.96547  22088535.5634   22088528.2624
        46.0004         46.5004
 -13387473.57947 -10412994.00347  22420358.6024   22420355.4694
        45.0004         42.5004
 20  5  3  2 23  0.0000000  0  9G16G30G27G 5G 9G 4G26G 7G 8
 -15421216.33747 -12309012.75945  22084998.6254   22084991.2114
        44.5004         31.5004
  -7416792.42246  -5768073.42645  24345805.2584   24345801.3134
        40.2504         33.7504
 -16443499.54947 -12791873.03447  22047513.4224   22047508.3364
        44.5004         45.5004
   -313441.92856   -236557.25055  25102441.8054   25102434.9964
        38.2504         31.0004
 -27537872.49648 -21437223.20949  20314823.3754   20314817.9384
        50.7504         54.2504
 -25027600.33847 -19488090.43446  20911545.0944   20911538.9694
        45.5004         37.2504
    104306.09846    -31923.80245  24963256.3444   24963254.0554
        36.2504         30.5004
 -18565793.83547 -14410358.25647  22077510.2344   22077502.6644
        46.0004         46.2504
 -13468690.48447 -10476279.88647  22404903.7114   22404899.8794
        44.5004         42.5004
 20  5  3  2 23 30.0000000  0  9G16G30G27G 5G 9G 4G26G 7G 8
 -15330370.74347 -12238224.00145  22102286.2664   22102278.0204
        44.5004         31.7504
  -7500451.35546  -5833262.19245  24329884.9304   24329881.9264
        40.5004         33.5004
 -16473863.33547 -12815533.11747  22041735.5634   22041730.8714
        45.0004         45.5004
   -374787.43146   -284358.93144  25090767.8204   25090761.5554
        37.7504         28.0004
 -27547520.24048 -21444740.94049  20312987.1804   20312982.0004
        50.0004         54.0004
 -24969624.95647 -19442914.82846  20922577.0084   20922571.2424
        45.5004         37.2504
    210645.23046     50937.87845  24983492.4614   24983489.2934
        38.2504         31.7504
 -18623603.87347 -14455405.02647  22066508.8754   22066501.7734
        46.5004         46.0004
 -13549546.89047 -10539284.84447  22389517.6254   22389514.1994
        45.5004         43.2504
 20  5  3  2 24  0.0000000  0  9G16G30G27G 5G 9G 4G26G 7G 8
 -15239226.89147 -12167202.84145  22119629.9144   22119622.5164
        44.7504         32.0004
  -7584064.61746  -5898415.33545  24313974.7734   24313970.7974
        41.0004         33.2504
 -16503621.52047 -12838721.30247  22036072.5314   22036068.0594
        45.2504         45.5004
   -435683.91846   -331810.78144  25079179.8834   25079173.4574
        36.5004         29.0004
 -27556635.29248 -21451843.59349  20311252.7194   20311247.6134
        49.5004         54.0004
 -24911199.31647 -19397388.36746  20933695.4614   20933689.1804
        45.7504         37.0004
    316995.68145    133808.29144  25003728.6174   25003728.5314
        34.5004         28.5004
 -18681281.77847 -14500348.81347  22055533.4534   22055525.8674
        46.2504         46.2504
 -13630037.15847 -10602004.51547  22374200.6954   22374196.8554
        44.5004         43.2504
 20  5  3  2 24 30.0000000  0  9G16G30G27G 5G 9G 4G26G 7G 8
 -15147789.12047 -12095952.64445  22137030.4454   22137022.4694
        44.7504         32.0004
  -7667633.44046  -5963533.88145  24298071.4694   24298067.5474
        39.5004         33.2504
 -16532773.88247 -12861437.41747  22030525.4064   22030520.3204
        45.2504         46.0004
   -496131.10746   -378912.45945  25067677.0554   25067670.7584
        38.5004         30.2504
 -27565218.13248 -21458531.52949  20309619.6724   20309614.4384
        49.2504         54.0004
 -24852325.78047 -19351512.90846  20944898.5554   20944892.4804
        45.5004         37.0004
    423354.14546    216685.00044  25023970.1024   25023967.2194
        39.7504         27.2504
 -18738828.28347 -14545190.24647  22044582.6024   22044575.5474
        46.2504         46.2504
 -13710159.60547 -10664437.56547  22358953.2664   22358949.9184
        45.5004         43.2504
 20  5  3  2 25  0.0000000  0  9G16G30G27G 5G 9G 4G26G 7G 8
 -15056059.61347 -12024475.12345  22154485.6884   22154478.1724
        44.5004         31.5004
  -7751157.02046  -6028617.15945  24282177.1884   24282173.3594
        39.0004         32.5004
 -16561318.56747 -12883680.02647  22025093.3524   22025088.5044
        45.5004         46.0004
   -556126.82946   -425662.35344  25056260.1024   25056253.7034
        38.7504         29.2504
 -27573267.33648 -21464803.65349  20308087.5554   20308082.6374
        48.7504         54.0004
 -24793004.86347 -19305288.83946  20956186.7424   20956180.8444
        45.5004         37.0004
    529719.30247    299566.90643  25044211.9924   25044206.4804
        42.0004         23.7504
 -18796242.80747 -14589928.82447  22033656.8444   22033649.5164
        46.5004         46.2504
 -13789910.85547 -10726581.37747  22343778.0084   22343774.0634
        45.0004         43.5004
 20  5  3  2 25 30.0000000  0  9G16G30G27G 5G 9G 4G26G 7G 8
 -14964041.65147 -11952772.84045  22171995.8284   22171988.0314
        45.0004         31.5004
  -7834635.51546  -6093665.29545  24266292.0004   24266287.6414
        38.7504         33.0004
 -16589254.40347 -12905448.19547  22019777.6804   22019772.4304
        45.5004         46.0004
   -615669.60546   -472059.33145  25044929.5634   25044922.7384
        38.5004         30.2504
 -27580782.36848 -21470659.53349  20306657.9144   20306652.5634
        48.5004         54.0004
 -24733237.88247 -19258717.18746  20967560.2814   20967554.0594
        45.7504         36.7504
    636089.06046    382452.32943  25064452.5944   25064449.5474
        40.5004         22.5004
 -18853525.36947 -14634564.57347  22022756.7584   22022749.2274
        46.0004         46.5004
 -13869288.16647 -10788433.79447  22328672.5864   22328668.3794
        45.7504         43.5004
 20  5  3  2 26  0.0000000  0  9G16G30G27G 5G 9G 4G26G 7G 8
 -14871738.35647 -11880848.21345  22189561.0084   22189552.8874
        44.7504         30.7504
  -7918068.57546  -6158678.02745  24250414.7894   24250411.1254
        40.5004         33.2504
 -16616579.88847 -12926740.77447  22014577.6024   22014572.4064
        45.5004         46.0004
   -674757.70246   -518102.02145  25033686.2734   25033678.8054
        38.0004         31.7504
 -27587762.32648 -21476098.47949  20305329.6414   20305324.3204
        49.2504         54.0004
 -24673025.88347 -19211798.76246  20979017.8284   20979012.1414
        45.5004         37.0004
    742461.38046    465339.93143  25084694.4064   25084691.5314
        38.7504         19.5004
 -18910675.59347 -14679097.20547  22011881.6334   22011873.9694
        46.2504         46.7504
 -13948288.79547 -10849992.71147  22313638.9924   22313635.5664
        44.5004         43.7504
 20  5  3  2 26 30.0000000  0  9G16G30G27G 5G 9G 4G26G 7G 8
 -14779152.16147 -11808703.14745  22207179.8834   22207171.6724
        44.5004         31.5004
  -8001455.69146  -6223654.97245  24234548.1884   24234543.2934
        41.0004         33.7504
 -16643293.30547 -12947556.41847  22009493.8674   22009488.8484
        46.0004         46.0004
   -733388.79846   -563788.60845  25022529.0394   25022522.3404
        38.7504         31.7504
 -27594206.01848 -21481119.55349  20304103.6724   20304098.2384
        50.0004         54.0004
 -24612369.52747 -19164534.08946  20990560.6724   20990555.0084
        45.5004         37.0004
    848834.92245    548228.37742  25104935.7734   25104933.5784
        31.0004         17.2504
 -18967693.08647 -14723526.41147  22001031.0944   22001023.5474
        46.7504         47.0004
 -14026909.20047 -10911255.33847  22298678.5784   22298674.2304
        45.0004         43.7504
 20  5  3  2 27  0.0000000  0  9G16G30G27G 5G 9G 4G26G 7G 8
 -14686285.90247 -11736339.83545  22224851.2894   22224843.6764
        44.5004         30.7504
  -8084796.46146  -6288595.80345  24218687.8364   24218684.1214
        40.2504         34.2504
 -16669393.20847 -12967894.00347  22004527.4064   22004522.3554
        45.5004         46.0004
   -791561.20846   -609117.75645  25011458.7894   25011452.0594
        38.2504         31.5004
 -27600112.53548 -21485722.05249  20302979.8524   20302974.0634
        50.2504         54.0004
 -24551269.89647 -19116924.00546  21002187.6564   21002181.7424
        46.0004         37.2504
  23011088.21556  17793012.60153  25125179.0164   25125173.8554
        37.7504         19.2504
 -19024576.91747 -14767851.45647  21990206.8364   21990199.3324
        47.0004         47.0004
 -14105146.43247 -10972219.39347  22283790.3984   22283786.4614
        45.2504         44.0004
 20  5  3  2 27 30.0000000  0  9G16G30G27G 5G 9G 4G26G 7G 8
 -14593142.56447 -11663760.62945  22242575.5784   22242567.8914
        44.0004         30.0004
  -8168090.73246  -6353500.40545  24202836.7034   24202834.3594
        39.5004         35.2504
 -16694878.21247 -12987752.43947  21999678.0234   21999673.1644
        45.0004         46.0004
   -849273.34846   -654088.24845  25000476.2114   25000469.8204
        38.2504         30.7504
 -27605481.09548 -21489905.35649  20301958.0234   20301952.5044
        48.5004         54.0004
 -24489728.00347 -19068969.31346  21013898.6024   21013893.1914
        45.7504         37.7504
  23117459.16545  17875898.89943  25145418.3914   25145415.9384
        34.0004         18.2504
 -19081326.77947 -14812072.12747  21979407.3914   21979399.9344
        47.2504         47.0004
 -14182997.37047 -11032882.43047  22268976.2894   22268971.5084
        46.0004         44.0004
 20  5  3  2 28  0.0000000  0  9G16G30G27G 5G 9G 4G26G 7G 8
 -14499724.19247 -11590967.12745  22260353.0394   22260344.7304
        44.2504         30.7504
  -8251337.76546  -6418368.18045  24186996.0004   24186992.4844
        39.2504         34.5004
 -16719746.59547 -13007130.38447  21994945.0084   21994940.7774
        45.2504         46.0004
   -906522.87146   -698698.28045  24989581.8444   24989575.6884
        38.0004         31.2504
 -27610310.44348 -21493668.50049  20301038.9924   20301033.4384
        50.0004         54.0004
 -24427744.57147 -19020670.55546  21025693.6724   21025688.0634
        45.5004         37.2504
  23223826.40345  17958782.53143  25165660.6334   25165658.0274
        35.0004         18.5004
 -19137942.16247 -14856188.00247  21968633.5704   21968626.3754
        46.2504         47.0004
 -14260459.05447 -11093242.15947  22254235.0164   22254231.3324
        46.0004         44.0004
 20  5  3  2 28 30.0000000  0  9G16G30G27G 5G 9G 4G26G 7G 8
 -14406034.17747 -11517961.93945  22278181.4224   22278173.9024
        44.0004         30.0004
  -8334537.50346  -6483199.09745  24171163.0004   24171159.9534
        39.7504         34.5004
 -16743997.20147 -13026026.95147  21990330.7584   21990325.8524
        45.2504         46.2504
   -963308.42346   -742946.75944  24978775.5314   24978769.6454
        37.5004         29.7504
 -27614599.94148 -21497010.97849  20300222.8674   20300217.2424
        49.5004         54.0004
 -24365320.76947 -18972028.66146  21037572.7194   21037566.8094
        45.5004         36.7504
  23330188.09246  18041661.65343  25185901.7504   25185897.4184
        39.0004         19.7504
 -19194422.82347 -14900198.88747  21957885.7814   21957878.5124
        46.2504         47.0004
 -14337528.32147 -11153296.11547  22239569.5864   22239565.6094
        45.0004         44.0004
 20  5  3  2 29  0.0000000  0  9G16G30G27G 5G 9G 4G26G 7G 8
 -14312076.78047 -11444748.39645  22296061.2344   22296053.6844
        44.5004         31.0004
  -8417691.02746  -6547994.02245  24155339.9534   24155336.5824
        39.0004         34.7504
 -16767630.17447 -13044442.24047  21985833.4694   21985828.6024
        45.0004         46.0004
  -1019629.78746   -786833.52345  24968057.9304   24968052.6334
        37.5004         31.2504
 -27618350.27248 -21499933.32649  20299508.9144   20299503.5704
        50.0004         54.0004
 -24302459.20247 -18923045.64646  21049534.9384   21049528.5314
        46.2504         37.5004
   -691353.87216                  25206140.352
        41.500
 -19250769.74347 -14944105.57247  21947163.6484   21947156.0474
        46.5004         47.0004
 -14414203.74547 -11213043.16947  22224978.7584   22224974.3594
        45.0004         44.0004
 20  5  3  2 29 30.0000000  0  9G16G30G27G 5G 9G 4G26G 7G 8
 -14217850.29647 -11371325.19745  22313991.9774   22313983.9924
        44.5004         30.5004
  -8500793.75146  -6612749.34745  24139526.4534   24139522.1684
        38.5004         34.0004
 -16790639.88547 -13062371.87347  21981454.8594   21981450.0124
        45.2504         46.2504
  -1075480.53846   -830353.60745  24957430.7344   24957424.8014
        38.2504         31.0004
 -27621556.34348 -21502431.57749  20298898.8364   20298893.4104
        49.0004         54.0004
 -24239156.63047 -18873718.97946  21061581.1644   21061574.9804
        46.0004         37.2504
   -585007.028 5                  25226375.734
        35.000
 -19306978.21047 -14987904.36447  21936467.0784   21936460.0984
        46.5004         46.7504
 -14490478.65747 -11272478.14247  22210463.9144   22210460.3484
        46.0004         44.2504
 20  5  3  2 30  0.0000000  0  9G16G30G27G 5G 9G 4G26G 7G 8
 -14123361.70547 -11297697.74845  22331972.8594   22331964.6564
        44.7504         30.7504
  -8583849.20346  -6677467.85945  24123721.0944   24123717.4344
        38.7504         34.0004
 -16813029.03247 -13079817.95547  21977194.3364   21977189.3794
        45.0004         46.0004
  -1130863.19246   -873508.95445  24946891.2584   24946885.2774
        37.5004         30.0004
 -27624221.25748 -21504508.14849  20298391.6334   20298386.4614
        48.5004         54.0004
 -24175418.06947 -18824052.59446  21073710.0234   21073704.0554
        46.0004         36.5004
   -478671.96045  18166294.20053  25246608.6804   25246609.2774
        31.7504         18.5004
 -19363051.87047 -15031598.11147  21925796.6094   21925789.5354
        46.5004         46.7504
 -14566353.76247 -11331601.59047  22196025.2034   22196021.3244
        45.7504         44.5004
 20  5  3  2 30 30.0000000  0  9G16G30G27G 5G 9G 4G26G 7G 8
 -14028612.03847 -11223866.85745  22350002.8364   22349995.1024
        45.5004         30.2504
  -8666856.10346  -6742148.52545  24107925.4064   24107922.0164
        39.0004         33.7504
 -16834795.22647 -13096778.62247  21973052.3524   21973047.1294
        46.2504         46.0004
  -1185774.98046   -916297.35844  24936442.5234   24936435.2894
        38.0004         29.5004
 -27626343.19348 -21506161.61149  20297987.8134   20297982.6994
        49.5004         54.0004
 -24111243.54547 -18774046.48946  21085922.2114   21085915.5944
        46.5004         36.5004
   -372349.00646  18249143.19943  25266844.3134   25266841.2154
        39.0004         18.5004
 -19418989.06647 -15075185.52347  21915152.2114   21915144.7544
        47.0004         47.0004
 -14641824.58347 -11390409.99447  22181663.7814   22181659.8404
        45.2504         44.5004
 20  5  3  2 31  0.0000000  0  9G16G30G27G 5G 9G 4G26G 7G 8
 -13933604.82947 -11149835.29745  22368081.9694   22368074.0704
        45.0004         30.5004
  -8749813.90846  -6806790.93745  24092138.8984   24092135.0784
        39.7504         34.0004
 -16855937.16747 -13113252.85547  21969029.1954   21969024.1914
        46.5004         46.0004
  -1240214.06246   -958717.41845  24926083.1484   24926076.7384
        38.2504         31.0004
 -27627921.25848 -21507391.29649  20297687.3204   20297682.1954
        48.2504         54.0004
 -24046634.07447 -18723701.46946  21098217.1724   21098210.9454
        46.0004         36.5004
   -266040.14345  18331981.21543  25287072.6484   25287070.9614
        32.7504         18.2504
 -19474788.89447 -15118665.90847  21904533.9454   21904526.4384
        47.0004         47.0004
 -14716888.46147 -11448901.30747  22167380.2504   22167375.7504
        45.5004         44.7504
 20  5  3  2 31 30.0000000  0  8G16G30G27G 5G 9G 4G 7G 8
 -13838342.01747 -11075604.55544  22386209.9774   22386202.2584
        44.2504         29.7504
  -8832721.63046  -6871394.33145  24076362.7814   24076358.3204
        40.0004         34.5004
 -16876452.99047 -13129239.20747  21965125.1414   21965119.9494
        46.7504         46.0004
  -1294177.90846  -1000767.17545  24915814.0554   24915807.6884
        38.2504         31.0004
 -27628954.08848 -21508196.10849  20297491.3284   20297486.0824
        48.2504         54.0004
 -23981590.13247 -18673017.89646  21110593.8134   21110588.4384
        46.5004         36.5004
 -19530450.46447 -15162038.54947  21893942.2504   21893934.4304
        47.2504         47.0004
 -14791541.83147 -11507072.76047  22153173.1564   22153169.3914
        45.7504         44.7504
 20  5  3  2 32  0.0000000  0  8G16G30G27G 5G 9G 4G 7G 8
 -13742827.46247 -11001177.65544  22404385.2664   22404377.5824
        43.7504         29.2504
  -8915580.30846  -6935959.50645  24060594.9924   24060591.0704
        40.2504         35.0004
 -16896342.85747 -13144737.80347  21961340.4614   21961335.2774
        47.0004         46.0004
  -1347666.36246  -1042446.51244  24905634.9614   24905629.0784
        37.7504         29.7504
 -27629442.33848 -21508576.57849  20297398.3834   20297393.1174
        49.7504         54.0004
 -23916114.21247 -18621997.73146  21123053.8674   21123048.0664
        46.5004         36.0004
 -19585974.77047 -15205304.23547  21883375.7274   21883368.1294
        47.0004         47.0004
 -14865782.96047 -11564922.96847  22139045.3284   22139041.8094
        45.5004         44.5004
 20  5  3  2 32 30.0000000  0  8G16G30G27G 5G 9G 4G 7G 8
 -13647062.95747 -10926555.98244  22422609.0864   22422601.7814
        44.5004         29.7504
  -8998388.55446  -7000485.38345  24044836.7344   24044833.2074
        39.7504         35.2504
 -16915604.64847 -13159746.98447  21957675.0864   21957669.9534
        47.5004         46.2504
  -1400677.20146  -1083753.66944  24895547.4924   24895541.4884
        37.5004         29.7504
 -27629384.29348 -21508531.36049  20297409.3204   20297404.1954
        50.2504         54.0004
 -23850206.47047 -18570641.07046  21135595.6804   21135589.8284
        46.0004         36.0004
 -19641360.20847 -15248461.73447  21872836.6024   21872828.9534
        46.7504         47.0004
 -14939607.88047 -11622448.86347  22124997.9694   22124993.3164
        46.0004         44.5004
 20  5  3  2 33  0.0000000  0  8G16G30G27G 5G 9G 4G 7G 8
 -13551051.75847 -10851742.09844  22440879.8054   22440871.9144
        44.5004         29.0004
  -9081146.31646  -7064971.92645  24029087.7664   24029085.0354
        39.0004         35.2504
 -16934237.55147 -13174266.12647  21954129.1954   21954124.0474
        47.2504         46.2504
  -1453208.68646  -1124687.27644  24885552.1254   24885544.7974
        36.7504         29.7504
 -27628779.59848 -21508060.17849  20297524.5474   20297519.1914
        49.5004         54.0004
 -23783868.36747 -18518949.07346  21148219.9144   21148213.7544
        46.7504         37.0004
 -19696606.63347 -15291510.88247  21862323.5234   21862315.7464
        46.5004         47.0004
 -15013014.13647 -11679648.53347  22111028.8524   22111024.5634
        45.5004         44.7504
 20  5  3  2 33 30.0000000  0  8G16G30G27G 5G 9G 4G 7G 8
 -13454796.58647 -10776738.08944  22459196.1564   22459188.7344
        43.7504         28.5004
  -9163853.19046  -7129418.78845  24013350.4924   24013346.4384
        39.7504         35.7504
 -16952240.39047 -13188294.31447  21950703.1024   21950698.1844
        47.2504         46.2504
  -1505259.36646  -1165246.27244  24875646.0474   24875639.5904
        36.7504         27.5004
 -27627627.52648 -21507162.47449  20297743.5164   20297738.2584
        48.7504         54.0004
 -23717101.05547 -18466922.62646  21160925.0864   21160919.3554
        46.0004         36.5004
 -19751713.52647 -15334451.28747  21851836.9304   21851829.9844
        46.2504         47.2504
 -15085998.67847 -11736519.60047  22097140.0394   22097136.1804
        46.0004         44.5004
 20  5  3  2 34  0.0000000  0  8G16G30G27G 5G 9G 4G 7G 8
 -13358299.53747 -10701545.59444  22477559.4534   22477551.1374
        44.5004         29.5004
  -9246508.37246  -7193825.38545  23997621.5474   23997617.6604
        39.5004         35.0004
 -16969611.69947 -13201830.39647  21947397.8284   21947392.3984
        47.2504         46.2504
  -1556827.13846  -1205428.93544  24865833.3834   24865826.3554
        37.7504         28.2504
 -27625926.98048 -21505837.38749  20298067.6174   20298062.1884
        48.5004         54.0004
 -23649905.27447 -18414562.30746  21173711.8054   21173705.9184
        46.5004         36.5004
 -19806679.92247 -15377282.23547  21841376.5474   21841369.8164
        46.0004         47.0004
 -15158558.78647 -11793059.92047  22083332.7194   22083328.3204
        46.2504         45.0004
 20  5  3  2 34 30.0000000  0  8G16G30G27G 5G 9G 4G 7G 8
 -13261564.02247 -10626167.28744  22495967.3754   22495959.5474
        44.2504         28.5004
  -9329112.15046  -7258191.92645  23981901.6334   23981898.3324
        39.5004         35.0004
 -16986350.99047 -13214873.98747  21944212.1174   21944207.3914
        47.2504         46.5004
  -1607910.80946  -1245234.41744  24856111.6484   24856105.7074
        36.5004         27.7504
 -27623677.98248 -21504084.93249  20298495.2114   20298489.8484
        49.0004         54.0004
 -23582282.83747 -18361869.51846  21186580.0554   21186573.9104
        45.7504         36.2504
 -19861505.98347 -15420003.82647  21830943.7974   21830936.5554
        46.2504         47.2504
 -15230691.57547 -11849267.27847  22069605.3834   22069601.9344
        46.2504         45.2504
 20  5  3  2 35  0.0000000  0  8G16G30G27G 5G 9G 4G 7G 8
 -13164592.33947 -10550604.96144  22514420.7894   22514412.6094
        44.0004         28.5004
  -9411663.78046  -7322517.84045  23966193.0394   23966189.1844
        40.0004         35.7504
 -17002457.08647 -13227424.18647  21941147.7274   21941142.1764
        47.2504         46.2504
  -1658509.20046  -1284661.74244  24846483.8984   24846477.2234
        37.7504         28.5004
 -27620879.65248 -21501904.42749  20299027.8364   20299022.4184
        48.5004         54.0004
 -23514234.74547 -18308845.05546  21199529.2974   21199523.4694
        45.7504         36.0004
 -19916190.89747 -15462615.43947  21820537.9224   21820530.5704
        46.2504         47.5004
 -15302394.19247 -11905139.43547  22055961.4224   22055957.4494
        46.0004         45.7504
 20  5  3  2 35 30.0000000  0  8G16G30G27G 5G 9G 4G 7G 8
 -13067387.15347 -10474860.68244  22532918.1954   22532909.6804
        44.0004         28.5004
  -9494163.04446  -7386802.95345  23950493.7034   23950490.2894
        39.5004         35.5004
 -17017928.99047 -13239480.22347  21938203.2344   21938198.1644
        47.0004         46.5004
  -1708620.68946  -1323709.68144  24836947.6954   24836941.3794
        37.5004         28.5004
 -27617531.46748 -21499295.46849  20299664.7664   20299659.2504
        48.2504         54.0004
 -23445762.28647 -18255489.92346  21212559.2274   21212553.0004
        46.5004         36.5004
 -19970734.30547 -15505116.80547  21810158.5784   21810151.1134
        46.5004         47.5004
 -15373663.91247 -11960674.26647  22042398.9454   22042395.2384
        45.7504         45.5004
 20  5  3  2 36  0.0000000  0  8G16G30G27G 5G 9G 4G 7G 8
 -12969951.24347 -10398936.60944  22551459.5784   22551451.3524
        43.2504         29.0004
  -9576609.08846  -7451046.58145  23934805.7114   23934800.6954
        40.0004         35.2504
 -17032765.35847 -13251041.02547  21935380.0394   21935374.7424
        47.2504         46.5004
  -1758243.17246  -1362376.50744  24827505.3594   24827498.4184
        37.5004         28.5004
 -27613632.45248 -21496257.28149  20300406.8524   20300401.7774
        49.0004         54.0004
 -23376866.26347 -18201804.73245  21225669.7584   21225663.6914
        46.5004         35.5004
 -20025135.26947 -15547507.14847  21799806.7584   21799799.3404
        46.5004         47.5004
 -15444497.52847 -12015869.28447  22028920.2344   22028916.1994
        46.2504         45.2504
 20  5  3  2 36 30.0000000  0  8G16G30G27G 5G 9G 4G 7G 8
 -12872287.98047 -10322835.39444  22570044.1174   22570036.1804
        43.0004         28.7504
  -9659002.44846  -7515249.17445  23919125.1724   23919121.7154
        39.7504         35.2504
 -17046966.23147 -13262106.63447  21932677.8134   21932672.6484
        47.0004         46.2504
  -1807375.61046  -1400661.51544  24818155.5004   24818149.0124
        39.0004         29.2504
 -27609182.95848 -21492790.16049  20301253.5314   20301248.2814
        49.0004         54.0004
 -23307548.86747 -18147791.20046  21238860.3364   21238854.3134
        46.5004         36.5004
 -20079394.08847 -15589786.74347  21789481.1024   21789474.0704
        46.7504         47.7504
 -15514892.84647 -12070722.76547  22015524.2734   22015519.9614
        45.5004         45.2504
 20  5  3  2 37  0.0000000  0  8G16G30G27G 5G 9G 4G 7G 8
 -12774399.14647 -10246558.41344  22588671.7814   22588663.9264
        43.0004         28.5004
  -9741341.74546  -7579409.64045  23903457.0314   23903453.7344
        39.2504         35.7504
 -17060529.61147 -13272675.49547  21930096.6174   21930091.4104
        46.5004         46.5004
  -1856015.88046  -1438563.03845  24808900.1954   24808893.3524
        39.5004         30.2504
 -27604181.46448 -21488892.90449  20302205.4224   20302200.0944
        48.0004         54.0004
 -23237810.36147 -18093449.52946  21252131.4304   21252125.4024
        47.0004         36.5004
 -20133509.17247 -15631954.32947  21779184.0784   21779176.0554
        46.7504         47.7504
 -15584845.99147 -12125231.70747  22002212.8834   22002208.8484
        45.5004         45.5004
 20  5  3  2 37 30.0000000  0  8G16G30G27G 5G 9G 4G 7G 8
 -12676287.59847 -10170107.87844  22607341.3054   22607333.9144
        43.2504         28.5004
  -9823626.86246  -7643527.86945  23887798.8444   23887794.5164
        40.2504         35.2504
 -17073455.01047 -13282747.23247  21927636.9774   21927631.8634
        47.0004         46.5004
  -1904163.11046  -1476080.36144  24799737.9064   24799730.8014
        39.0004         29.5004
 -27598627.76748 -21484565.36449  20303262.0784   20303256.6954
        48.5004         54.0004
 -23167652.32747 -18038780.95746  21265481.6724   21265476.1254
        45.5004         36.0004
 -20187480.44047 -15674009.85847  21768913.3134   21768905.7344
        46.2504         47.5004
 -15654354.79247 -12179394.39847  21988985.5864   21988981.2424
        45.0004         45.0004
 20  5  3  2 38  0.0000000  0  8G16G30G27G 5G 9G 4G 7G 8
 -12577956.96447 -10093486.63344  22626053.4454   22626045.4884
        43.2504         28.5004
  -9905857.83746  -7707603.92845  23872150.8754   23872147.3134
        40.0004         35.5004
 -17085741.91347 -13292321.44247  21925298.4844   21925293.3834
        46.2504         46.5004
  -1951815.68846  -1513212.24144  24790669.7974   24790663.0554
        39.0004         29.5004
 -27592521.70248 -21479807.41049  20304424.1954   20304418.9884
        48.2504         54.0004
 -23097076.47047 -17983786.81546  21278911.8594   21278906.3444
        46.7504         36.0004
 -20241307.47547 -15715953.00247  21758670.2424   21758662.6414
        46.5004         47.5004
 -15723416.89147 -12233209.01747  21975843.1884   21975839.3714
        45.5004         45.5004
