     2.11           OBSERVATION DATA    G (GPS)             RINEX VERSION / TYPE
teqc  2008Oct2                          20220511 04:15:50UTCPGM / RUN BY / DATE
MSXP|IAx86-PII|bcc32 5.0|MSWin95->XP|486/DX+                COMMENT
BIT 2 OF LLI FLAGS DATA COLLECTED UNDER A/S CONDITION       COMMENT
NtRSkaza                                                    MARKER NAME
kaza                                                        MARKER NUMBER
-Unknown-           -Unknown-                               OBSERVER / AGENCY
4752143407          TRIMBLE NETRS       NP 1.32 / SP 0.00   REC # / TYPE / VERS
30895097            TRM55971.00                             ANT # / TYPE
  1325807.4672  4606495.9092  4195524.6291                  APPROX POSITION XYZ
        0.1705        0.0000        0.0000                  ANTENNA: DELTA H/E/N
     1     1                                                WAVELENGTH FACT L1/2
     7    L1    L2    C1    P2    P1    S1    S2            # / TYPES OF OBSERV
 SNR is mapped to RINEX snr flag value [0-9]                COMMENT
  L1 & L2: min(max(int(snr_dBHz/6), 0), 9)                  COMMENT
  2020     5     4     0     0    0.0000000     GPS         TIME OF FIRST OBS
                                                            END OF HEADER
 20  5  4  0  0  0.0000000  0  9G16G 6G 9G 4G22G31G 3G26G14
 -20000704.23747 -15864749.95946  21067932.8284   21067924.5554
        46.5004         37.2504
   -935827.87546   -730469.02445  25154232.5084   25154227.1484
        37.2504         30.2504
  -9567050.89646  -7431070.20846  23586305.7504   23586301.2544
        40.5004         37.5004
 -23406744.99547 -18214146.95346  21080233.1334   21080226.2934
        46.5004         36.5004
 -18728863.98547 -14583248.80545  22156840.4774   22156830.3324
        47.5004         35.5004
 -10601313.31147  -8137329.33446  23011396.7114   23011388.0984
        45.0004         40.5004
 -23865391.17748 -18580706.27448  20849924.9774   20849919.8444
        49.0004         51.7504
 -20428849.32148 -15883156.13148  20951934.2194   20951929.5664
        49.0004         50.0004
  -5577271.58746  -4172475.00543  24115048.7584   24115041.7974
        37.0004         21.2504
 20  5  4  0  0 30.0000000  0  9G16G 6G 9G 4G22G31G 3G26G14
 -20066526.19547 -15916039.79946  21055407.2114   21055399.3634
        47.2504         37.5004
   -939657.49346   -733453.15644  25153503.3834   25153498.1294
        37.5004         29.7504
  -9657079.33746  -7501222.23446  23569174.7274   23569170.2424
        41.0004         39.0004
 -23459402.39947 -18255178.70546  21070212.7114   21070205.6484
        46.7504         36.7504
 -18648683.91447 -14520770.83245  22172097.9224   22172087.9414
        47.5004         34.7504
 -10509821.75047  -8066037.23446  23028806.3364   23028798.4654
        43.7504         40.2504
 -23823751.73548 -18548259.95648  20857848.7344   20857843.7974
        48.2504         51.7504
 -20412937.90348 -15870757.62548  20954962.2734   20954957.8714
        48.2504         50.2504
  -5497292.45646  -4110153.60743  24130268.0634   24130260.8834
        40.0004         21.7504
 20  5  4  0  1  0.0000000  0  9G16G 6G 9G 4G22G31G 3G26G14
 -20131793.06447 -15966897.09946  21042987.1334   21042979.4804
        46.7504         37.5004
   -942961.26746   -736027.55645  25152874.9774   25152870.0944
        37.0004         30.5004
  -9747052.52246  -7571331.20146  23552053.3674   23552048.5784
        41.2504         39.5004
 -23511821.37447 -18296024.66046  21060237.5474   21060231.0434
        46.0004         37.0004
 -18568157.57147 -14458023.05045  22187421.7034   22187411.4264
        46.7504         35.2504
 -10418252.95147  -7994684.97946  23046231.0164   23046223.2814
        43.7504         40.0004
 -23781555.48248 -18515379.77848  20865878.4304   20865873.5474
        48.2504         51.7504
 -20396420.10348 -15857886.62248  20958104.8444   20958100.6024
        48.5004         50.2504
  -5417165.82546  -4047717.30043  24145516.2814   24145508.8404
        40.5004         21.5004
 20  5  4  0  1 30.0000000  0  9G16G 6G 9G 4G22G31G 3G26G14
 -20196501.81847 -16017319.52046  21030673.6954   21030665.8794
        47.5004         37.5004
   -945738.98946   -738192.03745  25152346.5554   25152341.8164
        37.2504         30.0004
  -9836968.60946  -7641395.65946  23534943.6644   23534938.1954
        41.2504         40.2504
 -23563999.82847 -18336683.19346  21050308.6094   21050301.3244
        46.5004         36.5004
 -18487287.10147 -14395007.10745  22202810.9224   22202801.0204
        47.0004         34.7504
 -10326607.83147  -7923273.24246  23063671.7974   23063663.3324
        44.0004         40.7504
 -23738802.95448 -18482066.13048  20874013.5164   20874009.0044
        48.5004         51.7504
 -20379295.98548 -15844543.16548  20961363.9694   20961359.4104
        48.7504         50.5004
  -5336891.25246  -3985165.76943  24160791.9144   24160784.5944
        39.0004         19.7504
 20  5  4  0  2  0.0000000  0  9G16G 6G 9G 4G22G31G 3G26G14
 -20260650.10147 -16067305.19646  21018466.8134   21018458.8874
        47.2504         37.2504
   -947991.10046   -739946.95445  25151917.9694   25151913.3204
        37.2504         31.0004
  -9926826.70246  -7711414.94946  23517843.7194   23517838.8444
        41.7504         39.7504
 -23615936.69147 -18377153.48546  21040424.7734   21040418.3364
        47.2504         37.0004
 -18406074.53247 -14331724.59745  22218265.2034   22218255.3324
        46.5004         34.5004
 -10234888.03447  -7851803.31446  23081125.0864   23081117.2544
        45.0004         40.7504
 -23695495.63148 -18448320.17248  20882255.0004   20882250.0634
        48.7504         51.5004
 -20361566.54548 -15830728.03048  20964737.8834   20964733.3444
        48.7504         50.2504
  -5256469.50646  -3922499.52243  24176094.0394   24176088.9844
        37.0004         19.7504
 20  5  4  0  2 30.0000000  0  9G16G 6G 9G 4G22G31G 3G26G14
 -20324236.14847 -16116852.76846  21006366.6804   21006358.3914
        47.0004         36.5004
   -949718.61546   -741293.09045  25151588.5084   25151584.1564
        36.7504         30.7504
 -10016626.01346  -7781388.43546  23500755.5164   23500750.0204
        41.2504         39.0004
 -23667631.07647 -18417434.82246  21030588.1334   21030580.9774
        46.5004         36.5004
 -18324522.81047 -14268177.81045  22233783.9774   22233774.3484
        46.5004         35.5004
 -10143095.29547  -7780276.54646  23098592.5314   23098584.8364
        44.0004         40.5004
 -23651635.37748 -18414143.36348  20890601.3524   20890596.1804
        49.5004         51.5004
 -20343233.18148 -15816442.29948  20968226.6804   20968222.3134
        48.0004         50.2504
  -5175901.34546  -3859719.23743  24191427.0314   24191420.4264
        38.7504         20.0004
 20  5  4  0  3  0.0000000  0  9G16G 6G 9G 4G22G31G 3G26G14
 -20387257.41247 -16165960.26046  20994374.2504   20994366.1094
        46.7504         37.5004
   -950921.87946   -742230.73845  25151360.0554   25151356.2274
        38.0004         32.5004
 -10106365.35046  -7851315.16746  23483678.5944   23483673.1334
        41.2504         39.0004
 -23719081.53047 -18457526.08446  21020797.0704   21020790.3834
        47.0004         36.5004
 -18242634.28547 -14204368.58545  22249366.9534   22249357.3674
        46.0004         35.2504
 -10051231.44147  -7708694.38046  23116073.8524   23116066.1414
        43.5004         40.5004
 -23607223.32048 -18379536.57648  20899052.4384   20899047.9844
        49.2504         51.5004
 -20324296.63848 -15801686.56248  20971830.3444   20971825.3204
        48.0004         50.2504
  -5095186.96046  -3796825.01443  24206786.4774   24206780.0594
        38.5004         20.0004
 20  5  4  0  3 30.0000000  0  9G16G 6G 9G 4G22G31G 3G26G14
 -20449711.26147 -16214625.60746  20982489.8754   20982481.1994
        46.2504         36.5004
   -951601.24346   -742760.17345  25151230.3134   25151227.2034
        36.5004         31.7504
 -10196043.46546  -7921194.20746  23466612.8984   23466607.9614
        40.7504         38.7504
 -23770286.65547 -18497426.17046  21011053.1024   21011046.3914
        46.5004         37.5004
 -18160411.06447 -14140298.56645  22265013.3204   22265003.5124
        46.0004         35.5004
  -9959297.82647  -7637057.85446  23133568.7814   23133560.9024
        44.5004         40.7504
 -23562260.82548 -18344500.88648  20907609.3914   20907603.9884
        48.5004         51.5004
 -20304757.73248 -15786461.44248  20975548.2034   20975543.5634
        48.5004         50.2504
  -5014326.65746  -3733817.04143  24222173.7584   24222167.4304
        39.5004         20.7504
 20  5  4  0  4  0.0000000  0  9G16G 6G 9G 4G22G31G 3G26G14
 -20511596.08047 -16262847.56046  20970713.1174   20970705.3014
        47.0004         37.2504
   -951757.37546   -742881.83945  25151200.2114   25151197.0784
        36.0004         30.7504
 -10285659.23446  -7991024.67346  23449559.7424   23449554.6214
        41.0004         38.5004
 -23821245.20947 -18537134.13446  21001356.0944   21001349.7774
        46.5004         36.7504
 -18077855.48347 -14075969.54745  22280723.1174   22280713.7664
        46.0004         35.0004
  -9867295.97147  -7565368.13746  23151075.1174   23151067.8914
        43.7504         40.0004
 -23516749.29648 -18309037.36848  20916269.1334   20916264.2624
        49.2504         51.2504
 -20284617.50048 -15770767.76648  20979380.6954   20979376.3014
        48.0004         50.2504
  -4933320.53246  -3670695.45543  24237588.8524   24237582.3754
        39.5004         22.0004
 20  5  4  0  4 30.0000000  0  9G16G 6G 9G 4G22G31G 3G26G14
 -20572909.12747 -16310623.97146  20959045.7194   20959037.6214
        47.0004         37.5004
   -951390.70346   -742596.17145  25151271.7504   25151266.7424
        37.2504         31.0004
 -10375211.48246  -8060805.65846  23432518.0394   23432513.6094
        40.2504         39.5004
 -23871955.83447 -18576648.90646  20991705.6024   20991699.6844
        47.0004         37.5004
 -17994969.91447 -14011383.41845  22296495.6644   22296485.9344
        47.0004         34.7504
  -9775227.33647  -7493626.40746  23168596.2734   23168587.9494
        44.0004         40.5004
 -23470690.23748 -18273147.19648  20925033.8284   20925028.9614
        49.0004         51.0004
 -20263876.90548 -15754606.27348  20983327.6954   20983323.2234
        48.5004         50.0004
  -4852169.21046  -3607460.70443  24253031.6024   24253025.4144
        39.2504         20.5004
 20  5  4  0  5  0.0000000  0  9G16G 6G 9G 4G22G31G 3G26G14
 -20633647.68547 -16357952.72546  20947487.7424   20947479.6764
        46.7504         37.5004
   -950501.55845   -741903.35345  25151440.3444   25151435.7384
        35.0004         30.7504
 -10464698.65546  -8130535.89646  23415490.0234   23415484.7624
        41.5004         39.2504
 -23922416.85747 -18615969.18146  20982103.6644   20982097.6454
        46.7504         37.5004
 -17911756.44247 -13946541.76845  22312330.9844   22312320.9024
        45.5004         35.0004
  -9683093.03747  -7421833.47746  23186128.5554   23186120.0984
        43.2504         39.5004
 -23424084.69348 -18236831.21048  20933902.8754   20933897.8674
        49.0004         51.5004
 -20242536.63448 -15737977.50148  20987388.5474   20987384.1374
        48.5004         50.2504
  -4770872.96546  -3544113.05743  24268501.5314   24268495.0474
        37.5004         19.5004
 20  5  4  0  5 30.0000000  0  9G16G 6G 9G 4G22G31G 3G26G14
 -20693809.95447 -16404832.42246  20936039.1954   20936031.3364
        47.2504         37.7504
   -949090.75446   -740804.04545  25151708.1564   25151704.1294
        36.2504         31.5004
 -10554119.86946  -8200214.76546  23398473.1024   23398468.4024
        41.7504         40.0004
 -23972627.20247 -18655094.11846  20972549.3134   20972542.3524
        47.0004         37.5004
 -17828217.68747 -13881446.64745  22328227.7344   22328217.7624
        46.0004         33.7504
  -9590894.82347  -7349990.75346  23203672.8674   23203665.2074
        43.0004         39.5004
 -23376934.38848 -18200090.72548  20942875.2424   20942870.1914
        48.7504         51.2504
 -20220597.92248 -15720882.40648  20991563.3984   20991558.6524
        48.0004         50.2504
  -4689431.87046  -3480652.55342  24283999.2734   24283992.1764
        38.0004         17.2504
 20  5  4  0  6  0.0000000  0  9G16G 6G 9G 4G22G31G 3G26G14
 -20753393.33247 -16451261.03446  20924700.6484   20924692.7074
        47.2504         37.2504
   -947158.49946   -739298.40645  25152076.1334   25152071.9344
        37.0004         32.0004
 -10643473.54047  -8269840.96046  23381470.6884   23381465.0044
        43.0004         40.0004
 -24022585.13347 -18694022.37746  20963042.4304   20963036.1564
        46.7504         37.5004
 -17744355.47147 -13816099.47345  22344185.8134   22344176.2584
        45.7504         33.0004
  -9498633.76447  -7278099.05846  23221229.4924   23221221.4964
        43.0004         39.5004
 -23329240.41548 -18162926.59848  20951951.4924   20951946.1094
        49.2504         51.2504
 -20198061.42848 -15703321.51548  20995852.1254   20995847.6684
        48.7504         50.2504
  -4607846.09245  -3417079.25043  24299523.8914   24299518.3914
        35.5004         18.2504
 20  5  4  0  6 30.0000000  0  9G16G 6G 9G 4G22G31G 3G26G14
 -20812396.26147 -16497237.35846  20913473.1334   20913465.2464
        47.2504         38.0004
   -944705.99646   -737387.38745  25152543.2344   25152538.4884
        36.2504         31.7504
 -10732759.01047  -8339414.04346  23364479.8594   23364474.4264
        42.0004         40.0004
 -24072289.88047 -18732753.35146  20953583.6644   20953577.3484
        46.7504         38.0004
 -17660172.93347 -13750502.71245  22360205.7894   22360195.6604
        45.7504         33.7504
  -9406311.88647  -7206159.99246  23238798.2814   23238790.3244
        44.0004         40.0004
 -23281004.86748 -18125340.47148  20961129.9694   20961124.9964
        48.2504         51.2504
 -20174928.78548 -15685296.09248  21000253.8594   21000249.6174
        48.2504         50.2504
  -4526116.76346  -3353394.19643  24315078.5634   24315070.0314
        37.5004         19.2504
 20  5  4  0  7  0.0000000  0  9G16G 6G 9G 4G22G31G 3G26G14
 -20870816.44147 -16542759.57946  20902356.5164   20902348.2344
        47.5004         37.5004
   -941733.71346   -735071.36045  25153108.7194   25153104.9614
        37.5004         33.0004
 -10821974.81447  -8408932.83946  23347502.4774   23347496.7544
        42.0004         39.2504
 -24121739.89247 -18771285.82946  20944173.9224   20944167.4574
        46.2504         37.7504
 -17575672.29247 -13684658.06645  22376285.7504   22376275.5354
        45.5004         33.7504
  -9313930.35147  -7134174.42846  23256377.6804   23256370.1094
        43.5004         40.0004
 -23232229.04148 -18087333.35048  20970411.6954   20970406.9654
        48.5004         51.0004
 -20151200.89448 -15666806.83048  21004769.3444   21004764.8714
        48.5004         50.2504
  -4444243.91046  -3289597.22943  24330657.9304   24330651.8164
        38.5004         19.0004
 20  5  4  0  7 30.0000000  0  9G16G 6G 9G 4G22G31G 3G26G14
 -20928651.27747 -16587825.69546  20891350.0164   20891342.1334
        47.5004         37.7504
   -938242.05646   -732350.59845  25153773.7034   25153768.8444
        37.5004         32.5004
 -10911119.59346  -8478396.30346  23330538.9304   23330533.1484
        41.5004         39.5004
 -24170933.54447 -18809618.54446  20934812.6254   20934805.7774
        47.2504         37.2504
 -17490855.59647 -13618567.13645  22392425.7894   22392415.5514
        45.5004         34.0004
  -9221490.36947  -7062143.33046  23273968.1724   23273960.8834
        42.7504         39.2504
 -23182914.22848 -18048906.23648  20979795.9144   20979790.9064
        48.5004         51.0004
 -20126878.58948 -15647854.39648  21009397.7504   21009393.1644
        48.5004         50.5004
  -4362227.73046  -3225688.53743  24346264.6414   24346259.1024
        38.2504         22.0004
 20  5  4  0  8  0.0000000  0  9G16G 6G 9G 4G22G31G 3G26G14
 -20985898.98347 -16632434.30246  20880456.9144   20880448.7894
        47.0004         37.5004
   -934232.16346   -729226.03145  25154536.0474   25154532.0944
        37.5004         32.5004
 -11000192.45346  -8547803.74046  23313588.8524   23313583.2384
        41.0004         40.0004
 -24219869.96247 -18847750.82746  20925500.4924   20925493.3094
        46.7504         37.5004
 -17405725.57147 -13552232.06545  22408625.3134   22408615.6374
        45.7504         33.7504
  -9128993.76847  -6990068.11146  23291569.0944   23291562.8954
        42.5004         40.0004
 -23133062.47948 -18010060.73648  20989282.8524   20989277.8134
        48.2504         51.0004
 -20101963.50947 -15628440.05548  21014138.8754   21014134.7034
        47.5004         50.5004
  -4280068.88146  -3161668.72443  24361898.1564   24361892.9104
        36.0004         20.2504
 20  5  4  0  8 30.0000000  0  9G16G 6G 9G 4G22G31G 3G26G14
 -21042556.70247 -16676583.19146  20869674.7114   20869666.9224
        46.5004         37.5004
   -929704.02146   -725697.62545  25155397.7504   25155393.8094
        37.0004         31.7504
 -11089191.44446  -8617153.60846  23296651.8594   23296647.3364
        41.2504         40.0004
 -24268547.00647 -18885680.99346  20916237.7274   20916230.5084
        46.5004         37.5004
 -17320284.27847 -13485654.45245  22424884.4534   22424874.4184
        45.2504         33.5004
  -9036441.31447  -6917949.37846  23309181.9924   23309174.5394
        42.7504         40.0004
 -23082674.56448 -17970797.43548  20998871.3984   20998865.8874
        48.5004         51.0004
 -20076455.95747 -15608564.05948  21018993.0164   21018988.7584
        47.5004         50.5004
  -4197767.13946  -3097537.63843  24377560.1174   24377554.5704
        37.0004         19.7504
 20  5  4  0  9  0.0000000  0  9G16G 6G 9G 4G22G31G 3G26G14
 -21098622.69747 -16720270.98146  20859005.7114   20858997.7774
        47.0004         38.0004
   -924658.58145   -721766.12345  25156357.8914   25156353.8834
        35.7504         31.2504
 -11178115.55546  -8686445.11646  23279730.9534   23279726.2384
        41.0004         40.2504
 -24316963.57347 -18923408.20046  20907023.7974   20907017.5354
        46.7504         37.2504
 -17234534.15247 -13418836.18845  22441202.1174   22441192.4494
        45.2504         35.0004
  -8943834.68847  -6845788.40946  23326804.1804   23326797.1254
        42.7504         39.5004
 -23031752.37048 -17931117.81648  21008561.2504   21008556.4654
        49.0004         51.0004
 -20050357.42448 -15588227.54648  21023959.7194   21023955.0354
        48.0004         50.2504
  -4115323.15846  -3033295.58243  24393248.5864   24393243.2034
        37.5004         19.5004
 20  5  4  0  9 30.0000000  0  9G16G 6G 9G 4G22G31G 3G26G14
 -21154094.82347 -16763496.02946  20848449.8594   20848441.8204
        46.5004         37.5004
   -919096.73045   -717432.23945  25157416.2734   25157412.2034
        35.7504         31.0004
 -11266963.53346  -8755677.28046  23262823.8914   23262818.7734
        41.2504         40.0004
 -24365118.27647 -18960931.35046  20897860.2034   20897853.5434
        46.0004         37.0004
 -17148477.38547 -13351779.00845  22457578.2034   22457568.6994
        46.0004         34.5004
  -8851175.28347  -6773586.34746  23344437.4304   23344429.8404
        43.0004         39.0004
 -22980297.49248 -17891023.12748  21018352.8054   21018347.7664
        48.7504         50.7504
 -20023669.10047 -15567431.45848  21029037.7034   21029033.5744
        47.7504         50.2504
  -4032737.15345  -2968942.94543  24408964.0944   24408959.1134
        35.5004         19.2504
 20  5  4  0 10  0.0000000  0  9G16G 6G 9G 4G22G31G 3G26G14
 -21208970.86447 -16806256.59146  20838006.7974   20837999.5044
        46.5004         37.5004
   -913018.84046   -712696.25245  25158572.8834   25158568.7274
        37.5004         30.0004
 -11355733.86846  -8824848.96846  23245930.7894   23245926.7894
        41.0004         40.5004
 -24413009.52747 -18998249.20246  20888747.2344   20888740.5944
        47.5004         37.2504
 -17062116.69347 -13284484.97145  22474012.1644   22474002.2774
        45.5004         34.2504
  -8758464.42447  -6701344.15646  23362079.3674   23362072.3094
        43.5004         39.0004
 -22928311.36048 -17850514.46948  21028245.1564   21028240.5554
        48.0004         50.7504
 -19996391.99248 -15546176.57648  21034228.7194   21034223.9774
        48.0004         50.2504
  -3950009.33046  -2904479.81243  24424707.5234   24424700.9024
        38.2504         18.5004
 20  5  4  0 10 30.0000000  0  9G16G 6G 9G 4G22G31G 3G26G14
 -21263250.05347 -16848552.06546  20827678.3594   20827670.5704
        47.2504         38.0004
   -906426.93846   -707559.71245  25159827.5164   25159823.4924
        37.5004         31.0004
 -11444426.33646  -8893959.97846  23229053.0394   23229048.3484
        41.5004         40.5004
 -24460636.97247 -19035361.49746  20879683.4304   20879677.2934
        47.0004         36.7504
 -16975455.04047 -13216956.44045  22490502.7504   22490493.3674
        45.0004         33.0004
  -8665704.13847  -6629063.45946  23379731.4614   23379723.6414
        43.0004         38.7504
 -22875796.69648 -17809593.96048  21038238.5554   21038233.8284
        48.2504         50.7504
 -19968528.31747 -15524464.63048  21039530.6334   21039525.9494
        47.0004         50.0004
  -3867141.27946  -2839907.35643  24440476.9774   24440470.6524
        39.5004         19.5004
 20  5  4  0 11  0.0000000  0  9G16G 6G 9G 4G22G31G 3G26G14
 -21316929.47047 -16890380.19246  20817463.5944   20817455.7734
        47.7504         38.2504
   -899320.72246   -702022.42745  25161180.5704   25161175.5554
        38.0004         31.2504
 -11533038.66247  -8963008.54046  23212191.7194   23212186.1134
        42.0004         41.0004
 -24507998.24947 -19072266.39546  20870671.1884   20870664.7504
        47.2504         37.2504
 -16888494.01447 -13149194.61345  22507051.5164   22507041.0594
        45.2504         33.2504
  -8572894.89047  -6556744.60746  23397392.2814   23397384.9104
        43.0004         38.7504
 -22822754.14848 -17768262.12048  21048332.1024   21048327.4414
        48.5004         51.0004
 -19940078.41747 -15502295.88348  21044944.5554   21044940.3714
        47.2504         50.0004
  -3784132.36046  -2775225.10043  24456273.0704   24456266.4804
        36.5004         18.5004
 20  5  4  0 11 30.0000000  0  9G16G 6G 9G 4G22G31G 3G26G14
 -21370007.10047 -16931739.38946  20807363.2814   20807355.3134
        47.7504         38.0004
   -891701.34046   -696085.28345  25162630.4064   25162625.6374
        38.5004         31.5004
 -11621569.78746  -9031993.82946  23195344.3054   23195339.0704
        41.7504         40.5004
 -24555092.20747 -19108962.99046  20861709.7114   20861703.3984
        47.0004         37.5004
 -16801236.44347 -13081201.72545  22523655.5554   22523645.9384
        45.2504         34.0004
  -8480038.21547  -6484388.81946  23415062.6094   23415055.1254
        42.7504         39.0004
 -22769185.69948 -17726520.48748  21058526.4454   21058521.1724
        48.2504         50.7504
 -19911043.79247 -15479671.51248  21050469.4614   21050465.1764
        47.0004         50.0004
  -3700983.18246  -2710433.69443  24472095.1724   24472090.6134
        37.2504         20.5004
 20  5  4  0 12  0.0000000  0  9G16G 6G 9G 4G22G31G 3G26G14
 -21422480.87048 -16972628.04846  20797377.9614   20797369.9264
        48.5004         38.0004
   -883569.56246   -689748.85045  25164177.9454   25164173.1484
        39.5004         30.5004
 -11710018.26847  -9100914.71846  23178513.2974   23178508.7624
        42.0004         41.0004
 -24601917.38847 -19145450.14746  20852798.9384   20852792.4774
        47.5004         37.2504
 -16713684.38847 -13012979.35245  22540316.7734   22540306.5084
        45.2504         33.5004
  -8387135.63847  -6411997.24646  23432741.7664   23432734.2194
        42.7504         39.2504
 -22715092.93647 -17684370.29748  21068819.6334   21068814.8364
        47.5004         50.7504
 -19881425.65047 -15456592.44648  21056105.5944   21056101.1604
        47.2504         50.0004
  -3617694.35546  -2645533.39743  24487945.5084   24487939.3134
        38.5004         20.2504
 20  5  4  0 12 30.0000000  0  9G16G 6G 9G 4G22G31G 3G26G14
 -21474348.49648 -17013044.38146  20787507.7734   20787500.0744
        48.2504         38.2504
   -874925.90245   -683013.52145  25165820.9694   25165817.2854
        35.5004         31.0004
 -11798382.47747  -9169769.92546  23161698.7664   23161693.1914
        42.5004         40.7504
 -24648471.98047 -19181726.45546  20843940.6484   20843933.4804
        47.5004         38.0004
 -16625840.43547 -12944529.53345  22557032.4384   22557022.4924
        45.0004         32.5004
  -8294188.08647  -6339570.64146  23450429.1954   23450421.2234
        42.7504         38.7504
 -22660477.19947 -17641812.58848  21079212.3364   21079207.6294
        47.0004         50.5004
 -19851224.94347 -15433059.43648  21061852.6644   21061848.2734
        47.5004         50.0004
  -3534265.65945  -2580523.92342  24503820.6564   24503815.0124
        33.7504         16.7504
 20  5  4  0 13  0.0000000  0  9G16G 6G 9G 4G22G31G 3G26G14
 -21525607.87347 -17052986.76746  20777753.5004   20777745.4384
        47.5004         38.0004
   -865771.27946   -675880.01945  25167564.0084   25167559.4964
        36.7504         31.5004
 -11886661.01247  -9238558.37046  23144899.5004   23144894.3634
        42.2504         41.2504
 -24694754.56647 -19217790.80946  20835132.6724   20835125.8754
        47.5004         37.5004
 -16537706.94947 -12875854.10745  22573803.9304   22573793.9384
        45.0004         33.5004
  -8201196.85647  -6267109.98146  23468124.4844   23468116.8594
        42.0004         38.0004
 -22605340.22347 -17598848.73148  21089704.8674   21089700.4494
        47.5004         50.5004
 -19820442.96847 -15409073.48448  21067710.1254   21067705.9654
        47.2504         49.7504
  -3450697.37045  -2515405.96942  24519723.6884   24519718.9574
        35.7504         17.2504
 20  5  4  0 13 30.0000000  0  9G16G 6G 9G 4G22G31G 3G26G14
 -21576258.19347 -17092454.54746  20768114.9924   20768107.3134
        47.2504         38.0004
   -856107.22446   -668349.59445  25169402.4304   25169398.4104
        36.0004         31.0004
 -11974853.31947  -9307279.64646  23128117.8364   23128111.3594
        42.5004         41.0004
 -24740764.50147 -19253642.71446  20826377.6334   20826370.8834
        47.7504         38.0004
 -16449286.91447 -12806955.39645  22590629.7344   22590619.8284
        45.0004         32.5004
  -8108163.69947  -6194616.65746  23485827.8754   23485820.4694
        42.5004         38.2504
 -22549684.55147 -17555480.68848  21100295.7814   21100291.0434
        47.5004         50.5004
 -19789081.88547 -15384636.28848  21073678.2814   21073673.4654
        47.5004         49.7504
  -3366990.99046  -2450180.30643  24535653.0704   24535646.7584
        38.5004         20.2504
 20  5  4  0 14  0.0000000  0  9G16G 6G 9G 4G22G31G 3G26G14
 -21626298.19347 -17131446.76246  20758592.5234   20758584.5944
        47.5004         38.2504
   -845935.47446   -660423.53445  25171337.9064   25171333.9104
        37.7504         31.5004
 -12062958.54947  -9375933.09746  23111350.1954   23111345.5314
        42.5004         40.5004
 -24786500.91548 -19289281.48046  20817674.1484   20817667.5634
        48.0004         39.0004
 -16360583.06747 -12737835.54245  22607509.5164   22607499.7624
        44.7504         33.2504
  -8015090.50847  -6122092.14346  23503538.7734   23503531.7114
        43.0004         38.2504
 -22493512.46947 -17511710.25048  21110984.8674   21110980.1724
        46.7504         50.5004
 -19757143.53647 -15359749.27148  21079755.8054   21079751.2154
        46.7504         49.7504
  -3283147.03745  -2384847.36543  24551607.1254   24551602.2624
        35.5004         19.5004
 20  5  4  0 14 30.0000000  0  9G16G 6G 9G 4G22G31G 3G26G14
 -21675724.10447 -17169960.45846  20749187.5084   20749179.4264
        47.7504         38.5004
   -835255.11246   -652101.17045  25173371.1804   25173366.3244
        36.0004         30.7504
 -12150973.80447  -9444516.40046  23094602.2504   23094596.9024
        42.0004         40.5004
 -24831960.75947 -19324704.73846  20809023.4774   20809016.8524
        47.2504         37.7504
 -16271596.55047 -12668495.41945  22624442.8524   22624433.1294
        45.2504         33.0004
  -7921977.17847  -6049536.34546  23521257.8754   23521250.5744
        42.2504         38.2504
 -22436824.17747 -17467537.57748  21121772.3914   21121768.0004
        47.2504         50.7504
 -19724627.76347 -15334412.31548  21085943.5394   21085939.3014
        47.0004         49.7504
  -3199164.457 6                  24567589.492
        37.000
 20  5  4  0 15  0.0000000  0 10G16G 6G 9G 4G22G31G 3G26G14G 7
 -21724534.77447 -17207994.75946  20739898.6024   20739890.7384
        46.7504         38.5004
   -824067.83646   -643383.83345  25175500.1644   25175495.5474
        37.5004         30.7504
 -12238898.15047  -9513028.85246  23077871.2584   23077865.2854
        42.0004         40.7504
 -24877143.16747 -19359911.81746  20800425.0784   20800419.2074
        46.2504         37.7504
 -16182330.40547 -12598937.40245  22641429.8444   22641420.1764
        44.5004         32.5004
  -7828825.36147  -5976950.57546  23538984.4694   23538976.4614
        43.0004         38.2504
 -22379622.00347 -17422964.47048  21132657.8674   21132653.0554
        47.0004         51.0004
 -19691536.50647 -15308626.93048  21092240.6254   21092236.2344
        47.5004         49.7504
  -3115044.37046  -2340859.44153  24583596.8674   24583591.1994
        37.0004         19.0004
    110473.40455     96891.61953  25460454.1484   25460446.7074
        32.5004         21.0004
 20  5  4  0 15 30.0000000  0 10G16G 6G 9G 4G22G31G 3G26G14G 7
 -21772730.42547 -17245549.80446  20730727.5164   20730720.0904
        47.0004         38.2504
   -812376.94946   -634274.03445  25177724.3984   25177720.4884
        37.5004         31.5004
 -12326732.60147  -9581471.25246  23061157.0704   23061151.5474
        42.2504         40.7504
 -24922049.01047 -19394903.38346  20791879.9924   20791873.4844
        45.5004         38.0004
 -16092789.18047 -12529165.04745  22658469.2734   22658459.0554
        44.5004         32.5004
  -7735638.57447  -5904337.53046  23556717.0704   23556710.0044
        42.2504         38.0004
 -22321910.12347 -17377994.20148  21143639.9844   21143635.3674
        47.0004         51.0004
 -19657873.49747 -15282396.02448  21098646.2664   21098641.9614
        47.5004         49.5004
  -3030789.38746  -2275206.24943  24599630.5704   24599623.7774
        37.7504         19.0004
     26581.16445     31521.03844  25444490.2664   25444482.5984
        34.0004         24.7504
 20  5  4  0 16  0.0000000  0 10G16G 6G 9G 4G22G31G 3G26G14G 7
 -21820306.03148 -17282621.70946  20721674.1484   20721666.5514
        48.2504         38.0004
   -800179.61446   -624769.61445  25180045.3984   25180040.7894
        36.2504         30.7504
 -12414471.90046  -9649839.53346  23044459.4844   23044454.9804
        41.5004         41.5004
 -24966673.04647 -19429675.36946  20783388.6804   20783381.8134
        47.0004         37.7504
 -16002971.58947 -12459177.33145  22675561.0554   22675550.9494
        45.0004         33.0004
  -7642414.30547  -5831695.29246  23574457.6254   23574449.2624
        43.0004         38.0004
 -22263686.51847 -17332625.17248  21154719.4534   21154714.7704
        47.5004         50.7504
 -19623636.36347 -15255717.73648  21105161.6724   21105157.0744
        46.7504         49.5004
  -2946396.14445  -2209445.42742  24615689.0634   24615684.4844
        34.7504         16.7504
    -57228.78845    -33785.42044  25428540.8914   25428533.9654
        35.2504         25.7504
 20  5  4  0 16 30.0000000  0 10G16G 6G 9G 4G22G31G 3G26G14G 7
 -21867260.99548 -17319209.99746  20712739.2194   20712731.0864
        48.5004         38.2504
   -787478.29046   -614872.48645  25182463.7974   25182458.1024
        38.0004         31.7504
 -12502116.13047  -9718133.72747  23027782.1724   23027776.6414
        42.2504         42.0004
 -25011015.32947 -19464227.79846  20774950.3834   20774943.6414
        46.5004         38.0004
 -15912882.03847 -12388977.69645  22692704.2894   22692694.6454
        45.0004         33.0004
  -7549155.52047  -5759026.15846  23592203.7274   23592196.7384
        42.5004         38.0004
 -22204954.54947 -17286860.01748  21165896.0864   21165890.8634
        47.5004         50.2504
 -19588828.08547 -15228594.41948  21111785.2504   21111780.6454
        47.2504         49.5004
  -2861866.50345  -2143578.32642  24631774.5234   24631769.8874
        33.2504         16.7504
   -140957.56246    -99028.63544  25412607.8204   25412600.7274
        37.0004         28.5004
 20  5  4  0 17  0.0000000  0 10G16G 6G 9G 4G22G31G 3G26G14G 7
 -21913593.87547 -17355313.54346  20703922.0944   20703914.0234
        47.5004         38.0004
   -774274.42546   -604583.75945  25184976.0784   25184970.6094
        37.7504         31.0004
 -12589664.05347  -9786352.87647  23011121.9534   23011117.0204
        42.2504         42.0004
 -25055074.56247 -19498559.67246  20766566.2814   20766559.8754
        46.2504         37.5004
 -15822522.97247 -12318568.04745  22709898.7034   22709889.0594
        45.0004         32.0004
  -7455863.50346  -5686331.14146  23609956.9534   23609949.1484
        41.7504         38.2504
 -22145716.26247 -17240700.32048  21177168.5394   21177163.5084
        47.0004         50.2504
 -19553450.33647 -15201027.34648  21118517.6334   21118513.0004
        47.0004         49.5004
  -2777201.40745  -2077605.57542  24647885.9384   24647882.1884
        35.5004         15.5004
   -224605.04146   -164208.49345  25396691.2894   25396683.3554
        38.0004         30.0004
 20  5  4  0 17 30.0000000  0 10G16G 6G 9G 4G22G31G 3G26G14G 7
 -21959303.30848 -17390931.29146  20695223.6884   20695215.9574
        48.5004         38.2504
   -760569.33146   -593904.47545  25187583.5784   25187578.2544
        36.5004         30.2504
 -12677114.63947  -9854496.17747  22994480.6414   22994476.2194
        42.0004         42.0004
 -25098849.73647 -19532670.19646  20758235.9304   20758229.0274
        47.0004         37.5004
 -15731897.22647 -12247950.61245  22727144.1884   22727134.8404
        44.7504         32.2504
  -7362539.88047  -5613611.48946  23627715.6334   23627708.7194
        42.0004         38.2504
 -22085973.94947 -17194147.88848  21188537.3754   21188532.0394
        47.0004         50.0004
 -19517504.96747 -15173017.97948  21125357.4774   21125353.2274
        47.0004         49.5004
  -2692401.60646  -2011527.79643  24664023.8674   24664017.6564
        37.0004         18.2504
   -308171.69846   -229325.36945  25380788.3284   25380780.9454
        38.2504         31.2504
 20  5  4  0 18  0.0000000  0 10G16G 6G 9G 4G22G31G 3G26G14G 7
 -22004386.98647 -17426061.43746  20686644.6484   20686636.6954
        47.7504         38.0004
   -746363.44146   -582834.94545  25190285.9384   25190282.0394
        37.0004         30.5004
 -12764465.79646  -9922561.99346  22977857.9844   22977853.1844
        41.7504         41.2504
 -25142338.60147 -19566557.63046  20749960.5474   20749954.0594
        47.0004         37.2504
 -15641006.34647 -12177126.58245  22744440.0864   22744430.8444
        45.0004         32.2504
  -7269184.82347  -5540867.33746  23645481.0864   23645473.3714
        42.2504         37.7504
 -22025728.76547 -17147203.60348  21200001.5084   21199996.4024
        46.5004         50.0004
 -19480992.79048 -15144566.93948  21132305.9614   21132301.3284
        48.0004         49.7504
  -2607466.31045  -1945344.54742  24680185.1564   24680180.5204
        33.2504         16.7504
   -391655.71146   -294377.84345  25364901.8914   25364894.7154
        37.5004         30.5004
 20  5  4  0 18 30.0000000  0 10G16G 6G 9G 4G22G31G 3G26G14G 7
 -22048843.99748 -17460703.26646  20678185.0234   20678176.7504
        48.2504         38.0004
   -731658.66546   -571376.72745  25193084.8054   25193080.7704
        36.0004         30.0004
 -12851716.93947  -9990549.88447  22961255.9844   22961249.4494
        42.5004         42.0004
 -25185540.72947 -19600221.63146  20741739.5634   20741732.7234
        47.0004         38.2504
 -15549853.84447 -12106098.67845  22761786.0554   22761776.2974
        44.5004         33.0004
  -7175800.45246  -5468100.35446  23663251.3754   23663244.1174
        41.7504         37.7504
 -21964983.63847 -17099869.76048  21211560.8364   21211556.0704
        47.0004         50.0004
 -19443916.30548 -15115676.17248  21139361.0394   21139356.7814
        48.0004         49.5004
  -2522396.86345  -1879056.83942  24696374.2504   24696369.1524
        35.5004         15.5004
   -475057.90646   -359366.56845  25349030.8364   25349023.6804
        36.7504         30.2504
 20  5  4  0 19  0.0000000  0 10G16G 6G 9G 4G22G31G 3G26G14G 7
 -22092672.09648 -17494855.04046  20669844.5864   20669836.6914
        48.2504         38.0004
   -716455.79646   -559530.35345  25195977.2584   25195973.3244
        36.5004         30.2504
 -12938866.10747 -10058458.32646  22944672.1414   22944665.6764
        43.0004         41.5004
 -25228454.10547 -19633660.63246  20733573.0234   20733566.3554
        46.2504         38.2504
 -15458441.85547 -12034868.58745  22779181.1724   22779171.8244
        45.2504         31.7504
  -7082387.80646  -5395311.34446  23681027.0474   23681020.0274
        41.7504         38.2504
 -21903739.88247 -17052147.37048  21223214.9224   21223209.9844
        47.5004         50.0004
 -19406276.50548 -15086346.46848  21146523.6564   21146519.1604
        48.2504         49.5004
  -2437193.67646  -1812664.81442  24712588.4694   24712582.9774
        37.0004         15.5004
   -558377.63445   -424291.00844  25333175.1024   25333168.7194
        35.5004         29.0004
 20  5  4  0 19 30.0000000  0 10G16G 6G 9G 4G22G31G 3G26G14G 7
 -22135870.39448 -17528516.05646  20661624.4774   20661616.0044
        48.2504         38.5004
   -700756.26845   -547296.96644  25198964.0864   25198960.9804
        35.2504         29.5004
 -13025912.17247 -10126286.42047  22928107.6954   22928101.3404
        43.2504         42.0004
 -25271077.63147 -19666873.77446  20725462.3984   20725455.4774
        47.2504         38.5004
 -15366773.19247 -11963438.46845  22796624.9064   22796615.3054
        45.0004         31.0004
  -6988948.29846  -5322501.39746  23698807.5004   23698800.9454
        41.2504         37.2504
 -21841999.86947 -17004038.28448  21234963.5004   21234959.2774
        47.0004         50.0004
 -19368075.37447 -15056579.36548  21153793.2814   21153788.6294
        47.2504         49.2504
  -2351857.57146  -1746169.20442  24728827.1094   24728821.2894
        39.0004         15.5004
   -641614.20046   -489150.66644  25317336.2894   25317329.3484
        36.5004         28.0004
 20  5  4  0 20  0.0000000  0 10G16G 6G 9G 4G22G31G 3G26G14G 7
 -22178436.68648 -17561684.60046  20653524.3834   20653516.3554
        48.5004         38.2504
   -684560.85546   -534677.19845  25202047.9774   25202043.2114
        37.5004         31.7504
 -13112853.33347 -10194032.77047  22911563.2504   22911556.6454
        43.0004         42.0004
 -25313409.45547 -19699859.62346  20717406.8284   20717400.0164
        47.5004         38.5004
 -15274850.12447 -11891810.12845  22814117.6094   22814107.8204
        44.2504         31.5004
  -6895482.72646  -5249671.13146  23716593.6564   23716586.9064
        41.5004         38.5004
 -21779765.16747 -16955543.73448  21246806.7034   21246802.0864
        47.5004         50.0004
 -19329314.09147 -15026375.77848  21161169.4224   21161164.7894
        47.7504         49.2504
  -2266388.56146  -1679569.93042  24745091.8984   24745085.4264
        37.5004         15.5004
   -724767.19746   -553945.22544  25301513.4064   25301505.7664
        37.2504         28.5004
 20  5  4  0 20 30.0000000  0 10G16G 6G 9G 4G22G31G 3G26G14G 7
 -22220369.36647 -17594359.41846  20645544.8674   20645536.7034
        47.7504         38.5004
   -667870.84346   -521672.00945  25205223.1174   25205218.7074
        37.2504         30.7504
 -13199688.05047 -10261696.18347  22895039.0784   22895033.5314
        43.2504         42.5004
 -25355448.06747 -19732616.99346  20709407.0634   20709400.6484
        47.0004         38.5004
 -15182674.98847 -11819985.37545  22831657.9774   22831648.5944
        44.7504         32.5004
  -6801992.23946  -5176821.45946  23734384.8984   23734377.2304
        41.7504         37.0004
 -21717037.78347 -16906665.27148  21258743.5004   21258738.6884
        47.5004         50.0004
 -19289994.29947 -14995736.99748  21168651.2974   21168646.9844
        47.7504         49.2504
  -2180786.89244  -1612867.33742  24761381.4144   24761375.8484
        28.2504         13.7504
   -807836.46346   -618674.56544  25285705.8284   25285698.0944
        37.5004         29.7504
 20  5  4  0 21  0.0000000  0 10G16G 6G 9G 4G22G31G 3G26G14G 7
 -22261667.08747 -17626539.47046  20637685.5784   20637677.8714
        47.5004         38.7504
   -650687.43346   -508282.35845  25208493.2034   25208488.6134
        36.0004         30.5004
 -13286414.94547 -10329275.56947  22878535.5474   22878529.9884
        43.0004         42.7504
 -25397192.11447 -19765144.82846  20701463.6024   20701456.7544
        46.7504         38.0004
 -15090250.06147 -11747965.98145  22849246.0634   22849236.6174
        44.5004         31.5004
  -6708477.89447  -5103953.19946  23752180.6414   23752173.0394
        42.7504         37.5004
 -21653819.72847 -16857404.47248  21270774.0944   21270768.7074
        47.0004         50.2504
 -19250117.64147 -14964664.28648  21176239.7424   21176235.1804
        47.5004         49.0004
  27837927.15115                  24777696.227
        33.000
   -890821.44546   -683338.18844  25269914.5004   25269906.5434
        36.7504         29.7504
 20  5  4  0 21 30.0000000  0 10G16G 6G 9G 4G22G31G 3G26G14G 7
 -22302329.02448 -17658224.09946  20629948.0634   20629940.0124
        48.0004         38.2504
   -633012.56546   -494509.77445  25211856.8984   25211852.7344
        36.2504         31.0004
 -13373033.23447 -10396770.33147  22862053.0704   22862046.5234
        43.7504         42.5004
 -25438640.85947 -19797442.55746  20693575.7814   20693569.2664
        46.5004         38.5004
 -14997579.03547 -11675754.81445  22866880.4534   22866871.0084
        45.0004         32.2504
  -6614941.60846  -5031067.81346  23769979.0704   23769972.1844
        41.5004         37.0004
 -21590113.85647 -16807763.55148  21282896.3364   21282891.6524
        47.0004         50.2504
 -19209686.54847 -14933159.55048  21183933.4844   21183928.8284
        47.0004         49.0004
  27923791.68246  21748771.47353  24794035.3284   24794028.8014
        38.0004         19.0004
   -973722.44246   -747936.33044  25254137.9614   25254130.8484
        37.5004         29.0004
 20  5  4  0 22  0.0000000  0 10G16G 6G 9G 4G22G31G 3G26G14G 7
 -22342353.34448 -17689411.88046  20622331.7974   20622323.8634
        48.0004         39.0004
   -614847.02146   -480354.80645  25215313.0944   25215309.6134
        37.2504         30.5004
 -13459540.87147 -10464178.87347  22845590.3204   22845584.4264
        43.0004         42.2504
 -25479792.26147 -19829508.59546  20685745.1884   20685738.8754
        47.2504         38.2504
 -14904663.94747 -11603353.47145  22884561.8674   22884552.2584
        44.0004         31.0004
  -6521383.94347  -4958165.81546  23787783.1334   23787775.4304
        42.5004         36.5004
 -21525921.57447 -16757743.61148  21295111.6564   21295106.8284
        47.2504         50.0004
 -19168702.14647 -14901223.67048  21191732.6094   21191727.5634
        47.5004         49.0004
  28009787.18246  21815780.90143  24810399.2814   24810393.4454
        36.5004         18.5004
  -1056538.53046   -812468.36344  25238378.7974   25238371.5704
        37.7504         29.5004
 20  5  4  0 22 30.0000000  0 10G16G 6G 9G 4G22G31G 3G26G14G 7
 -22381738.17248 -17720101.36446  20614837.1564   20614829.2424
        48.0004         39.0004
   -596191.75446   -465818.24445  25218863.4844   25218859.3094
        36.0004         31.0004
 -13545936.03647 -10531499.77547  22829150.2274   22829144.6724
        42.5004         42.0004
 -25520644.61647 -19861341.60246  20677971.3524   20677964.6524
        47.0004         39.0004
 -14811506.87147 -11530763.56945  22902289.4144   22902279.4184
        43.7504         31.7504
  -6427805.67747  -4885247.72346  23805590.2424   23805582.6454
        42.5004         37.0004
 -21461244.66647 -16707346.04048  21307419.4614   21307414.6054
        46.5004         49.7504
 -19127165.83847 -14868857.71948  21199636.4924   21199632.2584
        47.7504         49.0004
  28095913.55345  21882892.20842  24826788.2974   24826783.4384
        31.2504         14.7504
  -1139269.43146   -876934.04844  25222635.6954   25222628.7854
        37.5004         29.2504
 20  5  4  0 23  0.0000000  0 10G16G 6G 9G 4G22G31G 3G26G14G 7
 -22420482.36748 -17750291.65446  20607464.6804   20607456.7974
        48.5004         39.0004
   -577048.49546   -450901.46945  25222507.0554   25222502.4264
        37.7504         30.2504
 -13632217.58147 -10598732.13347  22812731.0394   22812725.3754
        43.2504         42.0004
 -25561196.76847 -19892940.69246  20670254.4224   20670247.8244
        47.0004         38.5004
 -14718110.47147 -11457987.16945  22920061.8834   22920052.0634
        44.0004         31.0004
  -6334208.34946  -4812314.78546  23823400.6174   23823394.0824
        41.5004         36.5004
 -21396085.57547 -16656572.73848  21319818.2974   21319813.5124
        47.0004         50.0004
 -19085079.64347 -14836063.28948  21207645.3674   21207640.7584
        47.5004         48.7504
  28182169.899 5                  24843202.844
        35.500
  -1221914.74646   -941332.97745  25206908.2114   25206901.6134
        37.0004         30.0004
 20  5  4  0 23 30.0000000  0 10G16G 6G 9G 4G22G31G 3G26G14G 7
 -22458585.08247 -17779982.08446  20600213.7274   20600205.9804
        46.5004         39.0004
   -557418.72346   -435605.56945  25226241.6884   25226237.0744
        36.7504         30.5004
 -13718384.27647 -10665875.01047  22796334.0164   22796328.4184
        43.5004         42.0004
 -25601447.46947 -19924304.86846  20662595.1174   20662588.6764
        46.0004         39.0004
 -14624477.78447 -11385026.66045  22937879.3054   22937869.7544
        44.5004         32.2504
  -6240593.15746  -4739367.94646  23841215.5084   23841208.2274
        41.5004         36.5004
 -21330446.60347 -16605425.50248  21332309.3134   21332304.6994
        46.7504         49.7504
 -19042445.56747 -14802841.93748  21215758.3594   21215753.9534
        47.0004         49.0004
  28268554.98546  21951103.89252  24859641.9924   24859634.1844
        38.0004         16.2504
  -1304474.47446  -1005665.22845  25191198.3284   25191190.8594
        38.5004         30.0004
 20  5  4  0 24  0.0000000  0 10G16G 6G 9G 4G22G31G 3G26G14G 7
 -22496044.64847 -17809171.36046  20593085.6334   20593077.7304
        47.2504         38.7504
   -537303.66446   -419931.50345  25230069.2664   25230065.0084
        36.5004         30.7504
 -13804434.36547 -10732927.01447  22779959.2194   22779953.6884
        43.5004         42.5004
 -25641395.15347 -19955432.94946  20654993.2504   20654986.6564
        47.2504         38.5004
 -14530611.03147 -11311883.77045  22955742.3984   22955732.3404
        44.2504         31.5004
  -6146961.32747  -4666408.15644  23859032.6484   23859026.2234
        42.0004         28.2504
 -21264329.72347 -16553905.88048  21344891.1884   21344886.2934
        46.7504         49.7504
 -18999265.18148 -14769194.90048  21223975.5394   21223970.9844
        48.2504         48.5004
  28355069.25646  22018517.56942  24876104.4224   24876098.7894
        38.0004         16.7504
  -1386948.29946  -1069930.59744  25175504.7274   25175496.9264
        37.0004         29.0004
 20  5  4  0 24 30.0000000  0 10G16G 6G 9G 4G22G31G 3G26G14G 7
 -22532859.35947 -17837858.14646  20586080.1804   20586072.2194
        46.7504         38.2504
   -516704.46246   -403880.23245  25233989.0474   25233985.3954
        36.5004         30.0004
 -13890365.99247 -10799886.73647  22763607.1414   22763601.6374
        44.0004         43.7504
 -25681038.06247 -19986323.54446  20647449.5474   20647442.8914
        47.2504         39.5004
 -14436512.45147 -11238560.22344  22973648.3754   22973638.5824
        44.5004         29.5004
  -6053313.58646  -4593435.93143  23876853.9924   23876846.2344
        41.0004         22.2504
 -21197736.79547 -16502015.30148  21357563.3674   21357558.4344
        46.5004         48.7504
 -18955540.01548 -14735123.35748  21232295.9384   21232291.3094
        48.5004         48.5004
  28441712.14945  22086031.40842  24892592.8754   24892586.7934
        34.2504         16.2504
  -1469335.37246  -1134128.31044  25159826.6414   25159818.9654
        36.7504         28.5004
 20  5  4  0 25  0.0000000  0 10G16G 6G 9G 4G22G31G 3G26G14G 7
 -22569028.38148 -17866041.81146  20579197.2424   20579189.4184
        48.0004         39.0004
   -495622.69945   -387452.90444  25238001.6954   25237996.6764
        35.5004         29.7504
 -13976178.08947 -10866753.28147  22747277.0164   22747271.8834
        43.5004         43.7504
 -25720375.00447 -20016975.70746  20639963.8984   20639957.1994
        47.7504         38.7504
 -14342184.95947 -11165058.30745  22991598.0234   22991588.5124
        44.0004         30.2504
  -5959651.25047  -4520452.37344  23894677.5474   23894669.8284
        42.5004         26.5004
 -21130670.20747 -16449755.64948  21370325.4534   21370321.1054
        47.0004         49.7504
 -18911272.13248 -14700628.91348  21240720.2194   21240715.3634
        48.0004         48.5004
  28528482.98545  22153644.88542  24909104.5314   24909099.5394
        35.7504         16.2504
  -1551635.79246  -1198258.54045  25144165.6884   25144157.7304
        39.2504         31.5004
 20  5  4  0 25 30.0000000  0 10G16G 6G 9G 4G22G31G 3G26G14G 7
 -22604550.43947 -17893721.33546  20572437.5944   20572429.9184
        47.2504         39.2504
   -474060.15646   -370650.97745  25242105.5704   25242100.1804
        37.0004         30.5004
 -14061869.13047 -10933525.51147  22730971.2734   22730965.7974
        43.5004         43.0004
 -25759404.73747 -20047388.49446  20632536.7344   20632530.3834
        47.0004         38.7504
 -14247631.36347 -11091380.21745  23009591.4224   23009581.3054
        45.0004         30.7504
  -5865975.39247  -4447458.25944  23912503.1254   23912496.0474
        42.0004         26.0004
 -21063132.38047 -16397128.78448  21383178.0004   21383172.4964
        47.7504         49.5004
 -18866463.53648 -14665713.13148  21249246.9844   21249241.9694
        48.2504         48.5004
  28615380.746 5                  24925640.211
        32.750
  -1633849.52946  -1262321.19044  25128521.2424   25128512.9654
        36.5004         28.0004
 20  5  4  0 26  0.0000000  0 10G16G 6G 9G 4G22G31G 3G26G14G 7
 -22639424.56347 -17920895.98546  20565801.2584   20565793.2114
        47.7504         39.0004
   -452017.94346   -353475.22444  25246298.4694   25246294.4344
        36.0004         29.5004
 -14147437.56347 -11000202.19447  22714687.7274   22714682.4344
        43.0004         43.2504
 -25798125.67447 -20077560.66946  20625168.9694   20625161.5704
        47.5004         38.2504
 -14152854.07047 -11017527.79845  23027626.8134   23027616.6334
        44.2504         30.2504
  -5772287.27847  -4374454.56944  23930331.2974   23930324.0784
        42.0004         27.2504
 -20995125.34247 -16344136.31248  21396118.9224   21396114.0314
        47.5004         49.2504
 -18821115.95248 -14630377.37148  21257876.4534   21257872.0744
        48.0004         48.7504
  28702405.30515                  24942200.672
        31.750
  -1715975.73046  -1326315.66445  25112892.4454   25112885.3164
        39.5004         31.7504
 20  5  4  0 26 30.0000000  0 10G16G 6G 9G 4G22G31G 3G26G14G 7
 -22673648.76048 -17947564.19646  20559289.2814   20559281.3594
        48.0004         38.5004
   -429497.39546   -335926.76945  25250583.7034   25250580.0554
        36.2504         30.2504
 -14232881.53747 -11066781.90647  22698427.1644   22698423.1334
        42.7504         43.0004
 -25836536.14547 -20107490.91446  20617859.0864   20617852.5594
        46.5004         38.5004
 -14057855.65747 -10943503.08845  23045704.1334   23045694.1214
        43.7504         31.0004
  -5678587.71746  -4301442.00344  23948162.1174   23948155.3284
        41.2504         27.2504
 -20926651.06347 -16290779.74048  21409149.2114   21409144.0744
        46.7504         49.0004
 -18775230.95547 -14594622.84048  21266607.5234   21266603.0944
        47.7504         48.5004
  28789556.01945  22131974.24753  24958786.1724   24958778.7074
        35.7504         18.2504
  -1798014.26446  -1390241.75844  25097280.6484   25097273.4964
        37.5004         29.5004
 20  5  4  0 27  0.0000000  0 10G16G 6G 9G 4G22G31G 3G26G14G 7
 -22707222.53747 -17973725.58546  20552899.9064   20552891.6024
        47.2504         39.0004
   -406500.18246   -318006.91644  25254960.6414   25254955.9614
        36.5004         29.0004
 -14318199.66347 -11133263.53247  22682192.8524   22682187.2194
        43.0004         43.2504
 -25874634.80647 -20137178.18946  20610609.4774   20610602.6454
        47.5004         38.7504
 -13962638.60047 -10869307.99545  23063823.9694   23063813.9344
        44.2504         30.5004
  -5584877.90647  -4228421.44144  23965994.8524   23965987.4844
        42.2504         26.7504
 -20857711.94847 -16237060.97748  21422267.8754   21422263.0664
        46.7504         49.2504
 -18728810.64948 -14558451.18748  21275441.5944   21275436.7934
        48.2504         48.5004
  28876832.48346  22199981.81843  24975393.5234   24975387.8984
        37.2504         19.0004
  -1879964.89646  -1454099.43345  25081686.1254   25081678.3674
        39.0004         30.2504
 20  5  4  0 27 30.0000000  0 10G16G 6G 9G 4G22G31G 3G26G14G 7
 -22740144.22047 -17999378.85446  20546634.8284   20546627.1024
        47.7504         38.7504
   -383027.82446   -299716.83745  25259427.4304   25259422.4494
        36.5004         30.0004
 -14403390.48447 -11199645.99147  22665981.0634   22665975.8984
        43.7504         43.0004
 -25912420.34947 -20166621.48546  20603419.0164   20603412.1334
        47.5004         38.5004
 -13867205.62447 -10794944.66645  23081984.6724   23081974.5084
        44.7504         31.0004
  -5491158.81847  -4155393.64244  23983828.8674   23983821.9104
        42.5004         27.0004
 -20788310.27847 -16182981.77648  21435474.8284   21435469.6484
        47.5004         49.2504
 -18681856.95248 -14521863.89448  21284376.5004   21284371.6954
        48.0004         48.5004
  28964234.05246  22268086.85343  24992025.9064   24992019.6484
        36.5004         19.5004
  -1961826.99246  -1517888.08645  25066108.4304   25066101.2504
        37.2504         31.5004
 20  5  4  0 28  0.0000000  0 10G16G 6G 9G 4G22G31G 3G26G14G 7
 -22772413.42948 -18024523.69946  20540494.1724   20540486.4964
        48.0004         38.7504
   -359081.89945   -281057.66745  25263984.2034   25263980.0434
        35.7504         30.2504
 -14488452.35647 -11265927.96247  22649794.9304   22649789.2664
        44.0004         43.0004
 -25949891.26747 -20195819.61246  20596288.7344   20596281.8244
        47.0004         39.0004
 -13771559.26047 -10720415.06945  23100185.2734   23100175.7074
        43.7504         30.5004
  -5397431.45046  -4082359.38344  24001664.3444   24001657.3594
        40.7504         26.0004
 -20718448.30047 -16128543.89348  21448769.1414   21448764.6804
        47.5004         49.2504
 -18634371.75448 -14484862.45448  21293412.5474   21293408.1254
        48.0004         48.2504
  29051760.24445  22336289.02742  25008680.5474   25008675.8094
        34.0004         17.7504
  -2043600.79646  -1581607.92545  25050547.1644   25050539.8094
        39.2504         31.2504
 20  5  4  0 28 30.0000000  0 10G16G 6G 9G 4G22G31G 3G26G14G 7
 -22804028.50747 -18049158.83246  20534477.9304   20534470.4224
        47.2504         38.5004
   -334663.59946   -262030.46745  25268630.6334   25268626.5354
        36.5004         30.7504
 -14573383.47147 -11332108.04247  22633632.9694   22633627.2584
        43.7504         43.2504
 -25987045.83747 -20224771.23246  20589218.2894   20589211.3204
        47.5004         38.7504
 -13675701.98747 -10645721.12345  23118426.4534   23118416.5744
        44.0004         31.0004
  -5303696.71046  -4009319.37844  24019500.4844   24019494.2584
        40.7504         24.7504
 -20648128.03147 -16073748.89948  21462150.3054   21462145.9534
        47.7504         49.0004
 -18586356.71447 -14447448.14648  21302549.1804   21302544.8404
        47.2504         48.2504
  29139410.80545  22404588.03142  25025360.1174   25025355.7584
        32.5004         14.7504
  -2125285.62346  -1645258.47945  25035003.5084   25034995.8714
        38.0004         30.2504
 20  5  4  0 29  0.0000000  0 10G16G 6G 9G 4G22G31G 3G26G14G 7
 -22834988.41447 -18073283.43546  20528586.6024   20528578.7154
        47.5004         38.5004
   -309774.93746   -242636.74945  25273367.5314   25273363.0084
        36.5004         31.0004
 -14658182.61547 -11398185.30047  22617495.4844   22617490.7274
        44.2504         43.0004
 -26023882.98247 -20253475.50246  20582208.3524   20582201.5234
        47.2504         38.5004
 -13579636.70747 -10570865.08645  23136706.4454   23136697.2974
        44.0004         31.0004
  -5209955.91046  -3936274.69944  24037339.8914   24037333.1684
        41.0004         26.0004
 -20577352.06447 -16018598.81448  21475618.5394   21475614.1454
        47.2504         49.0004
 -18537814.12947 -14409622.77448  21311786.7034   21311782.2114
        47.5004         48.5004
  29227184.63445  22472983.16942  25042062.9304   25042058.2774
        33.5004         16.2504
  -2206881.48246  -1708839.68045  25019476.3594   25019468.3444
        38.7504         31.7504
 20  5  4  0 29 30.0000000  0 10G16G 6G 9G 4G22G31G 3G26G14G 7
 -22865292.71247 -18096897.17846  20522820.0944   20522812.2424
        47.0004         39.2504
   -284417.46346   -222877.69145  25278192.1884   25278188.5204
        37.0004         31.2504
 -14742848.16747 -11464158.44847  22601384.4924   22601379.5004
        43.2504         44.0004
 -26060401.26447 -20281931.31546  20575258.9774   20575252.5314
        45.7504         38.2504
 -13483365.83547 -10495848.85745  23155026.4694   23155016.9304
        43.5004         30.7504
  -5116209.79546  -3863225.84444  24055179.6174   24055172.3244
        41.2504         25.5004
 -20506122.72347 -15963095.46248  21489173.3054   21489168.4804
        47.5004         49.0004
 -18488745.97747 -14371387.86648  21321124.0314   21321119.6914
        47.2504         48.2504
  29315081.23946  22541473.96442  25058789.8524   25058784.5784
        36.5004         17.2504
  -2288387.63646  -1772351.01445  25003965.9224   25003958.6884
        37.5004         30.5004
 20  5  4  0 30  0.0000000  0 10G16G 6G 9G 4G22G31G 3G26G14G 7
 -22894940.36947 -18119999.25546  20517178.3444   20517170.2854
        46.7504         38.5004
   -258592.87445   -202754.67545  25283106.3444   25283102.1564
        35.2504         30.2504
 -14827378.63547 -11530026.33147  22585299.1254   22585294.3554
        44.0004         44.2504
 -26096599.32747 -20310137.60546  20568370.7584   20568363.6454
        46.7504         39.0004
 -13386892.12247 -10420674.55445  23173383.9224   23173374.7894
        43.5004         30.0004
  -5022459.92146  -3790174.01744  24073019.3594   24073011.6684
        41.2504         26.5004
 -20434442.41947 -15907240.69548  21502813.7344   21502808.5554
        47.5004         49.0004
 -18439154.26247 -14332744.98948  21330561.2424   21330556.3674
        47.2504         48.2504
  29403100.04045  22610060.00642  25075539.5314   25075534.0594
        33.7504         15.5004
  -2369804.36346  -1835792.62045  24988472.2894   24988465.6094
        37.0004         31.0004
 20  5  4  0 30 30.0000000  0  9G16G 6G 9G 4G22G31G 3G26G 7
 -22923926.05847 -18142585.51646  20511662.3134   20511654.2384
        47.5004         39.2504
   -232298.49946   -182265.60045  25288110.0474   25288106.2234
        36.0004         30.5004
 -14911768.19347 -11595784.40147  22569240.3594   22569234.9654
        44.0004         44.5004
 -26132471.45947 -20338089.92946  20561544.8674   20561538.0314
        47.2504         39.2504
 -13290213.99547 -10345340.97745  23191781.9924   23191772.4804
        43.2504         30.0004
  -4928703.08246  -3717116.81144  24090860.1094   24090853.6994
        40.7504         26.0004
 -20362309.24747 -15851033.04248  21516539.9694   21516535.2274
        47.0004         49.0004
 -18389036.81447 -14293692.45148  21340098.4844   21340093.4104
        47.5004         48.2504
  -2451127.32446  -1899161.18845  24972998.0084   24972990.3364
        37.5004         30.7504
 20  5  4  0 31  0.0000000  0  9G16G 6G 9G 4G22G31G 3G26G 7
 -22952255.86647 -18164660.69546  20506271.2424   20506263.3324
        47.2504         38.7504
   -205543.13746   -161417.29045  25293201.2664   25293198.1374
        36.0004         31.0004
 -14996022.28347 -11661436.92547  22553207.3524   22553201.5704
        44.2504         44.2504
 -26168023.35847 -20365792.71446  20554779.6254   20554772.5704
        46.7504         38.7504
 -13193341.08747 -10269855.62744  23210216.2664   23210206.5234
        43.5004         29.5004
  -4834947.19846  -3644060.32444  24108701.5234   24108694.7584
        40.0004         26.2504
 -20289732.59547 -15794479.83448  21530351.2194   21530346.1804
        47.7504         48.7504
 -18338402.68147 -14254237.28848  21349733.6804   21349729.1844
        47.5004         48.2504
  -2532363.25646  -1962461.90945  24957538.1884   24957531.7894
        37.5004         30.7504
 20  5  4  0 31 30.0000000  0 10G16G 6G 9G 4G22G31G 3G26G14G 7
 -22979930.63447 -18186225.45846  20501005.1564   20500997.2154
        47.5004         39.2504
   -178330.07245   -140212.36345  25298380.3594   25298376.3244
        35.7504         30.5004
 -15080140.91047 -11726983.89747  22537200.5004   22537194.7894
        44.5004         44.5004
 -26203255.16847 -20393246.08446  20548074.8524   20548068.3554
        46.7504         39.5004
 -13096277.85147 -10194221.96344  23228686.4144   23228676.9064
        43.7504         29.0004
  -4741195.05346  -3571006.80244  24126542.6644   24126535.4774
        40.7504         24.5004
 -20216716.49447 -15737584.19148  21544245.3674   21544240.6454
        47.5004         48.5004
 -18287255.51647 -14214382.37448  21359466.5394   21359461.9304
        47.0004         48.2504
    652308.47015                  25125925.977
        32.250
  -2613513.45346  -2025695.83245  24942096.2034   24942089.3284
        37.7504         31.5004
 20  5  4  0 32  0.0000000  0 11G16G27G 6G 9G 4G22G31G 3G26G14G 7
 -23006940.07647 -18207271.78046  20495865.2114   20495857.5004
        47.0004         38.7504
    453214.85115                  25106953.492
        34.000
   -150652.05945   -118645.09245  25303646.1254   25303643.5864
        34.5004         30.0004
 -15164113.49947 -11792417.08147  22521220.9224   22521215.3324
        45.0004         44.0004
 -26238156.42447 -20420441.87346  20541433.3674   20541426.9414
        45.7504         38.5004
 -12999017.69647 -10118434.85245  23247194.8594   23247185.0984
        44.0004         30.5004
  -4647438.28146  -3497949.61344  24144383.3134   24144376.3984
        40.7504         25.0004
 -20143254.23947 -15680340.89348  21558224.6564   21558219.9654
        46.7504         48.5004
 -18235588.36047 -14174122.26548  21369298.1954   21369294.0944
        47.5004         48.2504
    740811.130 6                  25142767.305
        37.000
  -2694568.17746  -2088855.35045  24926672.2114   24926665.4844
        37.7504         31.7504
 20  5  4  0 32 30.0000000  0 11G16G27G 6G 9G 4G22G31G 3G26G14G 7
 -23033289.42947 -18227803.74346  20490851.3364   20490843.4344
        47.0004         39.0004
    357424.20846    297947.57955  25088724.1724   25088720.1484
        38.5004         32.5004
   -122515.77946    -96720.74345  25309002.0704   25308997.2114
        36.7504         31.2504
 -15247943.49447 -11857739.16147  22505268.5394   22505262.4454
        44.5004         44.0004
 -26272730.86347 -20447382.99946  20534854.1564   20534847.5824
        46.0004         39.0004
 -12901568.36847 -10042500.33944  23265738.6804   23265728.9924
        43.2504         29.7504
  -4553683.25146  -3424893.81944  24162223.4614   24162217.8204
        40.5004         26.0004
 -20069353.44747 -15622755.88048  21572287.3524   21572282.7034
        47.2504         48.2504
 -18183408.39747 -14133462.57448  21379227.9694   21379223.2704
        47.0004         48.0004
    829432.49645  23851290.76952  25159632.8054   25159625.9694
        33.7504         14.7504
  -2775532.81346  -2151944.70145  24911265.3674   24911257.9494
        38.0004         31.5004
 20  5  4  0 33  0.0000000  0 11G16G27G 6G 9G 4G22G31G 3G26G14G 7
 -23058973.05847 -18247816.97046  20485963.9384   20485955.9104
        47.0004         39.2504
    261600.01645    223279.34344  25070488.9454   25070484.6334
        35.2504         26.5004
    -93918.78246    -74437.36945  25314442.9384   25314439.1294
        36.2504         30.2504
 -15331625.09647 -11922945.61047  22489343.6094   22489338.3984
        44.5004         44.0004
 -26306972.79247 -20474065.02946  20528338.1174   20528331.6254
        46.0004         39.5004
 -12803928.28047  -9966417.17545  23284318.9224   23284309.5744
        43.0004         30.0004
  -4459926.48146  -3351836.67644  24180066.0944   24180059.4774
        40.7504         26.2504
 -19995012.23147 -15564827.68548  21586434.4304   21586430.1134
        47.0004         48.5004
 -18130713.48847 -14092401.61148  21389255.3364   21389250.5554
        46.7504         48.0004
                                  25176520.9694   25176515.0434
        26.7504         14.7504
  -2856402.79246  -2214960.27745  24895876.3524   24895869.3404
        40.0004         33.0004
 20  5  4  0 33 30.0000000  0 10G16G27G 6G 9G 4G22G31G 3G26G 7
 -23083996.03647 -18267315.39446  20481202.1884   20481194.3524
        47.0004         38.7504
    165739.63446    148582.88145  25052247.9694   25052243.9494
        40.0004         33.5004
    -64868.69346    -51800.99045  25319971.5634   25319968.1294
        37.0004         33.2504
 -15415162.36147 -11988039.57747  22473447.2664   22473442.4774
        44.2504         45.0004
 -26340886.57947 -20500491.36646  20521884.5164   20521878.1604
        46.0004         39.0004
 -12706105.77347  -9890191.88144  23302935.1024   23302924.9844
        43.5004         29.2504
  -4366174.99146  -3278783.64544  24197906.2344   24197899.6454
        40.2504         25.7504
 -19920238.80647 -15506562.70048  21600663.1414   21600658.7274
        47.7504         48.5004
 -18077511.48747 -14050945.51948  21399379.4144   21399375.1174
        47.2504         48.0004
  -2937183.76946  -2277906.51545  24880504.0784   24880497.0394
        38.5004         31.7504
 20  5  4  0 34  0.0000000  0 10G16G27G 6G 9G 4G22G31G 3G26G 7
 -23108355.75847 -18286296.99446  20476566.3914   20476558.5124
        46.5004         39.2504
     69848.03746     73862.12845  25034001.0784   25033996.5164
        39.0004         33.5004
    -35365.31446    -28811.36945  25325586.0004   25325581.9414
        36.0004         31.2504
 -15498551.83647 -12053018.37047  22457579.2894   22457573.9304
        44.5004         44.0004
 -26374468.90447 -20526659.41146  20515493.9614   20515487.6134
        46.5004         39.2504
 -12608101.97647  -9813825.33544  23321584.0234   23321574.2894
        42.5004         29.2504
  -4272427.60946  -3205733.78844  24215746.2584   24215739.4224
        41.2504         24.5004
 -19845033.72747 -15447961.35648  21614974.4534   21614969.6374
        47.2504         48.2504
 -18023802.59747 -14009094.45848  21409600.1024   21409595.8164
        46.5004         48.0004
  -3017873.24946  -2340781.46345  24865149.8284   24865142.7624
        39.0004         32.7504
 20  5  4  0 34 30.0000000  0 10G16G27G 6G 9G 4G22G31G 3G26G 7
 -23132050.15347 -18304760.16446  20472057.7664   20472050.1454
        46.7504         39.2504
    -26070.61946      -879.66045  25015747.1334   25015744.1024
        37.2504         31.7504
     -5409.24446     -5468.99845  25331286.2584   25331283.0204
        36.7504         31.5004
 -15581790.57847 -12117879.71847  22441738.8754   22441733.9264
        44.5004         44.5004
 -26407717.07747 -20552567.08246  20509167.2114   20509160.7624
        46.2504         39.5004
 -12509917.94947  -9737318.33644  23340267.5234   23340257.7344
        43.0004         29.2504
  -4178684.25746  -3132687.06844  24233584.0084   24233577.9534
        40.0004         25.5004
 -19769398.16547 -15389024.59048  21629367.3754   21629362.9064
        46.7504         48.2504
 -17969587.70847 -13966849.10448  21419916.8054   21419912.6294
        46.2504         48.0004
  -3098470.02446  -2403584.17245  24849812.5554   24849805.3634
        39.7504         31.5004
 20  5  4  0 35  0.0000000  0 10G16G27G 6G 9G 4G22G31G 3G26G 7
 -23155079.29947 -18322704.95046  20467674.9844   20467667.6884
        47.7504         39.2504
   -122013.80646    -75640.54545  24997490.1804   24997486.3954
        38.0004         32.0004
     24997.26146     18224.34745  25337071.7894   25337069.2814
        36.7504         31.5004
 -15664877.54947 -12182622.80747  22425928.4694   22425923.0314
        45.0004         44.5004
 -26440630.31547 -20578213.77146  20502903.6564   20502897.8204
        46.0004         39.2504
 -12411556.93347  -9660673.43044  23358985.3524   23358975.2894
        43.0004         28.7504
  -4084946.34846  -3059644.66044  24251423.0704   24251415.6094
        40.7504         25.0004
 -19693335.19147 -15329754.75748  21643841.4064   21643836.9804
        46.7504         48.2504
 -17914869.53547 -13924211.58548  21430329.2194   21430324.8714
        46.7504         48.0004
  -3178974.33246  -2466314.81845  24834493.5864   24834485.5744
        38.2504         31.5004
 20  5  4  0 35 30.0000000  0 10G16G27G 6G 9G 4G22G31G 3G26G 7
 -23177443.01047 -18340131.21946  20463419.6564   20463412.0314
        47.2504         39.5004
   -217978.74246   -150418.47345  24979228.8754   24979224.8134
        38.0004         34.0004
     55851.80846     42266.79045  25342943.2664   25342940.3404
        36.0004         31.0004
 -15747811.51847 -12247246.67347  22410146.8204   22410141.1174
        45.5004         45.0004
 -26473207.60247 -20603598.67746  20496704.5164   20496698.1914
        45.5004         39.5004
 -12313022.00047  -9583892.97244  23377735.3284   23377726.0824
        43.0004         28.7504
  -3991215.20046  -2986607.40744  24269258.0634   24269252.2154
        38.2504         25.2504
 -19616847.71447 -15270154.15048  21658396.7974   21658392.1254
        47.0004         48.0004
 -17859650.68947 -13881183.92847  21440837.1094   21440832.4844
        46.5004         47.5004
  -3259386.63146  -2528973.79945  24819190.9454   24819183.8594
        39.0004         31.5004
 20  5  4  0 36  0.0000000  0 10G16G27G 6G 9G 4G22G31G 3G26G 7
 -23199139.71547 -18357037.74846  20459290.7734   20459282.8954
        47.0004         39.0004
   -313961.77145   -225210.38345  24960963.0944   24960960.1804
        34.7504         31.0004
     87153.31546     66657.57845  25348900.5084   25348897.1804
        38.5004         32.0004
 -15830589.96347 -12311749.36947  22394394.3914   22394389.0474
        45.0004         45.2504
 -26505446.71247 -20628720.07046  20490569.4064   20490563.2624
        45.7504         39.5004
 -12214315.04447  -9506978.48944  23396519.5164   23396508.8164
        43.2504         28.0004
  -3897491.11446  -2913575.78643  24287094.8984   24287086.9654
        41.0004         23.0004
 -19539937.42447 -15210224.07548  21673032.5474   21673027.4694
        47.2504         48.0004
 -17803932.53347 -13837767.19447  21451439.9694   21451435.1294
        46.5004         47.2504
  -3339705.64146  -2591560.06045  24803907.3524   24803899.5944
        37.7504         31.7504
 20  5  4  0 36 30.0000000  0 10G16G27G 6G 9G 4G22G31G 3G26G 7
 -23220169.51747 -18373424.61146  20455289.3524   20455281.3984
        47.0004         38.7504
   -409960.15946   -300014.30945  24942696.4924   24942692.8244
        38.2504         34.7504
    118899.49746     91394.83845  25354941.5474   25354938.1954
        37.5004         32.0004
 -15913211.83547 -12376130.04647  22378671.7344   22378666.4224
        44.5004         44.7504
 -26537346.80347 -20653577.29946  20484499.3834   20484492.8164
        46.2504         39.2504
 -12115439.18247  -9429932.38444  23415334.6564   23415324.1844
        43.5004         29.0004
  -3803775.46246  -2840550.64944  24304927.5394   24304921.5744
        40.2504         24.5004
 -19462607.38047 -15149966.92647  21687747.9844   21687742.8404
        47.2504         47.7504
 -17747717.76747 -13793963.49947  21462137.2664   21462132.5164
        46.2504         47.2504
  -3419931.68646  -2654073.87945  24788640.8674   24788633.6454
        38.2504         32.7504
 20  5  4  0 37  0.0000000  0 10G16G27G 6G 9G 4G22G31G 3G26G 7
 -23240531.47247 -18389291.06846  20451414.8594   20451406.2814
        47.5004         39.0004
   -505970.51046   -374827.57645  24924426.3524   24924421.6604
        36.7504         30.0004
    151088.68945    116477.28545  25361065.9774   25361063.3834
        35.5004         31.5004
 -15995675.12947 -12440387.14047  22362979.5864   22362974.3754
        43.7504         44.5004
 -26568906.09347 -20678168.95746  20478494.0704   20478487.6054
        46.5004         39.7504
 -12016396.62147  -9352756.38644  23434181.3054   23434171.9454
        42.5004         28.0004
  -3710068.84746  -2767532.55144  24322759.3594   24322752.8484
        40.7504         25.2504
 -19384859.75147 -15089384.37447  21702542.7734   21702537.9264
        47.5004         47.5004
 -17691008.27547 -13749774.29647  21472928.6884   21472923.9144
        46.5004         47.2504
  -3500064.25146  -2716514.86345  24773391.5164   24773384.7034
        38.2504         33.2504
 20  5  4  0 37 30.0000000  0 10G16G27G 6G 9G 4G22G31G 3G26G 7
 -23260225.63847 -18404637.18146  20447666.5704   20447658.8714
        47.2504         39.0004
   -601990.19146   -449648.11345  24906154.1024   24906149.6604
        38.5004         32.5004
    183718.65746    141903.19245  25367276.8594   25367272.8834
        37.2504         31.0004
 -16077978.51047 -12504519.64547  22347317.4144   22347312.2344
        44.0004         44.5004
 -26600123.62347 -20702494.31546  20472553.4454   20472547.0394
        46.2504         39.5004
 -11917190.63347  -9275453.05144  23453059.3364   23453050.1134
        42.2504         28.5004
  -3616372.54946  -2694522.49744  24340589.6334   24340582.7344
        40.7504         25.2504
 -19306697.49047 -15028478.73647  21717416.2194   21717411.5354
        47.2504         47.5004
 -17633806.65247 -13705201.61247  21483814.0704   21483809.1374
        46.0004         47.0004
  -3580103.80746  -2778883.34745  24758161.0474   24758153.5084
        40.0004         33.0004
 20  5  4  0 38  0.0000000  0 10G16G27G 6G 9G 4G22G31G 3G26G 7
 -23279250.87947 -18419462.04646  20444046.5554   20444038.8444
        47.0004         39.0004
   -698015.52246   -524473.06245  24887880.6884   24887876.6684
        38.0004         31.7504
    216788.02346    167671.50745  25373568.8444   25373565.8364
        37.7504         31.2504
 -16160119.74047 -12568525.80147  22331686.6484   22331681.2504
        44.0004         45.0004
 -26630997.43947 -20726551.85046  20466678.4924   20466671.8634
        46.7504         39.5004
 -11817823.80147  -9198024.38444  23471968.3834   23471959.5744
        42.7504         28.0004
  -3522686.90646  -2621520.78243  24358416.9304   24358410.6724
        39.5004         22.7504
 -19228122.51447 -14967251.51147  21732369.0864   21732363.8954
        47.5004         47.5004
 -17576114.59547 -13660246.78347  21494792.3054   21494787.4924
        46.2504         47.2504
  -3660048.92246  -2841178.27245  24742947.3444   24742940.6994
        38.2504         33.5004
 20  5  4  0 38 30.0000000  0 10G16G27G 6G 9G 4G22G31G 3G26G 7
 -23297607.12347 -18433765.61846  20440553.2344   20440545.2544
        47.7504         38.7504
   -794043.80246   -599300.31745  24869607.1884   24869602.6604
        39.0004         31.0004
    250294.36646    193780.33345  25379944.4454   25379941.9024
        36.7504         30.7504
 -16242097.61947 -12632404.66247  22316087.4614   22316081.3244
        45.2504         45.0004
 -26661526.52547 -20750340.76246  20460868.9384   20460862.5474
        46.2504         39.7504
 -11718298.22847  -9120472.02644  23490907.7274   23490899.0354
        42.5004         28.2504
  -3429013.13746  -2548528.30343  24376243.0474   24376235.8204
        40.2504         23.7504
 -19149137.92947 -14905705.10347  21747398.6564   21747394.3364
        47.7504         47.2504
 -17517934.76047 -13614911.86347  21505863.4454   21505858.6174
        46.0004         47.5004
  -3739900.24046  -2903400.11945  24727752.7274   24727745.0204
        39.7504         32.7504
 20  5  4  0 39  0.0000000  0 10G16G27G 6G 9G 4G22G31G 3G26G 7
 -23315293.53147 -18447547.24146  20437187.5234   20437179.5824
        47.0004         39.5004
   -890071.63046   -674127.26145  24851333.6884   24851330.2234
        38.5004         32.5004
    284236.13045    220228.38645  25386403.1174   25386400.1684
        34.2504         30.2504
 -16323910.08547 -12696154.63947  22300518.1954   22300512.8164
        45.0004         45.2504
 -26691709.25147 -20773859.78746  20455125.6334   20455118.7194
        46.5004         39.7504
 -11618616.86247  -9042798.28944  23509877.1414   23509867.4024
        42.5004         28.5004
  -3335352.13246  -2475545.76544  24394066.1564   24394058.8094
        40.5004         24.2504
 -19069745.98247 -14843841.26547  21762506.5004   21762502.4264
        47.0004         47.5004
 -17459269.14147 -13569198.40547  21517027.4304   21517022.6844
        46.2504         47.2504
  -3819657.52546  -2965548.66245  24712574.8984   24712567.7894
        39.0004         31.5004
 20  5  4  0 39 30.0000000  0 10G16G27G 6G 9G 4G22G31G 3G26G 7
 -23332309.98847 -18460806.82446  20433949.6884   20433941.5864
        47.7504         39.5004
   -986095.96146   -748951.40045  24833061.2194   24833057.3324
        39.5004         31.5004
    318611.19046    247014.11445  25392945.3834   25392941.7304
        36.5004         30.0004
 -16405555.59547 -12759774.51247  22284981.6334   22284976.8364
        45.0004         45.5004
 -26721544.27647 -20797107.86646  20449448.0084   20449441.2504
        46.7504         39.7504
 -11518782.28047  -8965005.13144  23528874.1094   23528865.2384
        42.2504         27.5004
  -3241704.38746  -2402573.58743  24411887.1724   24411879.7304
        41.2504         22.5004
 -18989949.26647 -14781662.03747  21777691.8054   21777687.1524
        46.5004         47.7504
 -17400120.04747 -13523108.22147  21528283.3054   21528278.5124
        46.5004         47.5004
  -3899320.63946  -3027623.85445  24697416.6564   24697408.9144
        40.0004         33.5004
 20  5  4  0 40  0.0000000  0 10G16G27G 6G 9G 4G22G31G 3G26G 7
 -23348656.09548 -18473544.05546  20430839.0084   20430831.1024
        48.2504         39.2504
  -1082113.45146   -823770.27445  24814789.5554   24814786.1844
        38.7504         33.5004
    353417.63745    274136.00744  25399568.9144   25399564.8134
        35.7504         28.5004
 -16487032.19147 -12823262.76447  22269477.6174   22269472.1764
        44.7504         45.7504
 -26751030.06647 -20820083.82146  20443837.1884   20443830.1884
        46.5004         39.5004
 -11418797.18147  -8887094.70744  23547901.5004   23547891.3794
        42.5004         27.0004
  -3148071.34446  -2329612.84344  24429703.9694   24429697.7854
        39.7504         24.7504
 -18909750.31147 -14719169.36647  21792953.1644   21792948.7194
        47.0004         47.5004
 -17340489.59647 -13476642.94147  21539630.3834   21539625.7344
        47.0004         47.5004
  -3978888.80446  -3089625.06145  24682275.3754   24682267.3874
        40.0004         33.7504
 20  5  4  0 40 30.0000000  0 10G16G27G 6G 9G 4G22G31G 3G26G 7
 -23364331.21547 -18485758.44046  20427856.4614   20427848.3404
        47.7504         39.5004
  -1178120.97846   -898581.27845  24796518.8834   24796516.7154
        37.0004         32.5004
    388653.74746    301592.71544  25406273.5084   25406269.3364
        36.2504         29.5004
 -16568338.05547 -12886617.97847  22254005.1414   22254000.1334
        45.2504         45.5004
 -26780165.07247 -20842786.43346  20438292.6334   20438285.8094
        46.7504         40.0004
 -11318663.86947  -8809068.76544  23566956.1334   23566946.3524
        42.2504         27.0004
  -3054453.42146  -2256663.85144  24447519.8834   24447512.7304
        41.0004         24.0004
 -18829151.48747 -14656365.11247  21808290.6414   21808285.9224
        47.0004         47.5004
 -17280379.88147 -13429804.21547  21551068.5704   21551064.5314
        47.5004         47.5004
  -4058361.94446  -3151552.20845  24667151.9694   24667144.1414
        40.0004         32.7504
 20  5  4  0 41  0.0000000  0 10G16G27G 6G 9G 4G22G31G 3G26G 7
 -23379334.82648 -18497449.56646  20425001.3204   20424993.3634
        48.2504         39.7504
  -1274115.13146   -973381.91545  24778252.4144   24778249.2464
        36.7504         32.0004
    424317.48746    329382.59144  25413060.3204   25413056.2274
        36.0004         29.7504
 -16649471.37547 -12949838.73147  22238566.5944   22238560.8914
        45.7504         45.5004
 -26808947.81347 -20865214.55246  20432815.8754   20432808.4224
        46.7504         39.2504
 -11218384.77347  -8730929.23444  23586038.1334   23586028.4184
        42.7504         27.5004
  -2960851.21646  -2183727.16443  24465331.6484   24465324.6564
        40.0004         22.5004
 -18748155.36947 -14593251.28247  21823703.9694   21823699.3834
        47.0004         47.2504
 -17219793.23147 -13382593.85447  21562598.2504   21562593.7194
        46.5004         47.2504
  -4137740.38446  -3213405.56145  24652046.2034   24652039.4414
        38.7504         32.2504
 20  5  4  0 41 30.0000000  0 10G16G27G 6G 9G 4G22G31G 3G26G 7
 -23393667.31347 -18508617.74346  20422274.1174   20422266.1294
        47.5004         40.0004
  -1370093.28946  -1048170.03845  24759988.1564   24759984.9414
        37.0004         32.5004
    460406.46345    357503.79544  25419928.6564   25419923.5434
        35.5004         29.0004
 -16730430.80247 -13012923.99647  22223159.9064   22223154.6374
        45.0004         45.2504
 -26837377.35147 -20887367.45746  20427405.6884   20427399.0204
        46.2504         40.0004
 -11117963.31847  -8652678.76944  23605146.7584   23605137.9414
        42.2504         26.7504
  -2867266.13946  -2110803.75144  24483140.0084   24483133.7974
        40.0004         24.7504
 -18666765.02247 -14529830.25147  21839191.7504   21839187.3554
        46.0004         47.5004
 -17158732.30947 -13335013.93647  21574217.8364   21574213.6644
        46.0004         47.2504
  -4217023.03346  -3275184.27545  24636959.1954   24636952.2974
        40.5004         33.0004
 20  5  4  0 42  0.0000000  0 10G16G27G 6G 9G 4G22G31G 3G26G 7
 -23407328.04848 -18519262.47146  20419674.0004   20419666.3524
        48.0004         40.0004
  -1466051.91846  -1122943.01045  24741729.6484   24741724.2774
        40.7504         35.2504
    496918.84445    385955.01044  25426876.9384   25426871.7624
        35.5004         29.0004
 -16811214.41947 -13075872.26347  22207787.6564   22207781.7274
        45.0004         45.2504
 -26865452.05547 -20909243.86446  20422063.1414   20422056.5394
        46.0004         39.5004
 -11017401.94447  -8574319.29944  23624284.3834   23624274.7424
        42.5004         27.5004
  -2773698.83746  -2037894.19543  24500944.7424   24500938.4654
        40.0004         23.0004
 -18584982.76647 -14466103.84947  21854754.4454   21854749.7734
        46.2504         47.0004
 -17097199.22547 -13287066.10147  21585926.8284   21585922.8484
        46.0004         47.0004
  -4296210.18446  -3336888.61645  24621890.3754   24621883.3794
        40.7504         33.5004
 20  5  4  0 42 30.0000000  0 10G16G27G 6G 9G 4G22G31G 3G26G 7
 -23420317.25448 -18529383.94046  20417202.3754   20417194.7034
        48.2504         39.2504
  -1561988.15346  -1197698.61845  24723472.1724   24723467.7274
        38.0004         32.5004
    533852.25345    414734.23845  25433903.8134   25433900.5274
        35.5004         30.0004
 -16891820.62547 -13138682.30647  22192448.6334   22192442.9804
        45.2504         45.2504
 -26893170.76747 -20930842.87146  20416788.3134   20416781.8984
        46.7504         39.5004
 -10916703.31947  -8495852.88944  23643446.7424   23643437.5314
        42.5004         28.0004
  -2680150.14946  -1964999.24444  24518747.9454   24518740.8754
        41.5004         26.5004
 -18502811.53347 -14402074.34047  21870391.2894   21870386.5434
        47.5004         47.0004
 -17035196.51247 -13238752.31147  21597725.7344   21597721.3204
        46.0004         46.7504
  -4375302.06146  -3398518.64745  24606840.2194   24606832.4344
        39.2504         32.0004
 20  5  4  0 43  0.0000000  0 10G16G27G 6G 9G 4G22G31G 3G26G 7
 -23432633.82847 -18538981.27346  20414858.4924   20414850.5514
        47.5004         39.7504
  -1657897.95646  -1272433.47245  24705221.0474   24705217.8404
        38.0004         35.5004
    571205.48946    443840.64944  25441012.9844   25441008.6374
        36.5004         29.7504
 -16972246.94347 -13201352.16247  22177143.7584   22177138.6954
        45.5004         45.7504
 -26920531.28847 -20952162.76846  20411582.2974   20411575.6174
        46.7504         40.0004
 -10815869.36547  -8417281.01644  23662635.2664   23662625.5824
        43.0004         27.2504
  -2586620.11546  -1892118.74743  24536545.7194   24536538.3324
        40.5004         21.7504
 -18420253.15047 -14337743.15247  21886101.2344   21886096.3094
        47.0004         46.7504
 -16972725.71747 -13190073.78747  21609613.4614   21609609.2274
        46.0004         47.0004
  -4454297.77746  -3460073.77645  24591807.8284   24591800.2664
        40.5004         33.0004
 20  5  4  0 43 30.0000000  0 10G16G27G 6G 9G 4G22G31G 3G26G 7
 -23444278.14048 -18548054.76546  20412642.8834   20412634.8134
        48.0004         39.5004
  -1753778.80246  -1347145.82345  24686975.4144   24686972.5394
        36.7504         33.5004
    608975.94045    473272.13444  25448199.9774   25448196.1564
        34.7504         28.5004
 -17052492.12747 -13263880.87047  22161873.8834   22161868.8984
        45.7504         46.5004
 -26947532.84847 -20973202.95546  20406443.8054   20406437.1764
        46.7504         40.0004
 -10714903.23847  -8338606.12744  23681848.2344   23681838.4224
        42.7504         27.0004
  -2493110.41747  -1819254.19144  24554341.7034   24554333.7154
        42.2504         27.0004
 -18337310.85947 -14273112.81147  21901884.7114   21901880.0354
        46.2504         46.5004
 -16909789.76647 -13141032.80247  21621589.5164   21621585.3244
        45.7504         46.5004
  -4533197.26246  -3521553.90945  24576793.0944   24576786.3674
        40.0004         34.5004
 20  5  4  0 44  0.0000000  0 10G16G27G 6G 9G 4G22G31G 3G26G 7
 -23455249.89947 -18556604.19846  20410554.8914   20410546.7194
        47.5004         39.0004
  -1849627.31946  -1421832.89045  24668735.8134   24668733.4414
        37.5004         35.2504
    647161.46346    503027.03345  25455466.5634   25455462.9804
        36.2504         32.7504
 -17132554.30747 -13326266.97747  22146638.4774   22146633.6214
        45.5004         46.2504
 -26974173.91547 -20993962.24346  20401373.8834   20401367.2384
        46.5004         40.0004
 -10613807.51747  -8259830.27844  23701085.8054   23701076.4694
        42.0004         28.0004
  -2399621.42246  -1746405.71943  24572131.5234   24572123.2624
        38.2504         21.5004
 -18253987.18147 -14208185.29247  21917740.7194   21917736.4534
        46.2504         46.5004
 -16846390.82947 -13091631.04347  21633654.3054   21633650.1764
        46.2504         46.5004
  -4612000.20346  -3582958.83645  24561796.9304   24561790.0434
        39.5004         34.0004
 20  5  4  0 44 30.0000000  0 10G16G27G 6G 9G 4G22G31G 3G26G 7
 -23465549.46147 -18564629.82546  20408595.0394   20408587.5864
        47.2504         39.0004
  -1945440.48346  -1496492.48245  24650504.5004   24650500.0554
        40.0004         34.7504
    685759.70645    533103.57144  25462811.7664   25462808.0164
        33.5004         25.5004
 -17212431.92647 -13388509.26647  22131439.0704   22131433.3244
        46.2504         46.2504
 -27000453.36747 -21014439.75646  20396373.5164   20396366.5474
        46.7504         40.2504
 -10512585.11947  -8180955.71244  23720347.5474   23720337.9064
        42.2504         26.5004
  -2306154.48746  -1673574.33043  24589915.8364   24589909.8364
        39.0004         22.2504
 -18170285.04447 -14142962.86447  21933668.5394   21933664.1994
        45.5004         46.0004
 -16782531.57447 -13041870.61147  21645806.2034   21645801.7464
        45.5004         46.5004
  -4690707.15446  -3644288.95345  24546820.6484   24546813.3204
        41.5004         34.5004
 20  5  4  0 45  0.0000000  0 10G16G27G 6G 9G 4G22G31G 3G26G 7
 -23475175.02547 -18572130.26646  20406763.4224   20406755.9224
        47.2504         39.5004
  -2041213.39746  -1571120.75045  24632278.5084   24632275.6644
        39.5004         34.7504
                                  25470235.0944   25470231.4384
        27.5004         17.7504
 -17292121.45547 -13450604.99547  22116274.2034   22116268.7424
        46.5004         46.2504
 -27026368.09147 -21034633.06246  20391441.8674   20391435.3594
        47.0004         40.7504
 -10411236.98547  -8101983.17344  23739633.8134   23739623.7854
        42.2504         27.5004
  -2212708.23346  -1600759.13043  24607698.7584   24607692.9344
        39.5004         22.5004
 -18086205.37947 -14077446.26747  21949668.0164   21949663.7544
        45.7504         46.5004
 -16718212.62647 -12991751.96747  21658045.2274   21658041.0594
        46.2504         46.2504
  -4769315.84346  -3705542.49145  24531862.1724   24531854.6454
        41.7504         34.2504
 20  5  4  0 45 30.0000000  0  9G16G27G 9G 4G22G31G 3G26G 7
 -23484128.95247 -18579107.35646  20405059.4534   20405051.8014
        47.2504         39.5004
  -2136945.42546  -1645717.06145  24614061.3914   24614057.1214
        39.2504         32.2504
 -17371623.67647 -13512554.77247  22101145.8754   22101139.7154
        45.5004         46.5004
 -27051919.28747 -21054543.09046  20386579.5944   20386573.3714
        46.5004         40.7504
 -10309768.45447  -8022916.81144  23758942.3914   23758932.4614
        43.0004         26.2504
  -2119286.31046  -1527962.89043  24625478.1884   24625469.5514
        41.7504         22.5004
 -18001753.45947 -14011639.61247  21965739.6254   21965734.3674
        45.5004         46.2504
 -16653438.92447 -12941278.97547  21670371.7114   21670367.5204
        46.5004         46.0004
  -4847829.02946  -3766721.60445  24516921.1254   24516913.8444
        40.7504         34.0004
 20  5  4  0 46  0.0000000  0  9G16G27G 9G 4G22G31G 3G26G 7
 -23492410.45047 -18585560.47046  20403483.4304   20403475.6684
        47.0004         39.2504
  -2232632.51346  -1720278.50545  24595852.8444   24595848.4144
        38.0004         30.7504
 -17450936.04647 -13574356.62447  22086052.6804   22086047.0164
        46.5004         46.5004
 -27077104.83747 -21074168.21246  20381786.7194   20381780.4884
        47.7504         40.0004
 -10208181.07747  -7943757.85144  23778274.1484   23778264.2114
        42.5004         27.5004
  -2025888.64846  -1455185.57843  24643250.9614   24643242.4734
        39.0004         21.0004
 -17916931.22147 -13945544.38347  21981880.8984   21981876.0004
        45.5004         46.2504
 -16588212.23547 -12890453.00047  21682784.2814   21682779.2074
        46.2504         46.0004
  -4926245.30646  -3827825.22545  24501999.2194   24501992.2464
        41.2504         34.5004
 20  5  4  0 46 30.0000000  0  9G16G27G 9G 4G22G31G 3G26G 7
 -23500019.15547 -18591489.33646  20402035.1804   20402027.5704
        47.0004         39.0004
  -2328270.92646  -1794801.87945  24577653.0394   24577650.0474
        36.5004         30.5004
 -17530056.11347 -13636008.61547  22070996.5944   22070990.8714
        46.0004         46.2504
 -27101922.74347 -21093506.85046  20377064.1724   20377057.9414
        47.0004         40.7504
 -10106477.03647  -7864507.97744  23797627.4384   23797618.6174
        42.0004         27.0004
  -1932515.45246  -1382427.32743  24661017.1174   24661012.5864
        38.7504         21.7504
 -17831740.77647 -13879162.24047  21998091.4534   21998087.2074
        46.2504         46.7504
 -16522534.07847 -12839275.23047  21695282.4144   21695277.9024
        45.7504         46.0004
  -5004563.98746  -3888852.78845  24487095.2194   24487088.4654
        41.0004         34.2504
 20  5  4  0 47  0.0000000  0  9G16G27G 9G 4G22G31G 3G26G 7
 -23506954.69548 -18596893.65546  20400716.1724   20400707.8984
        48.0004         39.0004
  -2423857.07446  -1869284.59844  24559462.9304   24559458.2624
        37.0004         28.5004
 -17608981.78947 -13697509.14747  22055977.9064   22055971.9264
        46.0004         46.0004
 -27126371.38647 -21112557.75646  20372412.1804   20372405.4104
        47.0004         40.5004
 -10004658.93347  -7785169.26044  23817004.3524   23816993.6644
        43.5004         25.2504
  -1839167.31846  -1309688.60143  24678782.4774   24678774.8404
        40.0004         21.7504
 -17746184.56647 -13812495.09247  22014372.4694   22014368.5394
        45.7504         46.7504
 -16456406.72547 -12787747.43847  21707865.8444   21707861.1174
        45.7504         46.0004
  -5082785.06247  -3949804.30445  24472210.5474   24472203.4344
        42.0004         33.5004
 20  5  4  0 47 30.0000000  0  9G16G27G 9G 4G22G31G 3G26G 7
 -23513217.55447 -18601773.80746  20399524.1094   20399516.2894
        47.5004         39.5004
  -2519388.30246  -1943724.48645  24541285.2034   24541281.8094
        38.7504         35.2504
 -17687711.90547 -13758857.28547  22040995.5944   22040989.8204
        46.2504         46.2504
 -27150450.04447 -21131320.36046  20367829.7424   20367823.2464
        47.2504         40.7504
  -9902729.70447  -7705743.90444  23836399.9694   23836390.0704
        43.0004         26.2504
  -1745845.49646  -1236970.35343  24696539.5944   24696533.4804
        38.5004         22.0004
 -17660265.93247 -13745545.55247  22030722.8594   22030718.0594
        45.5004         46.5004
 -16389833.28047 -12735872.04147  21720534.4064   21720530.2424
        46.2504         46.0004
  -5160908.37846  -4010679.63445  24457343.9064   24457336.9064
        40.5004         33.0004
 20  5  4  0 48  0.0000000  0  9G16G27G 9G 4G22G31G 3G26G 7
 -23518808.02747 -18606130.02746  20398459.8914   20398452.3134
        47.5004         39.0004
  -2614861.23246  -2018118.90746  24523118.2114   24523113.9344
        39.5004         36.0004
 -17766244.53947 -13820051.55347  22026051.4454   22026045.7154
        47.0004         46.2504
 -27174157.28547 -21149793.54746  20363318.4844   20363312.0394
        46.5004         40.5004
  -9800691.99346  -7626234.05044  23855816.0314   23855806.9884
        41.5004         26.0004
  -1652550.79046  -1164273.28244  24714294.0314   24714287.6054
        40.5004         24.0004
 -17573987.50647 -13678315.64147  22047140.5474   22047136.1884
        45.0004         46.2504
 -16322815.97047 -12683650.77847  21733287.2344   21733282.9104
        45.7504         46.2504
  -5238934.57946  -4071479.28245  24442495.9304   24442488.7344
        40.7504         32.7504
 20  5  4  0 48 30.0000000  0  9G16G27G 9G 4G22G31G 3G26G 7
 -23523725.95047 -18609962.17246  20397524.5084   20397516.8204
        47.5004         39.5004
  -2710272.35946  -2092465.21945  24504960.2194   24504955.3244
        38.0004         32.0004
 -17844577.45147 -13881090.19047  22011145.5084   22011139.7034
        47.5004         46.7504
 -27197491.34847 -21167975.95346  20358878.2814   20358871.9774
        47.7504         40.7504
  -9698548.31146  -7546641.60244  23875254.3284   23875245.2234
        41.7504         26.7504
  -1559283.10946  -1091597.23643  24732041.9064   24732035.2584
        38.5004         22.0004
 -17487351.66847 -13610807.21647  22063626.9384   22063622.2584
        45.5004         45.7504
 -16255356.92347 -12631085.30847  21746124.2974   21746119.8984
        46.5004         46.0004
  -5316862.20446  -4132202.13845  24427667.3134   24427659.7814
        40.2504         33.2504
 20  5  4  0 49  0.0000000  0  9G16G27G 9G 4G22G31G 3G26G 7
 -23527972.47447 -18613271.15946  20396716.3054   20396708.7194
        46.7504         39.2504
  -2805619.13146  -2166761.40545  24486816.6724   24486813.2854
        38.7504         34.7504
 -17922709.67747 -13941972.45047  21996277.2664   21996272.0744
        46.7504         47.0004
 -27220451.76347 -21185867.19746  20354509.2664   20354502.6804
        47.0004         40.7504
  -9596302.07147  -7466969.25944  23894711.3984   23894701.7194
        42.0004         25.2504
  -1466044.32346  -1018943.71743  24749785.7584   24749778.2664
        40.0004         21.5004
 -17400362.00347 -13543023.09047  22080180.6334   22080175.8594
        45.2504         45.5004
 -16187459.38047 -12578178.14547  21759045.1094   21759040.4384
        45.5004         46.2504
  -5394692.06046  -4192848.80245  24412856.9924   24412848.9534
        41.2504         33.5004
 20  5  4  0 49 30.0000000  0  9G16G27G 9G 4G22G31G 3G26G 7
 -23531546.27847 -18616055.94846  20396036.2114   20396028.4734
        47.0004         39.5004
  -2900897.21946  -2241004.01945  24468685.5944   24468681.7544
        38.5004         34.5004
 -18000638.11847 -14002695.91047  21981448.0634   21981442.2384
        46.2504         47.0004
 -27243035.96747 -21203465.29646  20350211.4454   20350204.8284
        47.0004         40.7504
  -9493954.46546  -7387217.91144  23914187.7734   23914177.7154
        41.5004         25.7504
  -1372833.82946   -946312.30043  24767522.1884   24767515.5354
        37.0004         19.2504
 -17313020.07647 -13474964.46247  22096800.8364   22096796.3164
        45.0004         45.0004
 -16119124.61147 -12524930.29347  21772048.7584   21772044.2384
        46.0004         46.0004
  -5472423.07046  -4253418.43945  24398065.0314   24398057.0314
        40.7504         34.5004
 20  5  4  0 50  0.0000000  0  9G16G27G 9G 4G22G31G 3G26G 7
 -23534448.86047 -18618317.70446  20395484.2584   20395476.0314
        47.2504         39.7504
  -2996104.44046  -2315191.44046  24450569.3914   24450565.5784
        38.7504         36.7504
 -18078362.23147 -14063260.15047  21966657.2114   21966651.7234
        46.5004         47.0004
 -27265243.95047 -21220770.22846  20345985.5394   20345978.4884
        47.5004         40.7504
  -9391509.36347  -7307390.60444  23933681.7814   23933672.4384
        42.0004         25.5004
  -1279653.99846   -873704.60743  24785253.5004   24785246.8404
        39.5004         21.5004
 -17225329.87547 -13406634.46447  22113488.3054   22113483.2154
        45.0004         45.0004
 -16050356.32647 -12471344.63647  21785135.0704   21785130.7934
        45.5004         46.0004
  -5550056.25146  -4313911.82745  24383291.9384   24383284.6804
        40.7504         34.2504
 20  5  4  0 50 30.0000000  0  9G16G27G 9G 4G22G31G 3G26G 7
 -23536679.71547 -18620056.04246  20395059.2814   20395051.5204
        46.5004         39.0004
  -3091236.35346  -2389320.17145  24432465.2114   24432461.6174
        36.7504         32.7504
 -18155878.86347 -14123662.71247  21951906.3984   21951900.9884
        46.2504         47.0004
 -27287072.93247 -21237779.84046  20341831.6094   20341824.9414
        47.0004         41.0004
  -9288968.40146  -7227488.56044  23953194.5084   23953185.2464
        40.5004         26.0004
  -1186503.74046   -801120.12243  24802981.5704   24802973.0904
        40.5004         19.2504
 -17137292.96847 -13338034.30347  22130240.9534   22130236.5904
        45.2504         45.5004
 -15981155.69547 -12417422.07747  21798303.4304   21798299.0234
        45.5004         46.0004
  -5627590.43246  -4374328.11845  24368537.4224   24368530.3404
        40.5004         35.7504
 20  5  4  0 51  0.0000000  0  9G16G27G 9G 4G22G31G 3G26G 7
 -23538239.49247 -18621271.46246  20394762.5704   20394754.8324
        47.2504         39.5004
  -3186290.53346  -2463388.26545  24414376.6414   24414374.4884
        36.7504         34.0004
 -18233186.99647 -14183902.81347  21937195.7734   21937190.0164
        46.2504         47.0004
 -27308522.54047 -21254493.83946  20337749.7114   20337743.2934
        47.5004         41.5004
  -9186334.88246  -7147514.45744  23972725.7274   23972715.8714
        41.7504         25.0004
  -1093384.96946   -728560.03643  24820699.1564   24820693.3164
        39.5004         23.0004
 -17048912.89347 -13269166.74747  22147058.8594   22147054.3324
        44.7504         45.2504
 -15911526.09047 -12363165.26847  21811553.4384   21811549.2034
        45.0004         46.0004
  -5705026.35746  -4434667.81445  24353802.2734   24353794.7344
        41.2504         35.5004
 20  5  4  0 51 30.0000000  0  9G16G27G 9G 4G22G31G 3G26G 7
 -23539128.01247 -18621963.82846  20394593.5944   20394585.6684
        47.5004         39.2504
  -3281263.12346  -2537392.87245  24396304.0004   24396300.4574
        37.7504         32.2504
 -18310284.30847 -14243978.64147  21922523.7974   21922518.7934
        46.2504         47.2504
 -27329591.03447 -21270910.85446  20333740.5784   20333734.1884
        47.0004         40.7504
  -9083611.11646  -7067469.99744  23992272.6954   23992263.2504
        41.2504         25.2504
  -1000297.67746   -656024.61943  24838415.2344   24838407.5274
        40.0004         22.5004
 -16960192.07547 -13200033.66547  22163941.6414   22163937.5864
        45.0004         45.5004
 -15841469.52147 -12308575.75347  21824884.3364   21824880.5164
        45.5004         45.5004
  -5782362.93246  -4494930.08745  24339085.3984   24339079.1254
        41.0004         35.5004
 20  5  4  0 52  0.0000000  0  9G16G27G 9G 4G22G31G 3G26G 7
 -23539346.02147 -18622133.70846  20394552.0704   20394544.1484
        47.2504         39.7504
  -3376150.99346  -2611331.44145  24378247.3054   24378243.4024
        39.0004         32.2504
 -18387169.04147 -14303888.82947  21907893.6884   21907888.0044
        46.0004         47.5004
 -27350277.17247 -21287029.92846  20329804.5164   20329797.5984
        46.5004         41.0004
  -8980799.64346  -6987357.19344  24011837.9694   24011827.6844
        41.5004         25.5004
   -907242.79246   -583514.34743  24856121.7114   24856114.9264
        40.0004         21.7504
 -16871133.31547 -13130637.25947  22180889.2424   22180884.9614
        45.0004         45.5004
 -15770988.52747 -12253655.53047  21838297.1174   21838292.5864
        45.0004         45.5004
  -5859600.35646  -4555115.11445  24324387.1564   24324380.4734
        40.2504         35.5004
 20  5  4  0 52 30.0000000  0  9G16G27G 9G 4G22G31G 3G26G 7
 -23538893.46748 -18621781.07746  20394638.1414   20394630.3204
        48.0004         39.0004
  -3470950.59946  -2685201.26745  24360207.4534   24360205.3094
        38.5004         34.0004
 -18463839.07647 -14363631.72447  21893303.6174   21893298.1884
        45.7504         47.2504
 -27370579.42747 -21302849.88046  20325940.9774   20325934.0474
        47.2504         41.0004
  -8877903.01446  -6907178.04543  24031418.3594   24031408.3954
        41.0004         23.0004
   -814220.65846   -511029.63743  24873823.0084   24873816.8914
        38.5004         22.5004
 -16781739.32547 -13060979.62947  22197900.9454   22197896.2854
        45.7504         45.5004
 -15700085.48947 -12198406.42847  21851789.2734   21851784.8914
        45.2504         45.5004
  -5936738.57746  -4615222.81245  24309708.0944   24309702.0314
        40.0004         34.7504
 20  5  4  0 53  0.0000000  0  9G16G27G 9G 4G22G31G 3G26G 7
 -23537771.61547 -18620906.91346  20394851.6334   20394843.8054
        46.5004         39.0004
  -3565659.25646  -2759000.21145  24342186.1884   24342180.7544
        40.5004         34.5004
 -18540293.12247 -14423206.31047  21878754.8834   21878749.5824
        46.0004         47.5004
 -27390497.02947 -21318370.10246  20322150.5314   20322143.9344
        46.7504         41.0004
  -8774924.41346  -6826935.01444  24051013.5864   24051004.5784
        41.0004         25.0004
   -721232.61546   -438571.48243  24891516.8914   24891511.5434
        38.0004         21.0004
 -16692013.36647 -12991063.32747  22214974.9304   22214970.6604
        45.2504         45.2504
 -15628763.36647 -12142830.75947  21865361.0084   21865356.8794
        45.5004         45.5004
  -6013777.41646  -4675253.08545  24295049.0314   24295042.1414
        40.2504         34.5004
 20  5  4  0 53 30.0000000  0  9G16G27G 9G 4G22G31G 3G26G 7
 -23535979.85347 -18619510.74446  20395192.5634   20395184.7814
        46.5004         39.2504
  -3660272.64446  -2832724.90345  24324182.2584   24324177.3714
        40.5004         35.5004
 -18616528.43947 -14482610.44947  21864248.0784   21864242.3244
        45.5004         47.5004
 -27410027.86347 -21333588.94746  20318434.0704   20318427.0944
        47.0004         40.7504
  -8671866.00146  -6746629.80344  24070625.2734   24070616.1484
        40.7504         24.2504
   -628278.36146   -366139.70243  24909206.7814   24909200.5084
        38.0004         18.2504
 -16601957.48547 -12920889.95047  22232112.4694   22232107.5634
        45.7504         45.0004
 -15557023.89147 -12086929.88947  21879013.3834   21879008.4534
        45.5004         45.2504
  -6090716.04146  -4735205.28345  24280407.6094   24280400.7814
        41.2504         34.5004
 20  5  4  0 54  0.0000000  0  9G16G27G 9G 4G22G31G 3G26G 7
 -23533519.37647 -18617593.50246  20395660.7274   20395652.9454
        46.5004         39.5004
  -3754788.42046  -2906373.54746  24306196.8444   24306192.2544
        40.5004         37.0004
 -18692543.90947 -14541843.27547  21849782.3674   21849777.3834
        46.2504         47.5004
 -27429171.40847 -21348505.99746  20314791.0634   20314784.6994
        47.0004         41.2504
  -8568730.61246  -6666264.59844  24090250.5474   24090241.7584
        40.7504         26.2504
   -535359.15146   -293735.21743  24926889.1484   24926882.3554
        37.5004         20.0004
 -16511575.20747 -12850462.22347  22249310.9064   22249306.3714
        45.5004         44.5004
 -15484870.34347 -12030706.35447  21892743.2274   21892738.8714
        45.5004         45.0004
  -6167555.46746  -4795080.15945  24265785.6414   24265778.4614
        41.2504         34.2504
 20  5  4  0 54 30.0000000  0  9G16G27G 9G 4G22G31G 3G26G 7
 -23530390.31847 -18615155.28346  20396256.3754   20396248.5044
        47.7504         39.5004
  -3849202.65046  -2979943.06245  24288228.3204   24288226.9494
        37.0004         35.2504
 -18768337.13847 -14600902.93647  21835359.6334   21835353.9774
        46.2504         47.5004
 -27447925.88347 -21363119.88746  20311222.2504   20311215.9734
        47.0004         41.0004
  -8465520.65546  -6585841.29944  24109891.6174   24109882.5164
        41.0004         25.0004
   -442475.58346   -221358.48643  24944565.2894   24944558.2114
        41.0004         22.0004
 -16420868.94947 -12779782.05447  22266571.8594   22266567.6174
        45.0004         44.7504
 -15412304.73247 -11974161.74047  21906552.4694   21906547.4734
        45.2504         45.0004
  -6244295.14947  -4854877.33945  24251183.1644   24251176.0124
        42.0004         34.5004
 20  5  4  0 55  0.0000000  0  9G16G27G 9G 4G22G31G 3G26G 7
 -23526593.99347 -18612197.12246  20396978.5314   20396970.6994
        47.5004         39.0004
  -3943512.71746  -3053431.37045  24270283.4064   24270277.4454
        40.0004         34.7504
 -18843906.84747 -14659788.43247  21820978.9224   21820973.6844
        46.0004         47.5004
 -27466290.66347 -21377430.12046  20307727.8674   20307721.1484
        47.0004         41.2504
  -8362239.17746  -6505362.28443  24129544.8984   24129536.4144
        40.2504         22.7504
   -349628.91046   -149010.37243  24962232.3754   24962225.7464
        40.0004         22.7504
 -16329842.16747 -12708852.12747  22283893.8524   22283889.1174
        45.0004         44.5004
 -15339330.26547 -11917298.53947  21920438.6174   21920434.2074
        46.0004         44.7504
  -6320934.89646  -4914596.66045  24236598.2894   24236590.8014
        41.2504         34.0004
 20  5  4  0 55 30.0000000  0  9G16G27G 9G 4G22G31G 3G26G 7
 -23522129.49547 -18608718.30146  20397828.2894   20397820.1174
        46.7504         39.0004
  -4037713.96746  -3126834.91845  24252356.4844   24252353.1684
        37.2504         34.5004
 -18919249.90347 -14718497.31348  21806642.2584   21806636.0784
        46.2504         48.0004
 -27484263.21547 -21391434.71446  20304307.6724   20304301.0984
        47.7504         41.0004
  -8258887.81446  -6424828.79943  24149211.9534   24149203.5394
        40.0004         22.7504
   -256818.26145    -76690.50543  24979891.5864   24979887.0314
        34.5004         21.5004
 -16238496.44747 -12637673.67847  22301276.6174   22301272.0984
        45.0004         44.7504
 -15265948.23247 -11860117.75347  21934402.9534   21934398.6524
        45.5004         45.0004
  -6397473.73046  -4974237.32245  24222033.1484   24222026.1884
        41.0004         34.0004
 20  5  4  0 56  0.0000000  0  9G16G27G 9G 4G22G31G 3G26G 7
 -23516998.68048 -18604720.26946  20398804.7734   20398796.6414
        48.0004         39.0004
  -4131804.19346  -3200151.92345  24234451.3984   24234448.5434
        38.0004         33.0004
 -18994365.54647 -14777028.98048  21792348.1484   21792342.3834
        46.7504         48.2504
 -27501843.38947 -21405133.55746  20300962.3284   20300955.9384
        47.2504         41.0004
  -8155470.08746  -6344243.60043  24168892.3914   24168883.2934
        41.5004         22.5004
   -164045.48746     -4400.10543  24997547.8914   24997541.9384
        39.0004         23.0004
 -16146835.77047 -12566249.79547  22318718.8524   22318714.3834
        44.5004         44.5004
 -15192162.24947 -11802622.19447  21948443.0474   21948439.5824
        45.0004         44.7504
  -6473912.91246  -5033800.34045  24207487.9064   24207480.7194
        40.7504         35.7504
 20  5  4  0 56 30.0000000  0  9G16G27G 9G 4G22G31G 3G26G 7
 -23511201.01848 -18600202.62246  20399908.1724   20399900.1484
        48.0004         39.7504
  -4225779.26146  -3273379.23645  24216569.4774   24216564.7194
        39.7504         34.0004
 -19069250.80747 -14835381.14148  21778098.1334   21778091.9494
        46.0004         48.0004
 -27519028.94648 -21418524.91146  20297691.9224   20297685.0704
        48.2504         41.0004
  -8051987.90546  -6263608.17643  24188585.3204   24188575.1524
        41.5004         22.2504
    -71310.23846     67861.00843  25015194.8834   25015188.4384
        38.0004         20.2504
 -16054862.01247 -12494581.97447  22336221.1484   22336216.3524
        45.0004         44.2504
 -15117974.05347 -11744813.23947  21962561.1094   21962556.9964
        45.5004         44.5004
  -6550251.09946  -5093284.67745  24192961.3984   24192954.1024
        40.5004         34.7504
 20  5  4  0 57  0.0000000  0  9G16G27G 9G 4G22G31G 3G26G 7
 -23504737.86647 -18595166.40746  20401137.9534   20401129.8014
        46.5004         39.7504
  -4319636.16346  -3346514.45445  24198709.0944   24198705.1174
        40.7504         35.5004
 -19143904.38247 -14893552.76147  21763891.3284   21763886.0314
        46.2504         47.7504
 -27535819.22847 -21431608.25146  20294496.4534   20294490.2154
        47.0004         41.0004
  -7948444.27246  -6182924.88543  24208287.8984   24208279.3714
        40.7504         22.5004
     21386.12846    140091.95743  25032834.3444   25032827.7624
        38.5004         19.5004
 -15962578.62447 -12422672.86647  22353782.3364   22353777.3754
        44.5004         44.2504
 -15043386.46347 -11686693.06447  21976754.6804   21976750.2894
        44.5004         44.7504
  -6626488.79646  -5152690.68545  24178453.8444   24178446.5204
        41.5004         35.7504
 20  5  4  0 57 30.0000000  0  9G16G27G 9G 4G22G31G 3G26G 7
 -23497609.98947 -18589612.23046  20402494.1094   20402486.2344
        47.2504         39.7504
  -4413371.67046  -3419555.10845  24180871.7664   24180867.2234
        40.7504         34.2504
 -19218324.43047 -14951542.40947  21749730.3054   21749724.4454
        47.0004         47.7504
 -27552212.95847 -21444382.60346  20291377.3594   20291370.6484
        47.5004         41.2504
  -7844841.89246  -6102195.79243  24228003.4844   24227993.9534
        40.2504         22.5004
    114043.30546    212292.28643  25050465.2114   25050460.2034
        38.2504         21.2504
 -15869988.49247 -12350524.74547  22371401.6254   22371396.4534
        44.5004         44.5004
 -14968402.26447 -11628263.84147  21991024.1724   21991019.9024
        44.5004         44.5004
  -6702626.07146  -5212018.44245  24163964.8444   24163958.0864
        40.5004         35.7504
 20  5  4  0 58  0.0000000  0  9G16G27G 9G 4G22G31G 3G26G 7
 -23489817.29447 -18583540.00946  20403977.0634   20403969.0554
        47.2504         39.2504
  -4506982.10746  -3492498.31845  24163057.8204   24163054.1644
        40.5004         35.5004
 -19292508.56247 -15009348.23248  21735612.9534   21735607.7664
        47.5004         48.0004
 -27568208.60147 -21456846.75146  20288333.3524   20288326.4694
        47.0004         41.7504
  -7741182.91146  -6021422.59043  24247729.0634   24247719.8244
        40.5004         22.2504
    206660.90846    284461.74843  25068089.8134   25068084.9064
        37.5004         20.0004
 -15777094.14547 -12278139.56647  22389078.5634   22389074.2504
        45.0004         44.0004
 -14893023.64147 -11569527.26747  22005368.0084   22005363.8324
        45.0004         44.5004
  -6778662.16546  -5271267.34846  24149496.4534   24149489.9494
        41.5004         36.2504
 20  5  4  0 58 30.0000000  0  9G16G27G 9G 4G22G31G 3G26G 7
 -23481361.88648 -18576951.39346  20405586.2664   20405578.1174
        48.2504         39.2504
  -4600464.86946  -3565342.03546  24145268.9224   24145265.2234
        40.7504         36.2504
 -19366455.63947 -15066969.32948  21721541.1954   21721536.0744
        46.7504         48.2504
 -27583805.60547 -21469000.27446  20285365.3364   20285358.8954
        47.0004         41.0004
  -7637470.96346  -5940608.14243  24267464.6724   24267455.1954
        41.0004         22.5004
    299237.43346    356599.27943  25085707.8524   25085701.5904
        39.5004         21.0004
 -15683899.17447 -12205520.14447  22406812.8834   22406808.5664
        45.2504         44.0004
 -14817253.89547 -11510485.92247  22019786.6884   22019782.0664
        45.5004         44.7504
  -6854597.57146  -5330437.81746  24135045.9224   24135039.5314
        41.5004         36.0004
 20  5  4  0 59  0.0000000  0  9G16G27G 9G 4G22G31G 3G26G 7
 -23472244.02247 -18569846.57946  20407321.1564   20407313.0984
        47.5004         39.5004
  -4693816.00446  -3638083.15745  24127504.1644   24127500.3444
        38.2504         35.0004
 -19440163.15347 -15124403.75548  21707515.9534   21707509.7664
        46.5004         48.5004
 -27599002.20447 -21480841.78646  20282473.5004   20282467.0124
        46.0004         41.0004
  -7533708.16846  -5859754.07443  24287210.1644   24287201.1994
        39.7504         22.7504
    391773.09046    428704.92643  25103317.8834   25103311.2854
        40.0004         22.7504
 -15590405.95147 -12132668.31047  22424604.3674   22424599.9024
        45.0004         44.2504
 -14741095.06047 -11451141.39547  22034279.0864   22034274.6914
        44.7504         44.5004
  -6930431.76246  -5389529.40846  24120615.5314   24120608.0394
        41.0004         36.0004
 20  5  4  0 59 30.0000000  0  9G16G27G 9G 4G22G31G 3G26G 7
 -23462463.75048 -18562225.58446  20409182.4454   20409174.6294
        48.5004         39.2504
  -4787031.77646  -3710718.77846  24109766.5084   24109762.9884
        40.0004         37.2504
 -19513628.70347 -15181649.64548  21693535.2734   21693529.8874
        47.0004         48.5004
 -27613796.79047 -21492370.04846  20279658.0864   20279651.7734
        46.2504         41.5004
  -7429896.16746  -5778861.63243  24306964.1334   24306956.0164
        41.0004         23.7504
    484267.73646    500778.65943  25120918.3054   25120911.8954
        37.2504         21.0004
 -15496616.90247 -12059585.96747  22442451.3754   22442447.3554
        45.0004         43.7504
 -14664549.26047 -11391495.34047  22048845.2114   22048841.4454
        44.5004         44.5004
  -7006164.68146  -5448542.08546  24106203.7424   24106196.9574
        41.0004         36.0004
 20  5  4  1  0  0.0000000  0  9G16G27G 9G 4G22G31G 3G26G 7
 -23452022.27448 -18554089.38046  20411169.4454   20411161.4304
        48.0004         39.0004
  -4880109.19646  -3783246.66846  24092053.9774   24092050.0824
        38.7504         36.5004
 -19586850.86247 -15238705.87148  21679601.2974   21679595.8954
        47.0004         48.5004
 -27628188.51447 -21503584.39546  20276919.2814   20276912.8284
        47.0004         41.2504
  -7326038.13546  -5697933.37244  24326728.1024   24326719.2624
        40.0004         24.5004
    576720.18946    572819.44343  25138511.1564   25138504.6884
        39.2504         22.0004
 -15402535.35547 -11986275.70647  22460355.2894   22460350.5434
        46.2504         44.2504
 -14587619.49147 -11331550.08547  22063484.4844   22063480.7974
        44.5004         44.5004
  -7081796.15846  -5507475.69946  24091811.4454   24091804.8634
        40.5004         36.0004
 20  5  4  1  0 30.0000000  0  9G16G27G 9G 4G22G31G 3G26G 7
 -23440920.80547 -18545438.90146  20413281.7974   20413274.2664
        47.7504         38.7504
  -4973044.88646  -3855664.01346  24074369.5314   24074365.4924
        40.2504         37.2504
 -19659827.57147 -15295570.83348  21665714.5394   21665709.6804
        45.7504         48.5004
 -27642176.16647 -21514483.88446  20274257.6804   20274251.5554
        47.7504         41.5004
  -7222136.80946  -5616971.34943  24346500.2194   24346490.5394
        39.5004         22.0004
    669129.90445    644826.97943  25156095.1724   25156090.1454
        35.2504         21.2504
 -15308164.22447 -11912739.78647  22478312.5084   22478308.6454
        45.0004         44.0004
 -14510308.40147 -11271307.70747  22078196.4694   22078192.3404
        45.0004         44.2504
  -7157326.43246  -5566330.45946  24077438.5474   24077432.2894
        41.0004         36.7504
 20  5  4  1  1  0.0000000  0  9G16G27G 9G 4G22G31G 3G26G 7
 -23429159.80448 -18536274.48646  20415519.6414   20415512.0984
        48.2504         39.2504
  -5065835.48546  -3927968.36446  24056711.0864   24056708.4454
        40.7504         37.0004
 -19732556.86147 -15352243.00848  21651874.3054   21651869.2544
        46.5004         48.5004
 -27655758.53147 -21525067.55846  20271673.1804   20271666.6604
        47.5004         41.5004
  -7118194.73746  -5535977.55843  24366278.9224   24366270.4104
        39.5004         20.7504
    761496.45146    716800.76643  25173671.4924   25173666.7584
        36.5004         22.5004
 -15213506.34247 -11838980.43847  22496325.9064   22496321.6054
        45.0004         43.5004
 -14432618.46947 -11210770.12347  22092980.4224   22092976.2704
        44.0004         44.0004
  -7232754.77946  -5625105.82746  24063085.2894   24063078.1054
        41.0004         36.0004
 20  5  4  1  1 30.0000000  0  9G16G27G 9G 4G22G31G 3G26G 7
 -23416740.73947 -18526597.30546  20417882.9924   20417875.0984
        47.7504         39.2504
  -5158477.76346  -4000157.14145  24039082.8674   24039077.7664
        40.5004         35.5004
 -19805036.95247 -15408720.99548  21638082.1334   21638077.0904
        47.2504         48.7504
 -27668934.53448 -21535334.58046  20269165.7894   20269159.1954
        48.0004         41.7504
  -7014214.77046  -5454954.23743  24386066.7114   24386056.9264
        39.2504         20.5004
    853819.09646    788740.51443  25191241.5234   25191234.7074
        40.0004         21.7504
 -15118564.80047 -11765000.04847  22514392.5164   22514388.2154
        45.0004         43.0004
 -14354552.49547 -11149939.51647  22107835.5084   22107831.7584
        44.2504         44.0004
  -7308081.44346  -5683801.91445  24048750.7034   24048743.0944
        40.5004         34.5004
 20  5  4  1  2  0.0000000  0  9G16G27G 9G 4G22G31G 3G26G 7
 -23403663.55047 -18516407.29946  20420371.6484   20420364.0004
        47.2504         39.0004
  -5250967.71646  -4072227.21945  24021483.0554   24021477.9884
        41.0004         35.5004
 -19877265.22947 -15465002.76848  21624337.3984   21624332.1484
        46.5004         49.0004
 -27681702.35847 -21545283.54846  20266735.9534   20266729.5784
        46.7504         41.7504
  -6910199.04146  -5373903.08043  24405859.5784   24405850.4264
        39.2504         21.0004
    946097.94946    860646.06643  25208801.3524   25208793.9024
        39.0004         19.2504
 -15023341.86247 -11690800.38847  22532512.7344   22532508.3404
        44.7504         42.5004
 -14276112.39847 -11088817.38647  22122762.5394   22122758.4964
        44.0004         43.7504
  -7383305.89446  -5742418.41245  24034436.1174   24034428.5394
        40.5004         34.7504
 20  5  4  1  2 30.0000000  0  9G16G27G 9G 4G22G31G 3G26G 7
 -23389929.73047 -18505705.62646  20422985.1484   20422977.5784
        47.7504         39.7504
  -5343302.20246  -4144176.18945  24003911.3204   24003907.3134
        38.7504         33.7504
 -19949240.03147 -15521087.03048  21610641.0004   21610635.9884
        46.2504         48.7504
 -27694061.11747 -21554913.76946  20264383.9774   20264377.8834
        47.0004         41.5004
  -6806149.97047  -5292825.97243  24425660.8364   24425651.4224
        42.0004         22.7504
   1038332.10946    932516.81243  25226352.9304   25226346.0234
        38.2504         19.7504
 -14927840.74247 -11616383.95647  22550686.2894   22550681.4064
        45.0004         42.7504
 -14197301.08747 -11027406.00347  22137759.7034   22137755.8714
        44.7504         43.7504
  -7458428.39446  -5800955.43845  24020141.1564   24020134.2194
        41.5004         35.5004
 20  5  4  1  3  0.0000000  0  9G16G27G 9G 4G22G31G 3G26G 7
 -23375539.87747 -18494492.75446  20425723.5864   20425715.6334
        47.0004         38.7504
  -5435477.77646  -4216001.28145  23986371.5004   23986367.0704
        39.7504         34.7504
 -20020959.21847 -15576972.10648  21596993.5784   21596988.2664
        47.0004         48.5004
 -27706009.53147 -21564224.23546  20262110.8054   20262104.5984
        46.7504         41.5004
  -6702070.34647  -5211725.00144  24445466.7114   24445457.0634
        42.2504         24.0004
   1130521.00446   1004352.28343  25243895.9694   25243890.0474
        37.5004         20.2504
 -14832064.26147 -11541752.95147  22568912.0004   22568907.0314
        45.0004         43.2504
 -14118121.04847 -10965707.29247  22152827.5004   22152822.7854
        44.2504         43.7504
  -7533448.74146  -5859412.88345  24005863.9454   24005858.3874
        41.2504         35.0004
 20  5  4  1  3 30.0000000  0  9G16G27G 9G 4G22G31G 3G26G 7
 -23360495.00347 -18482769.48646  20428586.1174   20428578.4804
        47.0004         39.0004
  -5527490.99946  -4287699.91146  23968862.2664   23968857.5044
        41.2504         36.0004
 -20092420.87047 -15632656.52448  21583394.5864   21583389.2584
        47.0004         49.0004
 -27717546.42147 -21573214.03446  20259915.5634   20259909.1564
        47.2504         41.7504
  -6597962.66447  -5130602.20544  24465278.0084   24465267.8014
        42.2504         25.5004
   1222664.41946   1076152.33342  25261430.5704   25261423.4224
        37.7504         17.7504
 -14736015.31047 -11466909.65147  22587189.9924   22587184.9224
        45.2504         43.0004
 -14038574.88347 -10903723.29147  22167964.6564   22167960.1804
        44.5004         43.5004
  -7608366.63046  -5917790.45645  23991607.7894   23991600.5514
        40.2504         34.5004
 20  5  4  1  4  0.0000000  0  9G16G27G 9G 4G22G31G 3G26G 7
 -23344796.80347 -18470537.13246  20431573.8914   20431565.7464
        47.0004         39.5004
  -5619338.84946  -4359269.62846  23951383.4224   23951379.1484
        39.2504         36.5004
 -20163623.29047 -15688138.93548  21569845.2504   21569839.8134
        47.0004         48.5004
 -27728670.92747 -21581882.48646  20257798.3524   20257791.8714
        47.0004         41.7504
  -6493829.61546  -5049459.59743  24485093.7114   24485084.0514
        40.5004         22.2504
   1314761.68946   1147916.26943  25278956.3444   25278950.1414
        40.2504         21.2504
 -14639697.13747 -11391856.56347  22605518.3594   22605514.0164
        45.2504         43.2504
 -13958665.50747 -10841456.27147  22183170.8674   22183166.6564
        43.7504         43.2504
  -7683182.00746  -5976088.13145  23977371.7504   23977363.6024
        40.7504         35.5004
 20  5  4  1  4 30.0000000  0  9G16G27G 9G 4G22G31G 3G26G 7
 -23328446.39747 -18457796.55946  20434685.0944   20434677.3594
        47.2504         39.5004
  -5711018.12346  -4430707.99746  23933937.1094   23933934.0474
        40.0004         37.7504
 -20234564.69547 -15743417.94748  21556346.0394   21556340.0864
        46.5004         49.0004
 -27739382.12947 -21590228.89946  20255759.8444   20255753.5234
        47.2504         41.5004
  -6389674.16846  -4968299.57643  24504914.8364   24504904.0274
        41.7504         23.0004
   1406811.48546   1219643.32143  25296472.2974   25296466.4024
        40.0004         22.5004
 -14543112.90247 -11316596.16247  22623897.9534   22623893.6994
        44.0004         42.7504
 -13878395.75647 -10778908.44247  22198445.5554   22198441.3914
        43.7504         43.0004
  -7757895.22946  -6034306.24146  23963154.1644   23963146.7424
        41.2504         37.0004
 20  5  4  1  5  0.0000000  0  9G16G27G 9G 4G22G31G 3G26G 7
 -23311444.55747 -18444548.37446  20437920.0634   20437912.4774
        47.0004         39.5004
  -5802525.08246  -4502012.11446  23916524.1724   23916520.3404
        41.2504         38.2504
 -20305242.75447 -15798491.77048  21542896.1644   21542890.1994
        47.5004         49.2504
 -27749678.51147 -21598252.06847  20253800.9064   20253794.5944
        46.5004         42.0004
  -6285498.68046  -4887123.92943  24524736.9224   24524728.0514
        40.5004         20.7504
   1498813.88546   1291333.42643  25313980.0314   25313974.0704
        37.7504         21.5004
 -14446265.14047 -11241130.41247  22642327.4064   22642322.8444
        45.0004         43.0004
 -13797767.88947 -10716081.54947  22213788.4924   22213784.0044
        43.5004         43.0004
  -7832506.12446  -6092444.55946  23948956.7504   23948950.0394
        41.5004         37.5004
 20  5  4  1  5 30.0000000  0  9G16G27G 9G 4G22G31G 3G26G 7
 -23293792.22847 -18430793.32346  20441279.7734   20441271.5044
        46.7504         40.0004
  -5893856.17346  -4573179.17446  23899143.8054   23899139.8364
        39.7504         37.2504
 -20375655.30547 -15853358.69248  21529497.5784   21529491.9414
        47.0004         49.5004
 -27759558.76447 -21605950.98446  20251920.6414   20251914.3484
        46.7504         41.7504
  -6181305.24346  -4805934.30643  24544564.9774   24544554.9344
        40.0004         20.5004
   1590768.70746   1362986.50243  25331478.5314   25331472.6054
        37.7504         20.0004
 -14349156.65947 -11165461.50747  22660806.3674   22660802.1684
        45.2504         43.0004
 -13716784.31147 -10652977.49247  22229199.0084   22229194.4694
        44.0004         43.0004
  -7907014.35147  -6150502.93846  23934778.3674   23934771.3594
        42.5004         37.7504
 20  5  4  1  6  0.0000000  0  9G16G27G 9G 4G22G31G 3G26G 7
 -23275490.43747 -18416532.18746  20444762.3134   20444754.2814
        47.2504         39.0004
  -5985007.83347  -4644206.40546  23881799.9614   23881795.1764
        42.0004         39.0004
 -20445800.19547 -15908017.04648  21516149.1884   21516143.8554
        46.5004         49.5004
 -27769021.59447 -21613324.64147  20250119.7344   20250113.5514
        47.0004         42.0004
  -6077096.53646  -4724732.75243  24564395.5084   24564384.8404
        39.5004         21.2504
   1682675.56846   1434602.25143  25348967.9924   25348961.5474
        38.5004         18.5004
 -14251790.20147 -11089591.56547  22679334.8524   22679330.4224
        45.2504         42.2504
 -13635447.52147 -10589598.19647  22244677.1954   22244673.0394
        43.7504         43.0004
  -7981419.29647  -6208480.82346  23920619.4384   23920612.0234
        42.5004         37.0004
 20  5  4  1  6 30.0000000  0  9G16G27G 9G 4G22G31G 3G26G 7
 -23256540.81147 -18401766.25746  20448368.1564   20448360.3834
        47.2504         39.7504
  -6075976.77646  -4715091.30146  23864487.1094   23864483.3364
        38.7504         36.7504
 -20515675.55047 -15962465.37948  21502852.0164   21502846.9654
        47.0004         49.5004
 -27778066.05047 -21620372.28746  20248398.8524   20248392.5904
        47.5004         41.7504
  -5972875.00246  -4643521.20543  24584226.3674   24584217.5634
        39.0004         20.0004
   1774533.89345   1506180.06442  25366448.0784   25366442.0204
        35.7504         17.7504
 -14154168.90147 -11013523.04347  22697911.3444   22697906.8444
        45.7504         42.2504
 -13553760.24347 -10525945.79347  22260221.5394   22260217.5124
        43.5004         43.0004
  -8055721.11047  -6266378.37046  23906479.9694   23906473.0554
        42.2504         36.2504
 20  5  4  1  7  0.0000000  0  9G16G27G 9G 4G22G31G 3G26G 7
 -23236943.90747 -18386495.94946  20452097.7344   20452089.7734
        47.0004         39.7504
  -6166759.40447  -4785830.97846  23847213.2034   23847208.0124
        42.0004         36.5004
 -20585279.11447 -16016701.91348  21489606.7274   21489601.7584
        46.7504         49.5004
 -27786690.72547 -21627092.83046  20246757.6254   20246751.3984
        47.5004         41.7504
  -5868643.09846  -4562301.56643  24604062.2894   24604053.1024
        40.5004         20.7504
   1866343.25946   1577719.69142  25383919.0084   25383912.8324
        36.5004         17.2504
 -14056295.38247 -10937258.00447  22716536.0084   22716531.9144
        44.5004         42.2504
 -13471724.88447 -10462022.16947  22275833.0314   22275828.8444
        43.5004         43.2504
  -8129920.20247  -6324195.84246  23892360.6804   23892353.4384
        42.5004         36.7504
 20  5  4  1  7 30.0000000  0  9G16G27G 9G 4G22G31G 3G26G 7
 -23216701.67447 -18370722.78546  20455949.3594   20455941.4454
        47.0004         40.0004
  -6257353.06646  -4856423.42745  23829971.9774   23829968.8914
        38.0004         35.0004
 -20654609.70447 -16070725.75948  21476413.7974   21476408.4694
        47.2504         49.5004
 -27794895.35647 -21633486.07247  20245196.2274   20245189.7154
        47.0004         42.0004
  -5764404.02647  -4481076.35343  24623900.0314   24623889.0434
        43.0004         21.0004
   1958102.49346   1649220.34543  25401380.6804   25401373.4654
        40.7504         19.7504
 -13958173.48047 -10860799.41047  22735207.6954   22735203.8634
        43.7504         42.0004
 -13389344.83347 -10397829.95047  22291509.0784   22291505.2734
        43.5004         42.7504
  -8204016.27047  -6381933.04445  23878260.2424   23878252.7894
        42.5004         35.7504
 20  5  4  1  8  0.0000000  0 10G16G27G 9G 4G22G31G 3G26G 8G 7
 -23195814.58647 -18354447.14046  20459924.1724   20459916.6414
        47.0004         40.0004
  -6347753.79146  -4926865.55246  23812770.4844   23812766.3014
        41.0004         36.0004
 -20723664.65847 -16124534.82048  21463273.3984   21463267.8444
        47.7504         49.7504
 -27802678.17247 -21639550.61847  20243715.7974   20243709.1764
        47.0004         42.0004
  -5660159.93246  -4399847.19943  24643733.7814   24643725.9144
        39.7504         21.2504
   2049811.74546   1720682.13643  25418831.7504   25418825.5744
        39.5004         20.7504
 -13859805.42747 -10784149.01947  22753926.4304   22753922.5554
        44.0004         42.2504
 -13306622.11147 -10333370.70547  22307250.5004   22307246.9844
        43.5004         42.7504
   -615747.86456   -454019.87255  24994380.1564   24994376.2194
        37.5004         31.2504
  -8278008.96947  -6439589.70745  23864179.4614   23864172.6844
        42.0004         35.2504
 20  5  4  1  8 30.0000000  0 10G16G27G 9G 4G22G31G 3G26G 8G 7
 -23174283.48847 -18337669.66146  20464021.0474   20464013.4884
        47.5004         39.7504
  -6437957.05846  -4997153.74646  23795605.5554   23795601.4344
        41.0004         37.2504
 -20792440.88747 -16178126.69948  21450185.1954   21450179.6914
        46.7504         50.0004
 -27810037.03647 -21645284.81046  20242314.9454   20242308.8754
        47.0004         41.7504
  -5555912.29746  -4318615.35243  24663572.3364   24663564.3674
        39.7504         20.5004
   2141471.94046   1792105.61143  25436274.5004   25436268.8284
        39.2504         21.7504
 -13761193.15747 -10707308.33347  22772692.2274   22772687.8484
        44.2504         42.0004
 -13223558.24347 -10268645.64547  22323056.6334   22323053.1024
        43.5004         43.0004
   -715978.11846   -532121.37144  24975306.1024   24975302.7704
        37.2504         28.7504
  -8351897.11047  -6497164.87645  23850119.4064   23850112.7424
        42.7504         35.5004
 20  5  4  1  9  0.0000000  0 10G16G27G 9G 4G22G31G 3G26G 8G 7
 -23152111.49347 -18320392.78746  20468240.6484   20468233.0354
        47.0004         39.0004
  -6527961.43746  -5067287.06546  23778477.8284   23778473.8754
        41.0004         38.0004
 -20860938.42947 -16231501.40748  21437151.3054   21437145.2664
        46.7504         49.7504
 -27816972.87547 -21650689.37447  20240995.2344   20240989.0204
        47.7504         42.0004
  -5451665.42446  -4237384.05343  24683409.1094   24683401.3834
        37.2504         20.2504
   2233080.06046   1863488.44243  25453706.5394   25453700.9144
        38.7504         22.5004
 -13662341.61347 -10630281.19946  22791503.2274   22791498.5434
        45.0004         41.7504
 -13140157.89747 -10203658.39047  22338927.6024   22338923.6564
        43.7504         43.0004
   -816290.52545   -610286.89144  24956216.6954   24956213.5274
        35.5004         27.2504
  -8425682.60047  -6554660.05746  23836078.0004   23836071.6414
        42.2504         36.2504
 20  5  4  1  9 30.0000000  0 10G16G27G 9G 4G22G31G 3G26G 8G 7
 -23129299.05447 -18302616.87046  20472581.7034   20472574.1644
        47.7504         39.7504
  -6617762.82146  -5137262.16546  23761388.6564   23761384.7304
        41.2504         38.0004
 -20929154.44447 -16284656.74748  21424169.5864   21424164.2704
        47.0004         49.7504
 -27823483.82147 -21655762.84447  20239756.5084   20239750.0984
        47.0004         42.0004
  -5347421.39946  -4156155.00843  24703247.3444   24703238.6914
        38.0004         20.5004
   2324636.75845   1934831.25643  25471128.9224   25471123.1294
        35.5004         19.7504
 -13563252.98447 -10553069.31846  22810358.8054   22810354.7424
        44.2504         41.7504
 -13056422.83347 -10138410.31447  22354862.1724   22354857.8164
        43.7504         43.0004
   -916681.62046   -688513.63344  24937113.2424   24937109.8754
        36.0004         27.5004
  -8499364.41447  -6612074.46546  23822057.2894   23822050.6604
        43.2504         36.5004
 20  5  4  1 10  0.0000000  0 10G16G27G 9G 4G22G31G 3G26G 8G 7
 -23105847.34747 -18284342.81646  20477044.1954   20477036.4024
        47.0004         40.0004
  -6707357.50846  -5207076.20046  23744340.5474   23744336.5124
        40.7504         40.0004
 -20997086.65247 -16337590.93648  21411242.0084   21411237.1844
        46.2504         49.5004
 -27829568.58147 -21660504.23647  20238598.4694   20238592.3014
        47.5004         42.0004
  -5243182.05746  -4074929.62843  24723083.4454   24723075.3364
        38.7504         19.7504
   2416141.94145   2006133.94042  25488541.2114   25488537.2034
        33.5004         16.7504
 -13463929.98247 -10475674.80247  22829259.9064   22829254.8754
        45.0004         42.0004
 -12972355.54447 -10072903.36047  22370859.2344   22370855.6644
        43.5004         42.5004
  -1017148.16346   -766799.34244  24917995.5554   24917991.1804
        36.5004         29.7504
  -8572942.36047  -6669407.92646  23808056.3914   23808049.4184
        43.5004         37.2504
 20  5  4  1 10 30.0000000  0 10G16G27G 9G 4G22G31G 3G26G 8G 7
 -23081757.63347 -18265571.61146  20481628.4614   20481620.9414
        47.7504         39.2504
  -6796741.95046  -5276726.38446  23727330.8054   23727327.4884
        39.5004         37.2504
 -21064732.90047 -16390302.30248  21398369.7814   21398364.0004
        46.5004         49.5004
 -27835225.92847 -21664912.57947  20237521.8054   20237515.8444
        46.7504         42.2504
  -5138950.05746  -3993709.94843  24742918.1484   24742909.9024
        38.7504         19.5004
   2507594.87646   2077395.86943  25505944.9384   25505940.2074
        37.7504         18.5004
 -13364375.36447 -10398099.81047  22848204.6804   22848199.8484
        45.2504         42.0004
 -12887958.42947 -10007139.40747  22386919.7114   22386915.8484
        43.2504         42.5004
  -1117687.32145   -845141.46644  24898863.0474   24898860.1684
        35.0004         27.7504
  -8646416.62047  -6726660.60546  23794074.0394   23794067.5474
        43.2504         37.7504
 20  5  4  1 11  0.0000000  0 10G16G27G 9G 4G22G31G 3G26G 8G 7
 -23057031.44047 -18246304.45346  20486333.7504   20486326.2344
        47.2504         39.7504
  -6885913.07546  -5346210.37146  23710362.1334   23710359.0124
        40.0004         39.0004
 -21132091.49247 -16442789.52448  21385552.1644   21385546.5864
        46.7504         49.5004
 -27840455.15347 -21668987.31747  20236526.8984   20236520.2274
        46.5004         42.5004
  -5034728.24446  -3912498.20543  24762751.7114   24762741.3754
        39.7504         20.0004
   2598995.30046   2148617.01142  25523338.3674   25523332.7234
        37.5004         13.7504
 -13264592.49947 -10320346.95646  22867192.4064   22867187.8714
        44.7504         41.0004
 -12803234.46947  -9941120.76947  22403042.0164   22403038.1484
        42.7504         42.5004
  -1218296.31545   -923538.04944  24879718.6414   24879715.3714
        34.7504         27.2504
  -8719786.91447  -6783832.26446  23780112.5634   23780105.8834
        43.0004         38.0004
 20  5  4  1 11 30.0000000  0 10G16G27G 9G 4G22G31G 3G26G 8G 7
 -23031670.84047 -18226542.95046  20491159.9224   20491152.2774
        47.0004         39.5004
  -6974867.98746  -5415525.86246  23693433.3054   23693430.7234
        40.0004         37.5004
 -21199160.89747 -16495051.40348  21372789.5164   21372783.7894
        46.7504         50.0004
 -27845255.76647 -21672728.06447  20235613.0944   20235606.9064
        46.7504         42.0004
  -4930519.78946  -3831296.82443  24782580.4694   24782572.3984
        39.0004         19.2504
   2690341.95047   2219796.19144  25540721.5234   25540715.1954
        42.7504         26.5004
 -13164584.78347 -10242418.91046  22886223.0004   22886219.0314
        44.0004         41.0004
 -12718186.77747  -9874849.87046  22419226.1954   22419222.3094
        42.5004         41.5004
  -1318972.79946  -1001987.22344  24860560.4534   24860557.4654
        36.2504         29.2504
  -8793053.63747  -6840923.21146  23766170.8524   23766163.1914
        43.5004         38.0004
 20  5  4  1 12  0.0000000  0 10G16G27G 9G 4G22G31G 3G26G 8G 7
 -23005676.99047 -18206288.00846  20496106.4144   20496098.7584
        47.0004         39.7504
  -7063602.57047  -5484669.63646  23676550.0634   23676545.2734
        42.0004         38.5004
 -21265938.35247 -16547085.79348  21360081.9304   21360076.2894
        47.0004         50.2504
 -27849625.94447 -21676133.41147  20234781.5234   20234775.3634
        46.7504         42.0004
  -4826326.15446  -3750106.98743  24802407.9144   24802399.4414
        39.2504         20.5004
   2781635.10445   2290933.62643  25558092.4534   25558088.4654
        32.5004         21.0004
 -13064354.50247 -10164317.43446  22905296.0784   22905292.0084
        44.5004         41.0004
 -12632817.30647  -9808328.23646  22435471.3984   22435467.2814
        43.0004         41.7504
  -1419713.46146  -1080486.44244  24841390.9064   24841386.1254
        38.2504         29.2504
  -8866216.36747  -6897933.13146  23752248.7974   23752240.7504
        43.5004         38.0004
 20  5  4  1 12 30.0000000  0 10G16G27G 9G 4G22G31G 3G26G 8G 7
 -22979050.57147 -18185540.15446  20501172.9534   20501165.5784
        47.2504         39.2504
  -7152112.95046  -5553638.77346  23659706.6724   23659701.5124
        41.5004         38.0004
 -21332421.46147 -16598890.81648  21347430.3914   21347425.3324
        47.2504         50.5004
 -27853564.33947 -21679202.30847  20234032.2584   20234025.8594
        47.0004         42.2504
  -4722149.78747  -3668930.75543  24822236.4454   24822223.0314
        42.7504         20.0004
  29655015.43456  23231229.80052  25575456.9384   25575450.7934
        39.2504         15.5004
 -12963904.21647 -10086044.52346  22924411.3134   22924407.2304
        43.7504         41.5004
 -12547128.26747  -9741557.58646  22451777.2034   22451773.6094
        43.0004         41.5004
  -1520514.76446  -1159032.89645  24822208.0164   24822204.2274
        36.5004         30.0004
  -8939274.19847  -6954861.32046  23738346.0554   23738338.4734
        43.5004         37.7504
 20  5  4  1 13  0.0000000  0 10G16G27G 9G 4G22G31G 3G26G 8G 7
 -22951794.03447 -18164301.29946  20506359.6254   20506352.5474
        47.2504         39.5004
  -7240396.79746  -5622431.38946  23642906.6644   23642901.4654
        41.2504         38.2504
 -21398609.13648 -16650465.63148  21334835.7664   21334830.5044
        48.0004         50.5004
 -27857070.90847 -21681934.72347  20233364.9614   20233358.3204
        47.2504         42.0004
  -4617993.83045  -3587770.21043  24842050.4064   24842044.0234
        35.5004         19.5004
  29746200.62345  23302283.32242  25592806.8834   25592802.4184
        31.7504         16.2504
 -12863237.86647 -10007603.24146  22943568.0314   22943563.7704
        44.2504         41.2504
 -12461123.19647  -9674540.68046  22468144.2894   22468139.5704
        43.0004         41.7504
  -1621375.05846  -1237625.27845  24803015.2504   24803012.0864
        37.7504         31.0004
  -9012228.20747  -7011708.60946  23724462.8984   23724455.6334
        43.0004         37.7504
 20  5  4  1 13 30.0000000  0 10G16G27G 9G 4G22G31G 3G26G 8G 7
 -22923907.89447 -18142571.84246  20511666.2344   20511658.4104
        47.2504         40.0004
  -7328449.42846  -5691043.83346  23626150.5394   23626146.5744
        40.5004         38.0004
 -21464498.23247 -16701807.78848  21322297.0234   21322291.4804
        47.5004         50.7504
 -27860143.50947 -21684328.97047  20232780.5474   20232773.9384
        47.2504         42.0004
  -4513859.79046  -3506626.94743  24861868.0394   24861860.6484
        38.7504         19.7504
  29837332.28246  23373294.70743  25610150.4304   25610144.9574
        37.7504         20.7504
 -12762357.31747  -9928995.07146  22962764.8054   22962760.4734
        44.5004         41.0004
 -12374803.68647  -9607278.75446  22484570.1174   22484565.8794
        43.2504         41.7504
  -1722290.42646  -1316260.65644  24783810.5704   24783808.2624
        36.2504         29.2504
  -9085077.56347  -7068474.32746  23710599.9304   23710593.1134
        43.5004         37.5004
 20  5  4  1 14  0.0000000  0 10G16G27G 9G 4G22G31G 3G26G 8G 7
 -22895394.70047 -18120353.77846  20517092.1334   20517084.5354
        47.0004         39.5004
  -7416268.65146  -5759474.39446  23609438.9144   23609434.6484
        40.5004         37.7504
 -21530087.75147 -16752916.50448  21309815.8284   21309810.9024
        47.0004         50.5004
 -27862782.18447 -21686385.09147  20232278.3364   20232271.7664
        46.5004         42.0004
  -4409751.08946  -3425503.35843  24881680.8914   24881672.0554
        38.2504         19.2504
  29928407.99346  23444262.83143  25627481.6954   25627474.9384
        40.5004         20.2504
 -12661266.54647  -9850223.08146  22982001.5394   22981997.6604
        44.5004         41.5004
 -12288173.36947  -9539774.63346  22501055.4694   22501051.1214
        43.0004         41.7504
  -1823258.82746  -1394937.31245  24764597.4224   24764595.3244
        36.7504         31.0004
  -9157822.60547  -7125158.78046  23696757.3444   23696750.0824
        42.7504         37.0004
 20  5  4  1 14 30.0000000  0 10G16G27G 9G 4G22G31G 3G26G 8G 7
 -22866249.00547 -18097642.85146  20522638.3984   20522630.8954
        47.2504         39.0004
  -7503843.96746  -5827714.90846  23592773.2274   23592770.2384
        40.0004         39.2504
 -21595368.60947 -16803784.70948  21297393.3134   21297388.4184
        47.0004         50.2504
 -27864978.95247 -21688096.87247  20231860.1174   20231853.8014
        47.0004         42.0004
  -4305663.29746  -3344396.08743  24901490.7274   24901479.0744
        40.5004         19.7504
                                  25644800.6254   25644797.1524
        28.2504         14.7504
 -12559961.52947  -9771284.13346  23001278.7974   23001274.9614
        43.7504         40.2504
 -12201227.88047  -9472024.93446  22517601.0234   22517596.5044
        43.2504         41.7504
  -1924270.12746  -1473647.44145  24745376.7894   24745371.6134
        39.7504         31.2504
  -9230456.13947  -7181756.35546  23682935.1094   23682928.0204
        43.0004         36.7504
 20  5  4  1 15  0.0000000  0 10G16G27G 9G 4G22G31G 3G26G 8G 7
 -22836491.69347 -18074455.33846  20528300.9534   20528293.0274
        47.0004         39.0004
  -7591191.18346  -5895777.61146  23576152.1024   23576148.1994
        40.5004         39.5004
 -21660358.06247 -16854425.84448  21285026.1024   21285021.0664
        47.0004         50.2504
 -27866752.12747 -21689478.58347  20231522.5944   20231516.5474
        46.5004         42.2504
  -4201618.44046  -3263322.19943  24921285.7734   24921278.9774
        40.5004         20.5004
  30110394.29156  23586070.15454  25662112.2114   25662106.8954
        41.0004         24.5004
 -12458464.43847  -9692195.53146  23020592.9924   23020589.1884
        42.7504         40.2504
 -12113989.03247  -9404046.63846  22534200.7734   22534197.1764
        43.2504         41.5004
  -2025341.07745  -1552404.00944  24726141.6644   24726139.5664
        35.7504         27.7504
  -9302997.79447  -7238282.33246  23669131.0864   23669123.4384
        42.7504         37.0004
 20  5  4  1 15 30.0000000  0 10G16G27G 9G 4G22G31G 3G26G 8G 7
 -22806105.51947 -18050777.79946  20534083.0704   20534075.3244
        47.0004         38.7504
  -7678288.06547  -5963645.31246  23559578.8444   23559573.7274
        42.2504         39.0004
 -21725035.10347 -16904823.53248  21272718.8204   21272713.2194
        46.7504         50.2504
 -27868081.76947 -21690514.68447  20231269.9224   20231263.6884
        46.5004         42.2504
  -4097599.89146  -3182268.82243  24941079.3834   24941072.1994
        38.2504         20.5004
  30201303.06546  23656908.09342  25679411.5474   25679406.4734
        38.7504         16.7504
 -12356759.36647  -9612944.86446  23039946.8674   23039943.4344
        42.2504         40.0004
 -12026440.58047  -9335827.09446  22550861.3134   22550857.3794
        43.0004         41.5004
  -2126450.03346  -1631190.10344  24706902.2274   24706899.6844
        37.7504         29.0004
  -9375428.24647  -7294721.65346  23655348.0084   23655340.4574
        43.5004         37.2504
 20  5  4  1 16  0.0000000  0 10G16G27G 9G 4G22G31G 3G26G 8G 7
 -22775097.95147 -18026616.06046  20539984.0784   20539976.2504
        47.0004         39.2504
  -7765136.88847  -6031319.73946  23543051.9534   23543047.2814
        42.0004         39.0004
 -21789403.49247 -16954980.72448  21260469.7424   21260464.4734
        47.0004         50.2504
 -27868972.75547 -21691208.97847  20231100.2814   20231093.8134
        46.7504         42.0004
  -3993615.90846  -3101242.41843  24960870.7034   24960859.7544
        40.7504         19.0004
  30292155.92845  23635787.79953  25696699.8444   25696694.7704
        34.7504         20.2504
 -12254855.11047  -9533538.99446  23059339.2344   23059335.1334
        44.2504         40.5004
 -11938590.93847  -9267372.86146  22567578.4454   22567574.4884
        42.5004         41.7504
  -2227599.38846  -1710007.86945  24687653.5784   24687650.7814
        36.5004         30.7504
  -9447753.84647  -7351079.26146  23641585.0004   23641577.8404
        43.5004         38.2504
 20  5  4  1 16 30.0000000  0 10G16G27G 9G 4G22G31G 3G26G 8G 7
 -22743468.26747 -18001969.56646  20546002.6094   20545994.8014
        47.2504         39.0004
  -7851731.86346  -6098796.36346  23526573.1724   23526569.1214
        41.5004         38.5004
 -21853458.71647 -17004893.88648  21248280.3364   21248274.9574
        47.2504         50.5004
 -27869421.71647 -21691558.84247  20231014.7734   20231008.6914
        46.5004         42.2504
  -3889666.44146  -3020242.91043  24980651.2194   24980641.0634
        41.5004         19.2504
  30382955.18645  23706540.31843  25713979.4384   25713973.9224
        33.2504         19.2504
 -12152752.11447  -9453978.24346  23078769.3134   23078764.8714
        44.5004         40.7504
 -11850440.27847  -9198684.06946  22584353.4534   22584349.3524
        42.7504         41.2504
  -2328784.06346  -1788852.88345  24668400.2424   24668396.8634
        38.0004         30.0004
  -9519971.10147  -7407352.44346  23627842.8204   23627835.6564
        44.2504         39.0004
 20  5  4  1 17  0.0000000  0 10G16G27G 9G 4G22G31G 3G26G 8G 7
 -22711223.97847 -17976844.14846  20552138.8984   20552130.8524
        47.0004         40.0004
  -7938075.53746  -6166077.15646  23510142.4454   23510137.8914
        41.5004         38.0004
 -21917204.69347 -17054566.08348  21236149.8054   21236144.4534
        47.0004         50.5004
 -27869433.64547 -21691568.14547  20231012.6954   20231006.6564
        46.7504         42.0004
  -3785759.83745  -2939276.70843  25000419.5314   25000413.8834
        34.5004         18.2504
  30473693.92445  23777245.67743  25731246.1884   25731240.7154
        33.5004         21.7504
 -12050459.36147  -9374269.65246  23098234.5234   23098230.6844
        44.5004         40.2504
 -11761997.13047  -9129767.35846  22601183.2664   22601179.6024
        42.7504         41.0004
  -2430006.68446  -1867727.75645  24649137.6174   24649136.5554
        37.5004         32.0004
  -9592086.28647  -7463546.08946  23614120.3674   23614112.3134
        45.0004         39.5004
 20  5  4  1 17 30.0000000  0 10G16G27G 9G 4G22G31G 3G26G 8G 7
 -22678363.49047 -17951238.58146  20558391.8204   20558384.0044
        47.0004         39.0004
  -8024161.10846  -6233156.84946  23493760.2504   23493755.5514
        41.2504         37.2504
 -21980635.94648 -17103993.03648  21224079.5554   21224074.1024
        48.0004         50.7504
 -27869004.17747 -21691233.51847  20231094.5084   20231087.8954
        46.7504         42.2504
  -3681894.91146  -2858343.10143  25020187.6024   25020179.2544
        39.7504         18.5004
  30564375.95746  23847906.81043  25748501.8984   25748496.4184
        36.0004         20.0004
 -11947976.34447  -9294412.79446  23117736.4534   23117732.3634
        43.7504         40.2504
 -11673260.69947  -9060622.12646  22618069.0004   22618065.7664
        42.2504         41.0004
  -2531261.42145  -1946627.57845  24629868.3754   24629867.1214
        35.5004         31.0004
  -9664096.10747  -7519657.61646  23600416.6954   23600409.6214
        43.5004         39.0004
 20  5  4  1 18  0.0000000  0 10G16G27G 9G 4G22G31G 3G26G 8G 7
 -22644888.70647 -17925154.33646  20564761.9224   20564753.9414
        47.0004         39.0004
  -8109985.27746  -6300032.83446  23477429.0864   23477425.4184
        41.5004         39.0004
 -22043750.58947 -17153173.29048  21212069.2974   21212063.6844
        47.2504         50.7504
 -27868132.55847 -21690554.34747  20231260.2504   20231253.8054
        47.0004         42.7504
  -3578074.74946  -2777444.35142  25039943.2664   25039935.6844
        39.0004         17.7504
  30655000.10647  23918523.14343  25765747.8754   25765741.2234
        42.2504         19.5004
 -11845306.24647  -9214410.15846  23137273.9844   23137270.0354
        43.0004         40.0004
 -11584233.76247  -8991250.53346  22635010.6414   22635007.0314
        42.2504         40.7504
  -2632545.24045  -2025550.04144  24610593.7274   24610592.5744
        34.0004         28.7504
  -9736000.65147  -7575687.12046  23586733.2194   23586726.3914
        43.7504         38.7504
 20  5  4  1 18 30.0000000  0 10G16G27G 9G 4G22G31G 3G26G 8G 7
 -22610801.34147 -17898592.76046  20571248.4304   20571240.7664
        47.0004         39.0004
  -8195544.64646  -6366702.42646  23461147.1724   23461143.0274
        40.5004         38.0004
 -22106546.46547 -17202105.14148  21200119.3984   21200113.8874
        47.5004         50.7504
 -27866817.86947 -21689529.92747  20231510.3914   20231503.7624
        47.0004         42.5004
  -3474301.45546  -2696582.14043  25059691.9534   25059682.5354
        38.5004         19.7504
  30745566.59746  23989094.48343  25782980.8834   25782975.4924
        38.7504         21.0004
 -11742451.89647  -9134263.96146  23156846.8204   23156842.3594
        43.2504         40.0004
 -11494918.88247  -8921654.56446  22652006.0084   22652002.7464
        42.7504         41.0004
  -2733854.88246  -2104492.56645  24591318.9924   24591313.5984
        39.5004         30.0004
  -9807799.14547  -7631634.00846  23573070.8524   23573063.3714
        44.0004         38.5004
 20  5  4  1 19  0.0000000  0 10G16G27G 9G 4G22G31G 3G26G 8G 7
 -22576103.88447 -17871555.79146  20577851.0394   20577843.0824
        47.2504         39.2504
  -8280836.35547  -6433163.52046  23444918.3914   23444913.6294
        43.0004         39.2504
 -22169022.24247 -17250787.56248  21188230.7034   21188225.6024
        47.0004         50.7504
 -27865059.85147 -21688160.05147  20231845.0314   20231839.0354
        47.2504         42.5004
  -3370578.20046  -2615758.90843  25079430.2504   25079420.7464
        40.2504         19.2504
  30836074.81046  24059620.23442  25800204.4224   25800199.1764
        37.0004         17.7504
 -11639416.99047  -9053977.07046  23176453.2894   23176449.2704
        43.0004         39.2504
 -11405319.33547  -8851836.76746  22669056.9614   22669053.1844
        42.5004         40.7504
  -2835188.60546  -2183453.93145  24572032.6484   24572031.5744
        37.0004         32.2504
  -9879492.76947  -7687499.16746  23559428.0704   23559420.4614
        43.7504         38.5004
 20  5  4  1 19 30.0000000  0 10G16G27G 9G 4G22G31G 3G26G 8G 7
 -22540797.47347 -17844044.31846  20584569.6484   20584562.0044
        47.0004         38.2504
  -8365856.60246  -6499413.06446  23428738.0784   23428735.3524
        41.7504         40.7504
 -22231175.29247 -17299218.50648  21176403.2504   21176397.9884
        47.5004         50.5004
 -27862857.09447 -21686443.63747  20232264.0234   20232257.9454
        46.7504         42.2504
  -3266906.90946  -2534976.13143  25099156.6414   25099149.1524
        38.2504         19.5004
  30926523.89545  24130099.85942  25817416.8674   25817412.6374
        33.5004         14.7504
 -11536203.96347  -8973551.38046  23196094.2664   23196089.8754
        43.2504         39.7504
 -11315437.20547  -8781798.76546  22686161.1954   22686157.1174
        42.2504         40.5004
  -2936542.34146  -2262430.87445  24552746.6644   24552743.0824
        38.7504         31.5004
  -9951080.60647  -7743281.89046  23545804.7814   23545797.5394
        43.7504         39.0004
 20  5  4  1 20  0.0000000  0  9G16G27G 9G 4G22G 3G26G 8G 7
 -22504880.05948 -17816056.73046  20591404.5704   20591396.9734
        48.7504         38.7504
  -8450598.21746  -6565445.43446  23412612.2194   23412608.3364
        41.2504         40.0004
 -22292999.76147 -17347393.42948  21164638.2274   21164633.3984
        47.2504         51.0004
 -27860204.94747 -21684377.04147  20232768.5634   20232762.8364
        47.0004         42.2504
  -3163286.39846  -2454232.96143  25118876.2344   25118867.9024
        40.2504         19.7504
 -11432811.91747  -8892986.18046  23215769.2034   23215765.0824
        44.5004         40.0004
 -11225271.26047  -8711539.62046  22703318.5864   22703315.1414
        42.0004         40.5004
  -3037909.55446  -2341418.32845  24533457.1094   24533454.2544
        39.0004         33.5004
 -10022558.85547  -7798979.21746  23532202.9144   23532196.4384
        43.7504         39.5004
 20  5  4  1 20 30.0000000  0 10G16G27G 9G 4G22G31G 3G26G 8G 7
 -22468361.10648 -17787600.41046  20598353.9384   20598346.1214
        48.0004         39.0004
  -8535065.12647  -6631263.86246  23396539.5234   23396535.6684
        42.0004         41.5004
 -22354501.12947 -17395316.57048  21152935.1564   21152929.8284
        47.5004         51.0004
 -27857110.16447 -21681965.54947  20233357.4844   20233351.0664
        46.7504         42.0004
  -3059726.20046  -2373536.82643  25138583.3444   25138575.0394
        39.5004         19.7504
                                  25851807.359
        33.000
 -11329251.38847  -8812289.70146  23235476.4924   23235471.8794
        43.7504         39.5004
 -11134831.65147  -8641067.22846  22720529.2344   22720525.2234
        42.5004         40.0004
  -3139294.93646  -2420419.88245  24514164.7664   24514160.7664
        39.0004         32.2504
 -10093935.46847  -7854597.35546  23518621.1254   23518614.0984
        44.2504         39.5004
 20  5  4  1 21  0.0000000  0 10G16G27G 9G 4G22G31G 3G26G 8G 7
 -22431242.30048 -17758676.67846  20605417.4224   20605409.2424
        48.5004         38.5004
  -8619253.85847  -6696865.37446  23380519.0234   23380515.4224
        42.7504         40.7504
 -22415676.98847 -17442986.07648  21141294.1644   21141289.0274
        47.5004         51.2504
 -27853571.39247 -21679208.07547  20234030.8524   20234024.5824
        46.5004         42.0004
  -2956228.63546  -2292889.42043  25158277.8284   25158270.3324
        40.5004         19.5004
  31197514.32346  24177896.48753  25868984.4454   25868979.8014
        37.5004         20.7504
 -11225525.02247  -8731464.00646  23255215.3834   23255210.2304
        43.5004         39.2504
 -11044120.60447  -8570383.32646  22737791.0864   22737787.0234
        42.2504         40.7504
  -3240695.11046  -2499433.03745  24494867.1484   24494866.1054
        37.2504         31.5004
 -10165208.97947  -7910135.15246  23505057.3204   23505050.5314
        44.2504         39.0004
 20  5  4  1 21 30.0000000  0 10G16G27G 9G 4G22G31G 3G26G 8G 7
 -22393518.23347 -17729281.31846  20612595.8594   20612587.9774
        47.7504         39.0004
  -8703153.67046  -6762241.91546  23364553.1254   23364547.9344
        41.2504         37.5004
 -22476518.16548 -17490394.79148  21129716.2344   21129711.0984
        48.2504         51.5004
 -27849580.67947 -21676098.45047  20234790.6954   20234784.1454
        46.7504         42.2504
  -2852788.90446  -2212287.15343  25177963.4064   25177953.2704
        40.0004         18.5004
  31287727.04846  24248192.09044  25886151.8524   25886145.8094
        39.7504         24.0004
 -11121628.63047  -8650505.80646  23274985.8834   23274981.0164
        43.7504         39.0004
 -10953133.62447  -8499484.42246  22755104.8134   22755101.4304
        42.0004         40.5004
  -3342099.40846  -2578449.36245  24475570.8914   24475568.3364
        37.0004         31.0004
 -10236372.61047  -7965587.32646  23491515.7114   23491508.6484
        44.2504         39.0004
 20  5  4  1 22  0.0000000  0 10G16G27G 9G 4G22G31G 3G26G 8G 7
 -22355194.73848 -17699418.85946  20619888.6724   20619881.1454
        48.0004         39.0004
  -8786765.24246  -6827393.74546  23348641.4774   23348638.0004
        40.5004         38.2504
 -22537026.35648 -17537544.04448  21118201.9534   21118196.6954
        48.5004         51.5004
 -27845141.02647 -21672639.00547  20235635.5234   20235628.9654
        47.2504         42.7504
  -2749413.30446  -2131734.71843  25197633.8444   25197625.5124
        40.2504         19.5004
  31377879.85246  24318441.02843  25903307.2034   25903301.9144
        37.5004         20.5004
 -11017568.92147  -8569420.35946  23294786.7734   23294783.1804
        43.5004         39.5004
 -10861877.04247  -8428375.44446  22772471.1954   22772467.2384
        42.0004         40.5004
  -3443509.06845  -2657469.90245  24456272.5004   24456272.1484
        34.7504         30.7504
 -10307430.33647  -8020956.98846  23477994.3754   23477986.5514
        44.5004         39.5004
 20  5  4  1 22 30.0000000  0 10G16G27G 9G 4G22G31G 3G26G 8G 7
 -22316273.15348 -17669090.36146  20627295.2894   20627287.2664
        49.0004         38.7504
  -8870084.57146  -6892317.88746  23332787.1414   23332782.1954
        41.5004         38.2504
 -22597199.21448 -17584431.98448  21106751.3204   21106746.0984
        48.2504         51.7504
 -27840251.33447 -21668828.86347  20236565.8674   20236559.7774
        47.2504         42.5004
  -2646103.86846  -2051233.92043  25217291.8524   25217285.0274
        37.5004         19.5004
  31467972.92245  24388643.36642  25920451.7344   25920445.9774
        32.2504         16.7504
 -10913348.61347  -8488209.79046  23314619.8284   23314615.6724
        43.2504         39.0004
 -10770353.28346  -8357058.26646  22789887.4224   22789884.0354
        41.5004         40.5004
  -3544920.95446  -2736492.15244  24436975.1094   24436972.4734
        36.2504         29.2504
 -10378381.77647  -8076243.82246  23464492.2664   23464484.8874
        45.0004         39.5004
 20  5  4  1 23  0.0000000  0  9G16G27G 9G 4G22G 3G26G 8G 7
 -22276753.78148 -17638296.05546  20634815.7974   20634807.8284
        48.2504         39.2504
  -8953106.52546  -6957010.39046  23316987.0234   23316982.7734
        40.5004         38.0004
 -22657032.65748 -17631055.45448  21095365.4534   21095359.9884
        48.2504         51.5004
 -27834908.79048 -21664665.86747  20237582.8754   20237576.5044
        48.0004         42.2504
  -2542860.85046  -1970784.88943  25236939.1484   25236930.4734
        38.5004         18.5004
 -10808968.60247  -8406874.75546  23334482.8674   23334478.7894
        44.0004         39.0004
 -10678562.73547  -8285533.21446  22807354.2274   22807350.8324
        42.0004         40.2504
  -3646329.64946  -2815511.92045  24417678.1804   24417675.3094
        38.0004         32.0004
 -10449224.63147  -8131446.04846  23451011.1024   23451004.0944
        44.5004         39.2504
 20  5  4  1 23 30.0000000  0  9G16G27G 9G 4G22G 3G26G 8G 7
 -22236643.66648 -17607041.42746  20642448.6334   20642440.5354
        48.0004         39.0004
  -9035832.73247  -7021472.32447  23301246.6724   23301243.3634
        43.0004         42.5004
 -22716529.87048 -17677416.92548  21084043.7504   21084038.1644
        48.5004         51.5004
 -27829117.80447 -21660153.43147  20238684.7034   20238678.4614
        47.5004         42.0004
  -2439692.24446  -1890393.84242  25256574.5864   25256562.8484
        41.5004         17.2504
 -10704437.08347  -8325421.67146  23354375.2814   23354370.4144
        42.5004         38.7504
 -10586513.27647  -8213806.39546  22824871.7814   22824867.1844
        42.2504         40.2504
  -3747737.53546  -2894531.05045  24398381.6884   24398377.9534
        38.7504         32.0004
 -10519963.50247  -8186567.25746  23437549.5314   23437542.6684
        44.0004         39.0004
 20  5  4  1 24  0.0000000  0  9G16G27G 9G 4G22G 3G26G 8G 7
 -22195941.53748 -17575325.49746  20650193.9774   20650185.9224
        48.7504         38.7504
  -9118256.85946  -7085698.87546  23285560.6724   23285556.4224
        40.7504         39.2504
 -22775685.65148 -17723512.34848  21072786.4774   21072781.1134
        48.2504         51.2504
 -27822874.44847 -21655288.49147  20239872.8674   20239866.5904
        47.7504         42.0004
  -2336597.10846  -1810060.02043  25276191.7194   25276182.7074
        40.2504         19.2504
 -10599753.84046  -8243850.34046  23374294.8914   23374290.6884
        41.7504         39.0004
 -10494204.40247  -8141877.45146  22842437.1484   22842433.2854
        42.2504         40.7504
  -3849138.25246  -2973544.59745  24379084.7664   24379081.9614
        39.2504         32.7504
 -10590595.58147  -8241605.23046  23424108.7194   23424102.6644
        43.2504         39.2504
 20  5  4  1 24 30.0000000  0  9G16G27G 9G 4G22G 3G26G 8G 7
 -22154650.00648 -17543150.28646  20658051.5634   20658043.3324
        49.0004         38.7504
  -9200375.84647  -7149687.73047  23269935.6884   23269932.0274
        44.5004         43.7504
 -22834498.33848 -17769340.40848  21061594.8524   21061589.4924
        48.5004         51.2504
 -27816178.37447 -21650070.79347  20241146.7424   20241140.6054
        47.5004         42.0004
  -2233578.09446  -1729785.51242  25295793.0554   25295786.0204
        36.2504         16.2504
 -10494922.31247  -8162163.47446  23394244.0554   23394239.6414
        42.0004         39.2504
 -10401639.02747  -8069748.60845  22860051.3134   22860047.6604
        42.5004         34.0004
  -3950529.20446  -3052550.53245  24359791.4384   24359787.9414
        39.0004         32.7504
 -10661121.58747  -8296560.54846  23410688.9064   23410682.1564
        44.2504         40.0004
 20  5  4  1 25  0.0000000  0  9G16G27G 9G 4G22G 3G26G 8G 7
 -22112770.24348 -17510516.71546  20666020.8984   20666012.8984
        48.5004         38.5004
  -9282185.76946  -7213435.60646  23254366.2584   23254363.7584
        41.2504         40.0004
 -22892965.21648 -17814899.02748  21050469.0394   21050463.0864
        48.7504         51.5004
 -27809028.16148 -21644499.23246  20242507.2424   20242500.8324
        48.2504         41.7504
  -2130636.71246  -1649571.43043  25315383.0944   25315375.1724
        37.0004         19.2504
 -10389944.74947  -8080362.80546  23414220.7974   23414216.0744
        42.2504         39.0004
 -10308819.10147  -7997421.43345  22877713.9694   22877710.0984
        42.0004         34.0004
  -4051906.67146  -3131545.93945  24340499.8834   24340496.6214
        38.0004         32.2504
 -10731540.32347  -8351432.28146  23397288.2114   23397281.6994
        45.0004         40.2504
 20  5  4  1 25 30.0000000  0  9G16G27G 9G 4G22G 3G26G 8G 7
 -22070305.60948 -17477427.40346  20674101.5784   20674093.3204
        48.7504         38.7504
  -9363684.17347  -7276940.91646  23238858.9534   23238852.8954
        44.2504         40.2504
 -22951085.24348 -17860187.36748  21039409.2974   21039403.4024
        48.5004         51.5004
 -27801424.08647 -21638573.98847  20243954.4144   20243948.0744
        47.5004         42.0004
  -2027776.52346  -1569420.84243  25334958.9144   25334948.4264
        41.5004         19.0004
 -10284825.11947  -7998451.45346  23434224.3524   23434220.0704
        42.0004         39.0004
 -10215748.21146  -7924898.68644  22895425.2584   22895421.4694
        41.7504         29.5004
  -4153268.98746  -3210529.56445  24321211.0864   24321207.4654
        37.2504         32.2504
 -10801852.43047  -8406220.92946  23383908.4144   23383901.3134
        44.2504         40.7504
 20  5  4  1 26  0.0000000  0  9G16G27G 9G 4G22G 3G26G 8G 7
 -22027256.76748 -17443882.86646  20682293.8284   20682285.5394
        49.0004         39.7504
  -9444866.83247  -7340200.08046  23223408.2274   23223406.1994
        42.0004         39.2504
 -23008855.39548 -17905203.08348  21028415.7194   21028410.6414
        48.5004         51.5004
 -27793364.39348 -21632293.72746  20245487.9694   20245481.6644
        48.0004         41.7504
  -1924999.19946  -1489334.49143  25354513.6254   25354507.6604
        37.5004         19.2504
 -10179565.39347  -7916430.92446  23454255.0784   23454250.8014
        42.7504         38.5004
 -10122427.90046  -7852181.59744  22913183.6024   22913180.1134
        41.5004         29.5004
  -4254611.68646  -3289497.89445  24301925.9924   24301922.9414
        36.5004         32.2504
 -10872057.33547  -8460926.03746  23370549.4384   23370542.0274
        45.2504         41.0004
 20  5  4  1 26 30.0000000  0  9G16G27G 9G 4G22G 3G26G 8G 7
 -21983627.08048 -17409885.72246  20690596.3204   20690588.0744
        49.0004         39.2504
  -9525730.94947  -7403211.10646  23208021.2424   23208015.8794
        43.2504         38.5004
 -23066274.20148 -17949945.02148  21017489.6644   21017483.9694
        48.5004         51.7504
 -27784849.03548 -21625658.40547  20247108.8284   20247102.5394
        48.2504         42.0004
  -1822307.23246  -1409314.94543  25374057.3834   25374048.2344
        36.7504         19.0004
 -10074169.12247  -7834303.99946  23474310.0704   23474306.7234
        42.5004         38.2504
 -10028861.41447  -7779272.67945  22930988.7664   22930985.3164
        42.2504         30.0004
  -4355932.16546  -3368448.87145  24282646.7274   24282643.0944
        38.2504         33.0004
 -10942155.36847  -8515547.88646  23357209.6024   23357202.6684
        44.7504         41.0004
 20  5  4  1 27  0.0000000  0  9G16G27G 9G 4G22G 3G26G 8G 7
 -21939417.70548 -17375436.87146  20699009.0004   20699000.9344
        49.2504         39.0004
  -9606272.86347  -7465971.01146  23192694.5084   23192690.4734
        42.7504         39.7504
 -23123339.30448 -17994411.33748  21006630.4774   21006624.9494
        48.0004         51.7504
 -27775876.90248 -21618667.14646  20248816.3444   20248809.9454
        48.5004         41.5004
  -1719702.90346  -1347417.59053  25393581.6564   25393572.8134
        36.0004         20.5004
  -9968638.91747  -7752072.71946  23494393.0704   23494388.4844
        42.0004         38.0004
  -9935050.90646  -7706173.63244  22948840.1094   22948836.9104
        41.7504         29.2504
  -4457227.39846  -3447380.25945  24263369.9224   24263366.7774
        38.5004         32.2504
 -11012145.93247  -8570085.98146  23343891.1724   23343883.8324
        45.2504         40.5004
 20  5  4  1 27 30.0000000  0  9G16G27G 9G 4G22G 3G26G 8G 7
 -21894630.87248 -17340538.05546  20707531.3674   20707523.2504
        49.0004         38.5004
  -9686489.23547  -7528477.28046  23177430.2734   23177425.7774
        43.7504         40.5004
 -23180048.70048 -18038600.49048  20995838.8134   20995833.3634
        48.7504         52.0004
 -27766447.40648 -21611319.51347  20250610.4064   20250604.2344
        48.5004         42.0004
  -1617188.48445  -1267536.25943  25413087.6334   25413081.9304
        33.7504         18.5004
  -9862977.78047  -7669739.40146  23514500.0554   23514495.0434
        43.2504         37.5004
  -9840999.05047  -7632886.50845  22966737.8054   22966734.4144
        42.2504         30.2504
  -4558494.58146  -3526289.71145  24244099.5864   24244095.7384
        38.5004         32.7504
 -11082029.29347  -8624540.55046  23330592.8204   23330585.2344
        44.7504         40.0004
 20  5  4  1 28  0.0000000  0  9G16G27G 9G 4G22G 3G26G 8G 7
 -21849269.54548 -17305191.57446  20716163.2734   20716155.6294
        48.5004         38.2504
  -9766377.01047  -7590727.45446  23162228.3914   23162223.7704
        43.2504         39.7504
 -23236400.47648 -18082510.97048  20985115.3054   20985110.1254
        49.0004         52.0004
 -27756560.01848 -21603615.06947  20252491.7034   20252485.5204
        48.5004         42.2504
  -1514766.70945  -1187727.21742  25432578.0554   25432572.2504
        35.0004         16.7504
  -9757188.82547  -7587306.47346  23534629.4844   23534626.0474
        42.7504         37.5004
  -9746708.53247  -7559413.42944  22984680.9694   22984677.0984
        42.0004         29.2504
  -4659729.88446  -3605174.40745  24224834.8364   24224831.3324
        38.7504         33.5004
 -11151805.52047  -8678911.64146  23317314.3054   23317306.7624
        44.0004         40.0004
 20  5  4  1 28 30.0000000  0  9G16G27G 9G 4G22G 3G26G 8G 7
 -21803335.21448 -17269398.61346  20724904.2114   20724897.0354
        49.5004         38.5004
  -9845932.67747  -7652718.89846  23147089.0554   23147085.2304
        44.2504         41.7504
 -23292392.51548 -18126141.13048  20974460.6564   20974454.8754
        48.7504         52.0004
 -27746213.97048 -21595553.23247  20254461.1254   20254454.6454
        48.0004         42.0004
  -1412439.44046  -1107991.61843  25452054.7894   25452046.1214
        40.5004         19.2504
  -9651274.90547  -7504776.17846  23554784.3984   23554780.7584
        42.5004         37.5004
  -9652181.78847  -7485756.25844  23002668.8984   23002665.0314
        42.5004         29.2504
  -4760930.88746  -3684032.30445  24205577.1644   24205573.3164
        38.2504         33.2504
 -11221473.89647  -8733198.69846  23304056.9614   23304049.8874
        44.0004         40.2504
 20  5  4  1 29  0.0000000  0  9G16G27G 9G 4G22G 3G26G 8G 7
 -21756829.81148 -17233160.64646  20733754.0944   20733746.1374
        48.5004         38.0004
  -9925152.85847  -7714448.84946  23132014.4144   23132010.0744
        44.5004         41.2504
 -23348022.64248 -18169489.27748  20963874.3444   20963869.3794
        48.7504         52.0004
 -27735408.45048 -21587133.36647  20256517.1174   20256510.8284
        48.5004         42.0004
  -1310209.12545  -1049223.49552  25471504.2894   25471498.2734
        34.7504         16.7504
  -9545238.78147  -7422150.68346  23574962.7894   23574958.9924
        42.0004         38.0004
  -9557421.26547  -7411916.92544  23020700.7814   23020696.6414
        42.5004         28.5004
  -4862094.37646  -3762860.98945  24186326.8914   24186322.9494
        38.5004         32.5004
 -11291034.48647  -8787401.74746  23290820.0004   23290813.3794
        43.0004         40.0004
 20  5  4  1 29 30.0000000  0  9G16G27G 9G 4G22G 3G26G 8G 7
 -21709755.66648 -17196479.51746  20742711.9694   20742704.3914
        48.5004         38.2504
 -10004034.33247  -7775914.97746  23117002.9454   23116999.3484
        43.7504         41.7504
 -23403289.04048 -18212554.00448  20953357.7974   20953352.2624
        49.0004         52.0004
 -27724143.06548 -21578355.16147  20258660.6414   20258654.7704
        48.7504         42.0004
  -1208078.04745   -989073.18653  25490937.6954   25490935.0824
        34.7504         21.0004
  -9439083.66246  -7339432.44846  23595163.4454   23595160.0904
        41.2504         38.0004
  -9462429.67347  -7337897.54344  23038776.7814   23038773.9224
        42.5004         28.5004
  -4963216.84446  -3841657.73145  24167083.7734   24167080.0274
        37.5004         33.0004
 -11360487.70647  -8841521.12946  23277604.3054   23277596.6884
        42.7504         40.2504
 20  5  4  1 30  0.0000000  0  9G16G27G 9G 4G22G 3G26G 8G 7
 -21662115.06448 -17159356.97446  20751777.6024   20751770.2774
        48.2504         38.7504
 -10082573.43947  -7837114.23547  23102057.3754   23102054.2734
        43.5004         42.0004
 -23458189.16748 -18255333.32648  20942910.5314   20942905.0784
        49.7504         52.2504
 -27712416.66848 -21569217.73147  20260892.0704   20260886.1564
        48.5004         42.0004
  -1106048.11146   -909570.24242  25510357.7894   25510350.8794
        39.5004         17.2504
  -9332811.95047  -7256623.36346  23615386.0634   23615382.3524
        42.2504         37.5004
  -9367209.07446  -7263699.70644  23056896.9924   23056893.1134
        41.5004         29.5004
  -5064295.10146  -3920419.99845  24147847.6414   24147845.4964
        37.7504         33.0004
 -11429832.66447  -8895556.16146  23264407.5704   23264400.8204
        43.0004         40.5004
 20  5  4  1 30 30.0000000  0  9G16G27G 9G 4G22G 3G26G 8G 7
 -21613910.66048 -17121795.11846  20760950.7504   20760942.8554
        48.0004         38.7504
 -10160767.54947  -7898044.71046  23087177.4384   23087173.3054
        43.0004         40.2504
 -23512721.65748 -18297826.17448  20932533.2194   20932528.1374
        49.5004         52.5004
 -27700229.32047 -21559721.11246  20263211.1884   20263205.3524
        47.5004         41.7504
  -1004122.48646   -850993.89553  25529753.6804   25529744.7934
        40.0004         18.5004
  -9226427.30846  -7173726.29746  23635630.5634   23635626.7464
        41.2504         37.2504
  -9271762.76247  -7189326.00844  23075059.8364   23075056.6684
        42.5004         28.5004
  -5165326.42046  -3999145.68945  24128622.4844   24128619.5704
        37.5004         33.0004
 -11499070.01647  -8949507.34446  23251232.3834   23251225.5164
        43.5004         40.5004
 20  5  4  1 31  0.0000000  0  9G16G27G 9G 4G22G 3G26G 8G 7
 -21565144.66148 -17083795.65646  20770230.2814   20770222.6804
        48.0004         38.7504
 -10238613.13947  -7958703.58546  23072364.9924   23072360.1914
        43.7504         39.5004
 -23566884.32648 -18340030.86248  20922226.6484   20922221.3444
        50.2504         52.5004
 -27687580.26447 -21549864.72846  20265618.1254   20265612.3954
        47.5004         41.5004
   -902303.07746   -791049.95252  25549127.5634   25549120.7934
        38.5004         17.7504
  -9119932.47846  -7090743.34446  23655895.8834   23655891.6454
        40.5004         36.0004
  -9176092.97447  -7114778.15144  23093265.4064   23093261.8444
        42.0004         28.5004
  -5266307.86846  -4077832.50245  24109406.4694   24109403.8284
        38.7504         33.2504
 -11568199.39647  -9003374.38046  23238077.7344   23238071.1254
        43.2504         41.2504
 20  5  4  1 31 30.0000000  0  9G16G27G 9G 4G22G 3G26G 8G 7
 -21515818.98648 -17045360.07346  20779617.2814   20779609.4534
        49.0004         38.2504
 -10316106.85047  -8019088.31946  23057617.9144   23057613.1764
        44.0004         40.0004
 -23620675.10048 -18381945.75348  20911990.4844   20911985.2504
        50.0004         52.5004
 -27674468.87647 -21539648.08246  20268112.9694   20268107.5164
        47.7504         41.5004
   -800592.03146   -711794.60343  25568482.0784   25568474.6094
        38.5004         18.2504
  -9013330.29246  -7007676.75246  23676182.1174   23676177.4924
        40.7504         36.5004
  -9080202.26047  -7040058.14944  23111513.2814   23111509.6094
        43.0004         29.0004
  -5367236.00046  -4156477.75845  24090201.6094   24090198.2304
        39.0004         34.7504
 -11637220.41647  -9057156.97546  23224943.8524   23224936.3954
        44.0004         41.5004
 20  5  4  1 32  0.0000000  0  9G16G27G 9G 4G22G 3G26G 8G 7
 -21465936.02948 -17006490.26046  20789109.3594   20789101.7304
        48.5004         38.0004
 -10393245.61547  -8079196.44746  23042939.6254   23042934.6134
        44.7504         40.2504
 -23674092.08648 -18423569.38748  20901825.8284   20901819.8714
        50.2504         52.2504
 -27660894.64848 -21529070.78046  20270696.5704   20270690.5354
        48.0004         41.2504
   -698991.780 4                  25587815.711
        26.750
  -8906623.89346  -6924528.95346  23696487.7034   23696483.4024
        41.7504         36.2504
  -8984093.27347  -6965168.08244  23129802.2274   23129797.9924
        42.0004         28.2504
  -5468108.05046  -4235079.35345  24071005.6334   24071002.1054
        38.5004         34.0004
 -11706133.17247  -9110855.21547  23211829.6724   23211822.7464
        44.0004         42.0004
 20  5  4  1 32 30.0000000  0  8G16G27G 9G 4G 3G26G 8G 7
 -21415491.88148 -16967183.15146  20798708.5004   20798700.7934
        48.5004         38.5004
 -10470019.67847  -8139020.40946  23028328.7274   23028325.0744
        43.2504         40.7504
 -23727126.76248 -18464895.12348  20891733.3524   20891727.8404
        49.5004         52.2504
 -27646850.61148 -21518127.38946  20273369.4144   20273363.0704
        48.5004         41.7504
  -8799809.69746  -6841297.13646  23716813.3284   23716809.5864
        40.2504         36.7504
  -8887762.04446  -6890104.81344  23148133.0864   23148128.9734
        41.2504         28.5004
  -5568913.83846  -4313629.29045  24051823.4224   24051819.0744
        39.7504         33.7504
 -11774931.35347  -9164464.17946  23198737.7194   23198731.2154
        44.5004         41.7504
 20  5  4  1 33  0.0000000  0  8G16G27G 9G 4G 3G26G 8G 7
 -21364501.09548 -16927450.08746  20808411.6484   20808404.1484
        48.7504         38.0004
 -10546438.07947  -8198567.20746  23013786.9844   23013783.1094
        44.0004         41.2504
 -23779789.41048 -18505930.95348  20881712.1414   20881706.3204
        50.0004         52.2504
 -27632348.48948 -21506827.06047  20276128.8134   20276122.7624
        48.0004         42.0004
  -8692902.86946  -6757993.17146  23737157.5314   23737153.1524
        40.5004         36.2504
  -8791223.33646  -6814879.89744  23166503.6334   23166500.3444
        41.0004         27.0004
  -5669663.58846  -4392135.58845  24032650.5784   24032647.6094
        38.5004         34.2504
 -11843626.85047  -9217993.13446  23185665.7894   23185658.5704
        45.0004         41.5004
 20  5  4  1 33 30.0000000  0  8G16G27G 9G 4G 3G26G 8G 7
 -21312959.48447 -16887287.80646  20818219.8284   20818212.0824
        47.7504         38.0004
 -10622491.14247  -8257829.32446  22999314.5084   22999310.5784
        42.7504         41.5004
 -23832071.68548 -18546670.40448  20871763.2974   20871757.4614
        49.7504         52.2504
 -27617381.35447 -21495164.38546  20278976.9454   20278970.6724
        47.7504         41.2504
  -8585899.97746  -6674614.33546  23757519.3204   23757515.5314
        40.5004         37.7504
  -8694473.35746  -6739490.33544  23184914.8524   23184911.2114
        41.2504         28.0004
  -5770346.96246  -4470590.16145  24013490.4304   24013488.2074
        37.5004         34.5004
 -11912213.64947  -9271437.38446  23172614.3914   23172606.8594
        44.7504         41.0004
 20  5  4  1 34  0.0000000  0  8G16G27G 9G 4G 3G26G 8G 7
 -21260869.92148 -16846698.55746  20828132.4924   20828124.4064
        48.7504         38.5004
 -10698176.01047  -8316804.54546  22984912.0474   22984908.6334
        43.5004         41.5004
 -23883971.89848 -18587112.12648  20861886.9384   20861881.3914
        48.0004         52.5004
 -27601949.09947 -21483139.26346  20281913.6484   20281907.4224
        47.7504         41.5004
  -8478804.35246  -6591163.24346  23777898.7504   23777894.9454
        40.5004         37.5004
  -8597514.90546  -6663938.34444  23203365.3524   23203361.7234
        40.7504         28.0004
  -5870961.04046  -4548990.73845  23994345.5164   23994341.1024
        39.0004         34.0004
 -11980691.45647  -9324796.72246  23159582.3444   23159575.8204
        44.0004         41.0004
 20  5  4  1 34 30.0000000  0  8G16G27G 9G 4G 3G26G 8G 7
 -21208234.31948 -16805683.81846  20838148.2584   20838140.9574
        48.2504         37.7504
 -10773489.08347  -8375490.04046  22970580.9614   22970576.8204
        43.2504         41.5004
 -23935487.59848 -18627254.24148  20852083.6724   20852078.1954
        48.0004         52.2504
 -27586050.71647 -21470750.93246  20284938.9774   20284933.0234
        47.5004         41.5004
  -8371618.45346  -6507641.82646  23798295.6254   23798292.0474
        41.2504         36.7504
  -8500350.10546  -6588225.55144  23221854.9304   23221851.7274
        41.2504         27.5004
  -5971502.94146  -4627335.07345  23975212.7814   23975209.3874
        38.5004         33.5004
 -12049060.11447  -9378070.99646  23146573.0704   23146565.4184
        44.2504         40.7504
 20  5  4  1 35  0.0000000  0  8G16G27G 9G 4G 3G26G 8G 7
 -21155055.95448 -16764246.13546  20848268.0394   20848260.3524
        48.0004         38.2504
 -10848427.84247  -8433883.90647  22956320.0474   22956316.6454
        42.7504         42.0004
 -23986617.65148 -18667095.84648  20842354.1094   20842348.4454
        48.0004         52.2504
 -27569686.56247 -21457999.66146  20288052.7814   20288046.9694
        47.7504         41.5004
  -8264346.00946  -6424052.97345  23818708.7664   23818704.7974
        41.5004         35.5004
  -8402982.22946  -6512354.51444  23240383.8134   23240380.3674
        41.2504         27.2504
  -6071969.79046  -4705620.89645  23956094.7274   23956091.1994
        38.7504         34.5004
 -12117320.06447  -9431260.56546  23133583.5864   23133576.1134
        44.5004         40.7504
 20  5  4  1 35 30.0000000  0  8G16G27G 9G 4G 3G26G 8G 7
 -21101336.38047 -16722386.74546  20858490.5004   20858482.6414
        47.7504         37.5004
 -10922988.48247  -8491983.05647  22942133.1804   22942128.5204
        44.2504         42.0004
 -24037359.37048 -18706634.85248  20832697.9614   20832692.3524
        49.5004         52.2504
 -27552855.50847 -21444884.57346  20291255.4534   20291249.5044
        47.2504         41.5004
  -8156989.28646  -6340398.42545  23839138.9064   23839134.8324
        41.2504         35.5004
  -8305413.15546  -6436326.71944  23258950.9304   23258946.6884
        41.2504         27.0004
  -6172357.92646  -4783845.42645  23936991.0784   23936988.8244
        38.2504         35.7504
 -12185471.20347  -9484365.34646  23120615.1174   23120607.3794
        44.0004         40.7504
 20  5  4  1 36  0.0000000  0  8G16G27G 9G 4G 3G26G 8G 7
 -21047078.27648 -16680107.72146  20868815.6254   20868807.8244
        48.0004         38.0004
 -10997168.13147  -8549785.39246  22928016.8054   22928011.9264
        44.2504         41.5004
 -24087711.15348 -18745870.00748  20823116.5554   20823110.8984
        49.5004         52.5004
 -27535557.49847 -21431405.62547  20294547.5084   20294541.4494
        47.5004         42.0004
  -8049551.49146  -6256680.71645  23859582.7344   23859578.9454
        40.5004         35.7504
  -8207645.69746  -6360144.32244  23277555.4064   23277551.7774
        41.2504         27.5004
  -6272664.49546  -4862006.34946  23917904.3284   23917901.5354
        40.0004         37.2504
 -12253512.77447  -9537384.74646  23107666.5784   23107659.5164
        43.7504         41.0004
 20  5  4  1 36 30.0000000  0  8G16G27G 9G 4G 3G26G 8G 7
 -20992284.63047 -16637411.38746  20879242.2504   20879234.4804
        47.5004         38.2504
 -11070963.97747  -8607288.66546  22913972.2034   22913968.7624
        42.7504         41.5004
 -24137671.35348 -18784800.04348  20813609.3524   20813604.1954
        49.5004         52.7504
 -27517792.38447 -21417562.70046  20297928.3444   20297922.1954
        47.0004         41.5004
  -7942036.01046  -6172902.45246  23880043.8364   23880038.8014
        41.0004         36.2504
  -8109682.68346  -6283809.55344  23296196.8054   23296193.6604
        41.0004         27.0004
  -6372886.79246  -4940101.65646  23898831.7974   23898828.1094
        40.0004         36.0004
 -12321445.14047  -9590319.08446  23094739.7344   23094732.5944
        44.2504         41.2504
 20  5  4  1 37  0.0000000  0  8G16G27G 9G 4G 3G26G 8G 7
 -20936956.95747 -16594298.92946  20889770.8834   20889762.9224
        47.7504         38.0004
 -11144371.99947  -8664489.71046  22900004.2114   22899999.9104
        43.2504         41.0004
 -24187237.13448 -18823422.74148  20804177.2974   20804172.0354
        49.7504         53.0004
 -27499558.93047 -21403354.84246  20301397.8754   20301392.1374
        47.0004         41.2504
  -7834444.73446  -6089065.13946  23900516.8134   23900512.8404
        41.2504         36.0004
  -8011525.80546  -6207323.70444  23314875.2504   23314872.2274
        40.7504         27.5004
  -6473020.75346  -5018128.08546  23879776.8054   23879774.6954
        39.7504         36.5004
 -12389268.08547  -9643168.10746  23081833.3364   23081826.3554
        44.0004         41.7504
 20  5  4  1 37 30.0000000  0  8G16G27G 9G 4G 3G26G 8G 7
 -20881098.04647 -16550772.52146  20900400.5394   20900392.4104
        47.7504         37.7504
 -11217389.12047  -8721386.17146  22886109.0394   22886105.6174
        43.2504         41.7504
 -24236406.67448 -18861736.66448  20794821.0394   20794815.2344
        48.5004         53.0004
 -27480856.80147 -21388781.77246  20304956.7584   20304950.8834
        47.0004         41.7504
  -7726780.84946  -6005171.23545  23921003.8444   23921000.8284
        40.2504         35.7504
  -7913177.60446  -6130688.78244  23333591.1414   23333587.1844
        41.2504         25.2504
  -6573063.18946  -5096083.22045  23860739.7344   23860736.5514
        39.2504         35.5004
 -12456981.02747  -9695931.43447  23068948.3834   23068941.1804
        44.0004         42.0004
 20  5  4  1 38  0.0000000  0  9G16G27G30G 9G 4G 3G26G 8G 7
 -20824710.52747 -16506834.20246  20911130.5234   20911122.4884
        47.7504         37.2504
 -11290012.46547  -8777975.76947  22872289.4304   22872285.6884
        43.5004         42.2504
                                  25670828.313
        33.000
 -24285178.24648 -18899740.49448  20785539.6414   20785534.3874
        49.5004         53.0004
 -27461685.90047 -21373843.42946  20308604.8594   20308598.6804
        47.0004         41.5004
  -7619047.48946  -5921223.23046  23941506.8984   23941501.5234
        40.7504         36.2504
  -7814640.81246  -6053906.90544  23352341.5634   23352337.8404
        41.0004         26.0004
  -6673011.14246  -5173964.75045  23841720.3444   23841716.5634
        39.0004         34.7504
 -12524584.10447  -9748609.15647  23056083.7424   23056077.1294
        44.5004         42.0004
 20  5  4  1 38 30.0000000  0  9G16G27G30G 9G 4G 3G26G 8G 7
 -20767799.39247 -16462487.88146  20921960.5554   20921952.6094
        47.5004         38.0004
 -11362241.28847  -8834257.96947  22858545.0314   22858541.0004
        43.2504         42.0004
    293648.70745    242697.13554  25654392.5004   25654389.2424
        33.2504         25.7504
 -24333552.34448 -18937434.59548  20776334.6484   20776329.3594
        50.7504         53.0004
 -27442048.26647 -21358541.39146  20312341.9534   20312336.0664
        47.5004         41.2504
  -7511249.88646  -5837225.16146  23962019.1024   23962015.2624
        40.2504         36.2504
  -7715920.34546  -5976981.90844  23371127.1024   23371124.0594
        40.7504         25.7504
  -6772863.74646  -5251771.93845  23822718.7894   23822714.7074
        39.0004         34.0004
 -12592080.12847  -9801203.45047  23043239.4144   23043232.9184
        44.0004         42.5004
 20  5  4  1 39  0.0000000  0  9G16G27G30G 9G 4G 3G26G 8G 7
 -20710363.87447 -16417732.93846  20932890.4534   20932882.6334
        47.7504         38.0004
 -11434069.57247  -8890228.03746  22844876.4304   22844872.4104
        43.7504         41.7504
    207301.29045    175413.30644  25637961.6564   25637956.8324
        34.7504         25.7504
 -24381524.13748 -18974815.22648  20767205.9694   20767200.5554
        50.5004         53.0004
 -27421940.65947 -21342873.13846  20316168.1644   20316162.1374
        47.0004         41.5004
  -7403388.15446  -5753177.11545  23982544.4454   23982540.7034
        40.0004         35.2504
  -7617015.82446  -5899913.50144  23389948.6094   23389945.0944
        41.0004         27.0004
  -6872615.24046  -5329500.37345  23803736.9384   23803732.9964
        41.0004         34.5004
 -12659465.65247  -9853711.63446  23030416.6724   23030409.5984
        44.0004         41.7504
 20  5  4  1 39 30.0000000  0  9G16G27G30G 9G 4G 3G26G 8G 7
 -20652404.56147 -16372569.85346  20943919.2584   20943911.9844
        47.2504         38.5004
 -11505491.99547  -8945881.85347  22831285.7584   22831280.7974
        43.5004         42.0004
    120980.33545    108150.19843  25621534.2034   25621531.2854
        31.7504         22.7504
 -24429089.42048 -19011879.09048  20758154.3444   20758148.8164
        49.7504         53.0004
 -27401360.48047 -21326836.64946  20320084.4144   20320078.8054
        47.0004         41.2504
  -7295462.94846  -5669079.61845  24003082.3754   24003077.8554
        40.7504         35.0004
  -7517927.41046  -5822701.81144  23408804.3204   23408801.1684
        41.0004         27.0004
  -6972260.10546  -5407145.72745  23784774.8364   23784772.3634
        40.0004         35.5004
 -12726738.39047  -9906131.94246  23017614.9924   23017607.9924
        44.0004         41.7504
 20  5  4  1 40  0.0000000  0  9G16G27G30G 9G 4G 3G26G 8G 7
 -20593926.91547 -16327002.86546  20955047.2424   20955039.7894
        47.5004         37.7504
 -11576508.37747  -9001219.26347  22817772.1564   22817767.1844
        44.0004         42.0004
     34683.19745     40905.60944  25605113.2114   25605109.6564
        34.2504         29.5004
 -24476249.19848 -19048626.97048  20749180.1644   20749174.8014
        49.5004         53.0004
 -27380310.34347 -21310433.96946  20324089.9534   20324084.5434
        46.5004         41.0004
  -7187480.09646  -5584937.15345  24023629.2664   24023626.3404
        40.2504         34.7504
  -7418660.52746  -5745351.02844  23427694.8444   23427690.8484
        41.0004         26.7504
  -7071798.38646  -5484708.04746  23765833.7424   23765830.4144
        40.5004         36.5004
 -12793901.01847  -9958466.46247  23004834.2734   23004826.8674
        44.5004         42.0004
 20  5  4  1 40 30.0000000  0  9G16G27G30G 9G 4G 3G26G 8G 7
 -20534932.84247 -16281033.48046  20966273.5944   20966265.6994
        47.0004         37.7504
 -11647114.89547  -9056237.33047  22804335.4224   22804330.8984
        44.5004         42.0004
    -51589.37546    -26319.77544  25588697.0234   25588692.1374
        36.2504         29.5004
 -24523000.89748 -19085056.88348  20740283.7034   20740278.1094
        49.2504         53.0004
 -27358789.23647 -21293664.29446  20328185.4694   20328180.1294
        47.0004         41.2504
  -7079441.78446  -5500751.52645  24044190.6724   24044185.4414
        41.0004         35.0004
  -7319216.92547  -5667862.57044  23446618.6094   23446614.4614
        42.0004         25.5004
  -7171225.89446  -5562184.01046  23746912.8284   23746910.0944
        40.0004         36.5004
 -12860952.88747 -10010714.67447  22992074.6414   22992067.7814
        44.5004         42.0004
 20  5  4  1 41  0.0000000  0  9G16G27G30G 9G 4G 3G26G 8G 7
 -20475425.07548 -16234663.80646  20977597.3914   20977589.9064
        48.0004         37.5004
 -11717308.78347  -9110933.85546  22790978.0234   22790973.3364
        43.2504         41.5004
   -137837.49246    -93526.14744  25572283.5394   25572280.2274
        36.0004         25.2504
 -24569342.84448 -19121167.49848  20731465.1254   20731459.7734
        49.2504         52.7504
 -27336797.16247 -21276527.63446  20332370.6174   20332364.4654
        47.0004         41.2504
  -6971351.19646  -5416525.11845  24064757.9694   24064754.2464
        39.7504         34.2504
  -7219599.35346  -5590238.54344  23465574.3594   23465570.6844
        41.5004         26.0004
  -7270539.61546  -5639571.30945  23728014.1414   23728009.4144
        39.5004         35.5004
 -12927894.27947 -10062876.79047  22979336.7034   22979329.0434
        43.7504         42.0004
 20  5  4  1 41 30.0000000  0  9G16G27G30G 9G 4G 3G26G 8G 7
 -20415405.91548 -16187895.64246  20989018.9924   20989011.2464
        48.2504         37.0004
 -11787086.61447  -9165306.18346  22777699.7034   22777695.1254
        43.0004         41.5004
   -224060.49045   -160713.02043  25555875.4454   25555871.7624
        34.2504         23.5004
 -24615272.78648 -19156957.06648  20722724.8524   20722719.5124
        49.0004         52.5004
 -27314333.49647 -21259023.50146  20336645.1254   20336639.1024
        46.2504         41.0004
  -6863210.87746  -5332259.97945  24085336.5634   24085332.6094
        39.0004         34.5004
  -7119809.89646  -5512480.56944  23484563.3914   23484560.4184
        41.5004         26.7504
  -7369735.96446  -5716867.15845  23709137.6174   23709134.4924
        39.0004         35.7504
 -12994724.76347 -10114952.48247  22966619.0234   22966611.6094
        44.2504         42.2504
 20  5  4  1 42  0.0000000  0  9G16G27G30G 9G 4G 3G26G 8G 7
 -20354877.89847 -16140730.97146  21000536.8674   21000529.7384
        47.7504         37.7504
 -11856445.48947  -9219352.04347  22764501.0234   22764496.4494
        44.0004         42.2504
   -310258.40545   -227880.28844  25539473.5474   25539469.5784
        35.0004         26.5004
 -24660788.98648 -19192424.24448  20714063.4924   20714058.0664
        50.0004         52.7504
 -27291398.13647 -21241151.81446  20341009.4304   20341003.5904
        47.5004         41.0004
  -6755023.88846  -5247958.50545  24105924.0944   24105920.1454
        39.7504         34.5004
  -7019851.17146  -5434590.69544  23503585.7974   23503582.1134
        41.7504         25.2504
  -7468812.37746  -5794069.50845  23690283.4844   23690279.9414
        38.5004         34.7504
 -13061444.22547 -10166941.70047  22953922.2034   22953915.2074
        44.5004         42.7504
 20  5  4  1 42 30.0000000  0  9G16G27G30G 9G 4G 3G26G 8G 7
 -20293844.00847 -16093172.11546  21012151.0704   21012143.5394
        47.5004         37.2504
 -11925382.35647  -9273069.07047  22751382.7114   22751378.8754
        43.5004         42.2504
   -396431.02646   -295027.78544  25523074.8594   25523071.4534
        36.7504         28.2504
 -24705889.58148 -19227567.57648  20705481.1564   20705475.7384
        49.5004         52.7504
 -27267990.81147 -21222912.35546  20345464.0164   20345458.2664
        47.0004         40.7504
  -6646793.07946  -5163622.89345  24126520.3364   24126515.9384
        39.7504         34.2504
  -6919725.55547  -5356570.77944  23522639.0084   23522635.0594
        42.0004         24.5004
  -7567765.39146  -5871175.72446  23671453.0234   23671452.4844
        38.7504         36.7504
 -13128052.89447 -10218844.53747  22941247.5474   22941240.0274
        45.0004         42.5004
 20  5  4  1 43  0.0000000  0  9G16G27G30G 9G 4G 3G26G 8G 7
 -20232306.89147 -16045221.12346  21023861.3364   21023853.5784
        47.5004         37.2504
 -11993894.41747  -9326455.07747  22738345.5314   22738341.3714
        43.5004         43.0004
   -482578.48746   -362155.76844  25506682.1564   25506677.5164
        36.7504         28.5004
 -24750572.83448 -19262385.70348  20696978.2114   20696972.7584
        50.2504         53.0004
 -27244111.51547 -21204305.13146  20350008.1024   20350002.0554
        47.0004         41.0004
  -6538521.58146  -5079255.52945  24147124.0394   24147119.5824
        40.2504         34.0004
  -6819435.77147  -5278422.93544  23541723.0314   23541719.7704
        42.0004         25.2504
  -7666591.80346  -5948183.35946  23652648.0784   23652645.2304
        39.0004         36.0004
 -13194550.44947 -10270660.81347  22928593.6954   22928586.2384
        44.5004         42.7504
 20  5  4  1 43 30.0000000  0  9G16G27G30G 9G 4G 3G26G 8G 7
 -20170268.97447 -15996879.89946  21035667.0004   21035659.0084
        47.7504         37.5004
 -12061978.35047  -9379507.47147  22725389.3754   22725385.4454
        43.7504         43.0004
   -568700.25145   -429263.69244  25490292.9304   25490289.5274
        35.5004         25.5004
 -24794836.60148 -19296876.96548  20688555.0784   20688549.7274
        50.5004         53.0004
 -27219759.73747 -21185329.74346  20354641.9614   20354635.9804
        46.5004         41.2504
  -6430211.98046  -4994858.50445  24167734.4924   24167730.0904
        39.7504         34.5004
  -6718983.93846  -5200148.80644  23560837.2974   23560835.3094
        40.2504         25.0004
  -7765288.47146  -6025089.82245  23633867.0314   23633862.2544
        40.2504         35.0004
 -13260936.63547 -10322390.30347  22915960.0474   22915953.1414
        44.7504         42.5004
 20  5  4  1 44  0.0000000  0  9G16G27G30G 9G 4G 3G26G 8G 7
 -20107732.46847 -15948150.16346  21047567.1884   21047559.3324
        47.7504         37.5004
 -12129630.85847  -9432223.69247  22712515.4534   22712511.4304
        43.2504         42.2504
   -654795.92646   -496351.24444  25473909.7114   25473906.7034
        36.0004         27.5004
 -24838678.72048 -19331039.65648  20680212.7274   20680206.5234
        50.5004         53.2504
 -27194934.97447 -21165985.79546  20359365.9064   20359359.7034
        46.0004         40.7504
  -6321866.82546  -4910433.75645  24188350.3834   24188348.0084
        38.5004         34.2504
  -6618372.15647  -5121750.07444  23579984.9304   23579980.8874
        42.0004         25.2504
  -7863851.73446  -6101892.40145  23615109.9614   23615106.3834
        39.7504         35.5004
 -13327210.85347 -10374032.53947  22903348.8444   22903341.4104
        44.2504         42.5004
 20  5  4  1 44 30.0000000  0  9G16G27G30G 9G 4G 3G26G 8G 7
 -20044700.41247 -15899034.28946  21059561.6334   21059554.1094
        47.7504         37.7504
 -12196849.37647  -9484601.74447  22699724.0944   22699719.8954
        43.7504         42.2504
   -740865.57246   -563418.60845  25457532.5314   25457527.6914
        38.0004         30.7504
 -24882097.72348 -19364872.64648  20671949.9454   20671944.5984
        50.5004         53.2504
 -27169637.50747 -21146273.49846  20364180.0314   20364173.9964
        47.0004         41.0004
  -6213489.45446  -4825983.93745  24208975.3134   24208971.4884
        40.0004         34.5004
  -6517603.22846  -5043228.87344  23599160.0474   23599156.0044
        41.7504         24.2504
  -7962278.85046  -6178588.84345  23596380.3674   23596376.5944
        39.5004         35.5004
 -13393373.55447 -10425587.86447  22890757.9454   22890751.4574
        44.5004         42.5004
 20  5  4  1 45  0.0000000  0  9G16G27G30G 9G 4G 3G26G 8G 7
 -19981174.92948 -15849533.93146  21071650.3674   21071642.5784
        48.2504         37.0004
 -12263630.41147  -9536638.90647  22687016.7034   22687012.0084
        43.7504         43.0004
   -826908.67045   -630465.22444  25441158.1724   25441154.5044
        35.5004         27.7504
 -24925091.29148 -19398374.14648  20663768.6804   20663763.5434
        50.5004         53.2504
 -27143866.60747 -21126192.30046  20369084.2504   20369078.1804
        46.0004         40.5004
  -6105082.21846  -4741510.81545  24229603.7344   24229600.3834
        39.5004         33.7504
  -6416679.10446  -4964586.74344  23618363.9144   23618362.1174
        39.0004         26.0004
  -8060566.23146  -6255176.41546  23577677.3984   23577676.0164
        39.7504         38.0004
 -13459424.14047 -10477055.83847  22878189.3284   22878182.3164
        44.2504         42.7504
 20  5  4  1 45 30.0000000  0  9G16G27G30G 9G 4G 3G26G 8G 7
 -19917159.43448 -15799651.73646  21083831.8204   21083823.9264
        48.0004         37.0004
 -12329971.41947  -9588333.18047  22674391.9304   22674387.8404
        43.7504         42.7504
   -912925.46045   -697491.21044  25424789.0704   25424786.5864
        35.0004         27.0004
 -24967657.91748 -19431542.95648  20655668.1954   20655663.1254
        51.0004         53.5004
 -27117622.57947 -21105742.43246  20374078.2274   20374072.2464
        46.0004         40.5004
  -5996648.40846  -4657016.99045  24250238.2664   24250235.4224
        39.0004         34.0004
  -6315602.56146  -4885825.83943  23637598.3204   23637595.4774
        41.2504         23.7504
  -8158710.61946  -6331652.60846  23559001.0474   23558998.3244
        39.2504         36.5004
 -13525363.25447 -10528436.94547  22865641.4614   22865634.7344
        45.0004         42.7504
 20  5  4  1 46  0.0000000  0  9G16G27G30G 9G 4G 3G26G 8G 7
 -19852656.25148 -15749389.52846  21096106.4304   21096098.7974
        48.2504         36.5004
 -12395869.11047  -9639682.00747  22661851.7894   22661847.9304
        43.5004         43.5004
   -998915.35946   -764496.40244  25408426.3754   25408422.7274
        36.2504         29.0004
 -25009795.50448 -19464377.45348  20647650.0084   20647644.6914
        49.7504         53.5004
 -27090904.95647 -21084923.52846  20379162.5394   20379156.3014
        46.2504         40.5004
  -5888190.51446  -4572504.44745  24270878.6254   24270873.6884
        41.5004         33.5004
  -6214375.74247  -4806947.86044  23656862.5394   23656859.2344
        42.0004         25.7504
  -8256708.96546  -6408014.94746  23540352.7814   23540347.9454
        40.0004         36.5004
 -13591189.98247 -10579730.48847  22853114.8674   22853107.9184
        45.0004         42.7504
 20  5  4  1 46 30.0000000  0  9G16G27G30G 9G 4G 3G26G 8G 7
 -19787668.06648 -15698749.40046  21108473.3754   21108466.1414
        48.2504         37.0004
 -12461320.78447  -9690683.29747  22649396.7194   22649392.6604
        43.5004         42.7504
  -1084878.33945   -831480.62444  25392069.2664   25392064.8914
        35.2504         28.2504
 -25051502.39348 -19496876.33548  20639713.2894   20639708.2194
        50.7504         53.5004
 -27063713.82347 -21063735.65346  20384336.8984   20384330.3554
        46.0004         40.5004
  -5779711.63746  -4487975.50145  24291521.1484   24291516.3204
        41.2504         33.5004
  -6113001.19846  -4727954.75844  23676152.6414   23676150.5084
        40.0004         25.7504
  -8354558.07146  -6484260.98445  23521732.0634   23521728.5554
        39.5004         35.7504
 -13656904.67247 -10630936.72147  22840610.0474   22840602.9184
        45.0004         43.0004
 20  5  4  1 47  0.0000000  0  9G16G27G30G 9G 4G 3G26G 8G 7
 -19722197.41248 -15647733.31846  21120931.9224   21120924.3674
        48.0004         36.7504
 -12526323.23947  -9741334.55647  22637027.2664   22637023.1844
        43.5004         42.7504
  -1170814.21145   -898443.65944  25375714.9614   25375711.6214
        35.0004         29.0004
 -25092776.53048 -19529037.99348  20631859.6024   20631854.0044
        49.7504         53.5004
 -27036048.81647 -21042178.53246  20389601.3524   20389595.1484
        46.0004         40.0004
  -5671214.30946  -4403432.15745  24312164.8444   24312163.8484
        37.5004         32.7504
  -6011481.05046  -4648848.20344  23695472.0704   23695469.0124
        41.0004         24.5004
  -8452254.48746  -6560388.04946  23503141.1884   23503139.1884
        39.5004         37.5004
 -13722506.61447 -10682055.10647  22828126.5314   22828118.7154
        44.7504         43.2504
 20  5  4  1 47 30.0000000  0  9G16G27G30G 9G 4G 3G26G 8G 7
 -19656246.91148 -15596343.32646  21133482.0084   21133474.5704
        48.5004         37.0004
 -12590873.53747  -9791633.48247  22624743.7814   22624739.5784
        43.7504         43.0004
  -1256722.39246   -965385.14644  25359368.1334   25359363.8984
        36.2504         28.7504
 -25133616.02948 -19560860.99448  20624087.4384   20624082.0554
        50.2504         53.5004
 -27007909.79347 -21020252.04646  20394956.1414   20394949.5234
        46.5004         40.2504
  -5562701.44146  -4318876.75845  24332817.2274   24332812.7974
        39.2504         33.7504
  -5909817.62847  -4569630.01844  23714819.3524   23714815.0234
        42.0004         25.7504
  -8549795.07846  -6636393.69546  23484580.1484   23484576.6334
        40.5004         37.7504
 -13787995.93147 -10733085.71847  22815664.2114   22815656.7344
        44.5004         43.0004
 20  5  4  1 48  0.0000000  0  9G16G27G30G 9G 4G 3G26G 8G 7
 -19589819.01248 -15544581.34546  21146123.1804   21146115.5784
        48.2504         37.2504
 -12654968.74747  -9841577.79947  22612546.8054   22612542.6334
        43.5004         42.7504
  -1342602.87945  -1032305.02144  25343023.9774   25343020.9574
        35.2504         29.0004
 -25174019.06448 -19592343.88748  20616399.2344   20616393.8094
        49.7504         53.5004
 -26979296.64247 -20997956.10446  20400400.7424   20400394.6994
        46.5004         40.5004
  -5454175.70846  -4234311.33045  24353467.4224   24353464.5314
        38.7504         33.7504
  -5808013.25547  -4490302.00344  23734192.1564   23734187.6054
        42.0004         26.0004
  -8647176.44046  -6712275.28846  23466049.0864   23466045.5354
        39.5004         37.2504
 -13853372.23847 -10784028.27547  22803223.6174   22803216.0704
        44.7504         42.7504
 20  5  4  1 48 30.0000000  0  9G16G27G30G 9G 4G 3G26G 8G 7
 -19522916.99048 -15492449.91846  21158853.9534   21158846.0864
        49.0004         37.0004
 -12718605.99847  -9891165.25847  22600437.2274   22600433.2034
        44.0004         43.2504
  -1428455.45946  -1099203.18845  25326687.8914   25326684.4614
        38.0004         30.2504
 -25213983.81748 -19623485.25048  20608794.4304   20608788.6604
        50.0004         53.5004
 -26950209.30647 -20975290.67646  20405936.3444   20405930.0044
        46.2504         40.0004
  -5345640.06046  -4149738.18445  24374122.0944   24374118.3244
        39.2504         33.7504
  -5706070.33447  -4410865.98644  23753589.5004   23753586.1414
        42.0004         25.5004
  -8744395.37646  -6788030.26546  23447548.9534   23447544.1994
        40.0004         36.5004
 -13918635.76247 -10834882.96447  22790804.1644   22790796.9734
        44.5004         42.7504
 20  5  4  1 49  0.0000000  0  9G16G27G30G 9G 4G 3G26G 8G 7
 -19455543.19648 -15439950.87046  21171674.9534   21171667.2384
        48.7504         37.0004
 -12781782.40647  -9940393.62847  22588415.0084   22588411.0864
        44.2504         43.0004
  -1514279.94746  -1166079.45444  25310355.7344   25310351.6524
        37.2504         28.7504
 -25253508.48848 -19654283.71248  20601272.7664   20601267.3484
        49.5004         53.5004
 -26920647.75647 -20952255.72146  20411561.5864   20411555.4614
        45.7504         41.0004
  -5237097.35546  -4065159.51345  24394777.3984   24394773.1094
        40.2504         34.0004
  -5603991.14146  -4331323.82144  23773014.8134   23773011.9694
        41.0004         24.7504
  -8841448.31646  -6863655.97446  23429079.4304   23429076.3674
        40.5004         36.5004
 -13983785.87447 -10885649.26847  22778406.4924   22778399.5044
        44.2504         43.0004
 20  5  4  1 49 30.0000000  0  9G16G27G30G 9G 4G 3G26G 8G 7
 -19387700.19048 -15387086.20146  21184585.0474   21184577.4804
        48.5004         36.7504
 -12844495.13347  -9989260.68347  22576481.3674   22576476.7704
        44.0004         42.7504
  -1600076.20446  -1232933.71244  25294030.2584   25294025.5984
        37.2504         28.2504
 -25292591.34548 -19684737.88548  20593835.4224   20593830.5704
        49.5004         53.5004
 -26890612.03747 -20928851.29446  20417277.1254   20417271.0234
        46.0004         40.7504
  -5128550.33446  -3980577.47145  24415433.5634   24415429.2504
        39.2504         33.5004
  -5501778.11947  -4251677.37344  23792465.7034   23792461.6764
        42.0004         25.2504
  -8938332.57346  -6939150.17246  23410643.9454   23410641.1054
        40.0004         37.2504
 -14048822.66147 -10936327.27547  22766030.0704   22766023.3324
        45.0004         43.2504
 20  5  4  1 50  0.0000000  0  9G16G27G30G 9G 4G 3G26G 8G 7
 -19319390.91448 -15333858.21346  21197583.4694   21197576.2734
        48.7504         36.7504
 -12906741.02447 -10037763.98447  22564636.1484   22564631.8834
        43.5004         42.7504
  -1685843.71546  -1299765.57044  25277708.0864   25277704.7114
        36.7504         27.5004
 -25331230.23848 -19714846.11448  20586482.6174   20586477.8484
        50.0004         53.5004
 -26860101.68047 -20905077.01246  20423083.0314   20423076.8054
        45.5004         40.5004
  -5020001.48046  -3895994.01445  24436089.2274   24436085.1604
        38.2504         33.0004
  -5399433.22246  -4171928.12944  23811941.1254   23811937.6724
        39.7504         25.7504
  -9035044.73946  -7014510.27446  23392240.6094   23392237.0354
        40.7504         38.2504
 -14113745.47547 -10986916.47147  22753675.4534   22753669.0124
        44.0004         43.2504
 20  5  4  1 50 30.0000000  0  9G16G27G30G 9G 4G 3G26G 8G 7
 -19250618.17348 -15280269.07846  21210670.6254   21210663.0944
        48.0004         36.5004
 -12968517.52147 -10085901.51747  22552880.4454   22552876.6294
        43.5004         43.2504
  -1771582.50045  -1366575.08644  25261392.7584   25261389.4884
        35.5004         27.5004
 -25369423.67748 -19744607.24648  20579214.9454   20579209.9144
        49.0004         53.5004
 -26829116.99247 -20880933.12646  20428979.0554   20428973.4534
        46.0004         40.2504
  -4911453.93246  -3811411.56945  24456744.1804   24456740.9964
        38.0004         31.5004
  -5296959.02146  -4092078.17544  23831442.0864   23831438.1914
        40.7504         24.0004
  -9131581.59046  -7089733.81846  23373869.6804   23373865.9884
        39.7504         37.5004
 -14178555.10347 -11037417.47847  22741342.9064   22741335.9454
        44.2504         43.5004
 20  5  4  1 51  0.0000000  0  9G16G27G30G 9G 4G 3G26G 8G 7
 -19181384.88548 -15226321.07546  21223845.3284   21223837.5634
        48.5004         37.2504
 -13029821.61047 -10133670.94047  22541214.6254   22541211.0204
        43.5004         43.5004
  -1857292.25445  -1433361.91444  25245082.5554   25245078.8324
        34.5004         28.7504
 -25407169.70648 -19774019.74948  20572032.2894   20572026.9104
        48.5004         53.5004
 -26797657.86147 -20856419.54846  20434965.6094   20434960.0474
        45.7504         40.0004
  -4802910.34946  -3726832.20345  24477399.8594   24477396.4384
        39.0004         31.7504
  -5194357.78546  -4012129.19044  23850965.6724   23850962.9104
        40.5004         24.5004
  -9227939.57746  -7164817.92546  23355533.6334   23355529.6764
        40.7504         38.2504
 -14243250.54347 -11087829.49647  22729031.8054   22729024.9534
        44.5004         43.7504
 20  5  4  1 51 30.0000000  0  9G16G27G30G 9G 4G 3G26G 8G 7
 -19111693.50548 -15172016.11345  21237106.8674   21237099.2854
        48.2504         35.7504
 -13090650.59747 -10181070.15047  22529639.1884   22529635.1294
        44.0004         43.2504
  -1942972.85146  -1500126.01944  25228779.1484   25228774.8204
        36.5004         29.7504
 -25444466.71448 -19803082.35548  20564934.5314   20564929.3324
        49.5004         53.5004
 -26765724.38247 -20831536.33546  20441042.1334   20441036.6524
        45.5004         40.0004
  -4694373.58646  -3642258.16445  24498054.4844   24498050.0204
        39.2504         31.7504
  -5091631.79046  -3932083.01644  23870513.3284   23870511.1454
        39.0004         24.7504
  -9324115.63246  -7239760.29246  23337231.3834   23337228.3714
        40.5004         38.5004
 -14307831.80247 -11138152.54447  22716742.3594   22716735.6134
        44.7504         44.0004
 20  5  4  1 52  0.0000000  0  9G16G27G30G 9G 4G 3G26G 8G 7
 -19041546.69248 -15117356.26646  21250455.3984   21250448.3094
        48.7504         36.0004
 -13151001.37647 -10228096.73647  22518155.3594   22518150.5394
        44.0004         43.0004
  -2028623.66745  -1566866.99244  25212478.8754   25212476.3484
        35.0004         29.2504
 -25481312.58948 -19831793.42848  20557923.0784   20557917.9884
        49.2504         53.5004
 -26733316.22347 -20806283.25246  20447209.4144   20447203.8954
        46.0004         39.7504
  -4585845.98846  -3557691.24345  24518705.4694   24518702.1954
        39.5004         32.0004
  -4988782.97646  -3851941.14543  23890085.8444   23890082.5204
        40.0004         23.7504
  -9420106.33046  -7314558.23146  23318964.9534   23318962.5744
        41.2504         38.5004
 -14372298.50747 -11188386.32847  22704475.6954   22704467.9494
        45.0004         44.5004
 20  5  4  1 52 30.0000000  0  9G16G27G30G 9G 4G 3G26G 8G 7
 -18970947.23048 -15062343.71246  21263890.5084   21263882.7544
        48.7504         36.7504
 -13210871.45247 -10274748.74947  22506762.0944   22506757.6724
        44.0004         42.7504
  -2114245.02346  -1633584.91245  25196187.6094   25196182.9064
        37.5004         31.0004
 -25517705.82348 -19860151.80648  20550997.5474   20550992.0204
        50.0004         53.5004
 -26700433.80147 -20780660.61646  20453466.5394   20453461.0664
        45.5004         40.0004
  -4477330.80846  -3473133.99245  24539355.6954   24539351.4614
        40.0004         32.0004
  -4885814.10046  -3771705.72044  23909679.8134   23909677.0124
        39.7504         24.2504
  -9515908.48146  -7389209.25646  23300734.7734   23300730.4844
        40.7504         37.5004
 -14436650.98647 -11238531.10547  22692229.3134   22692222.1524
        45.0004         44.0004
 20  5  4  1 53  0.0000000  0  9G16G27G30G 9G 4G 3G26G 8G 7
 -18899897.77048 -15006980.51846  21277410.7734   21277403.1054
        48.0004         36.0004
 -13270257.84247 -10321023.86047  22495461.3674   22495456.9224
        43.7504         42.7504
  -2199836.32746  -1700279.43444  25179899.6334   25179895.3244
        38.0004         28.5004
 -25553644.55548 -19888156.01648  20544158.8524   20544153.2274
        48.7504         53.7504
 -26667076.88247 -20754668.23046  20459814.4774   20459808.6454
        46.0004         39.7504
  -4368830.53746  -3388588.35545  24560002.6174   24559999.5434
        40.5004         33.0004
  -4782727.04547  -3691378.21844  23929297.7114   23929293.3634
        42.0004         25.7504
  -9611518.87646  -7463710.84546  23282540.8834   23282537.8634
        40.7504         38.5004
 -14500888.87047 -11288586.59847  22680005.3054   22679997.7934
        44.7504         44.0004
 20  5  4  1 53 30.0000000  0  9G16G27G30G 9G 4G 3G26G 8G 7
 -18828401.25648 -14951268.96046  21291015.9064   21291008.4574
        49.2504         36.2504
 -13329157.77947 -10366919.92647  22484252.7114   22484248.2974
        44.0004         43.0004
  -2285397.33046  -1766950.38145  25163617.1094   25163613.6564
        36.5004         30.5004
 -25589126.91648 -19915804.61148  20537406.9384   20537401.2624
        48.5004         53.7504
 -26633245.56047 -20728306.17846  20466252.7034   20466246.4964
        47.0004         40.2504
  -4260347.84546  -3304056.45645  24580647.0234   24580643.2114
        41.5004         32.7504
  -4679524.06246  -3610960.34743  23948935.9614   23948931.9694
        41.0004         22.7504
  -9706934.26846  -7538060.50346  23264382.9694   23264380.3204
        40.5004         38.0004
 -14565011.34047 -11338552.15247  22667802.9534   22667795.6844
        44.7504         43.5004
 20  5  4  1 54  0.0000000  0  9G16G27G30G 9G 4G 3G26G 8G 7
 -18756460.44048 -14895211.19045  21304705.9144   21304698.4654
        48.7504         35.7504
 -13387568.46147 -10412434.73047  22473138.1334   22473133.3984
        44.5004         43.5004
  -2370927.83046  -1833597.52744  25147340.6884   25147336.7114
        36.7504         29.7504
 -25624151.22848 -19943096.29248  20530742.0164   20530736.7194
        48.7504         53.7504
 -26598939.90147 -20701574.50446  20472780.8444   20472774.1684
        46.5004         40.0004
  -4151885.47646  -3219540.36945  24601286.6254   24601283.0664
        39.5004         33.0004
  -4576207.39546  -3530453.89144  23968595.2734   23968592.9024
        39.0004         24.5004
  -9802151.14346  -7612255.46246  23246264.3594   23246261.3444
        41.0004         39.2504
 -14629018.63047 -11388427.95647  22655622.3914   22655615.6954
        44.5004         43.5004
 20  5  4  1 54 30.0000000  0  9G16G27G30G 9G 4G 3G26G 8G 7
 -18684078.01248 -14838809.30946  21318479.8054   21318472.1954
        49.0004         36.0004
 -13445487.15447 -10457566.16847  22462116.5394   22462112.0594
        44.5004         43.5004
  -2456427.61746  -1900220.78545  25131070.8674   25131068.2734
        36.0004         30.5004
 -25658715.69848 -19970029.64749  20524164.3204   20524159.2114
        49.5004         54.0004
 -26564159.89447 -20674473.22046  20479398.8524   20479393.1254
        46.0004         39.7504
  -4043446.21146  -3135042.28645  24621922.0004   24621918.3674
        41.5004         32.5004
  -4472779.24846  -3449860.59843  23988278.4844   23988274.2934
        41.2504         22.5004
  -9897166.00746  -7686293.01046  23228183.4384   23228179.9694
        41.2504         39.0004
 -14692910.95347 -11438214.16847  22643464.3674   22643457.1524
        44.5004         43.5004
 20  5  4  1 55  0.0000000  0  9G16G27G30G 9G 4G 3G26G 8G 7
 -18611257.00348 -14782065.67846  21332337.0234   21332329.2974
        48.2504         36.2504
 -13502911.67647 -10502312.53447  22451188.6334   22451184.4654
        44.5004         43.7504
  -2541896.87546  -1966820.21245  25114806.4614   25114803.6884
        36.7504         30.5004
 -25692819.10748 -19996603.73649  20517675.1884   20517669.7154
        48.7504         54.0004
 -26528906.26247 -20647002.87346  20486107.7274   20486101.4774
        45.7504         40.0004
  -3935033.19846  -3050564.65845  24642551.6884   24642548.4614
        39.2504         32.5004
  -4369242.41346  -3369182.62443  24007980.8444   24007977.5164
        40.5004         22.7504
  -9991976.39246  -7760171.21046  23210141.8914   23210138.1484
        41.0004         39.2504
 -14756687.63047 -11487910.27147  22631327.9304   22631320.6764
        44.5004         43.2504
 20  5  4  1 55 30.0000000  0  9G16G27G30G 9G 4G 3G26G 8G 7
 -18537999.81548 -14724982.16146  21346277.3674   21346269.6724
        48.7504         36.0004
 -13559838.73847 -10546671.26847  22440356.0394   22440351.5744
        45.0004         43.7504
  -2627334.92146  -2033395.33444  25098548.7814   25098545.0824
        38.0004         29.7504
 -25726459.20948 -20022816.81249  20511273.4844   20511268.1334
        49.0004         54.0004
 -26493178.51447 -20619163.08746  20492906.1954   20492900.4104
        46.5004         39.5004
  -3826648.63646  -2966109.24145  24663177.2424   24663173.0354
        40.0004         31.5004
  -4265598.46246  -3288421.10943  24027703.9144   24027699.5984
        41.7504         22.2504
 -10086578.79146  -7833887.33946  23192139.4694   23192136.9344
        40.5004         39.0004
 -14820348.35547 -11537516.04547  22619213.7034   22619206.6764
        45.2504         43.7504
 20  5  4  1 56  0.0000000  0  9G16G27G30G 9G 4G 3G26G 8G 7
 -18464309.00148 -14667560.76246  21360300.6724   21360292.9804
        48.0004         36.7504
 -13616265.42047 -10590640.09747  22429618.1254   22429613.8874
        44.5004         43.5004
  -2712741.29846  -2099945.74544  25082296.8754   25082292.9104
        37.0004         29.2504
 -25759634.11948 -20048667.39649  20504960.4774   20504955.4614
        48.5004         54.0004
 -26456976.59747 -20590953.82146  20499795.0864   20499789.2274
        47.0004         39.2504
  -3718295.11046  -2881677.92145  24683796.2814   24683792.6564
        38.5004         30.7504
  -4161849.43346  -3207577.76343  24047445.8834   24047442.6804
        39.2504         22.0004
 -10180969.34246  -7907438.41846  23174178.0784   23174174.5984
        40.5004         38.7504
 -14883893.09947 -11587031.42047  22607122.0314   22607114.4734
        45.5004         44.2504
 20  5  4  1 56 30.0000000  0  9G16G27G30G 9G 4G 3G26G 8G 7
 -18390188.28848 -14609804.37545  21374405.7114   21374397.7194
        48.0004         35.5004
 -13672189.67147 -10634217.42547  22418975.9304   22418971.7664
        45.2504         43.7504
  -2798116.26146  -2166471.74144  25066050.7034   25066046.1844
        36.7504         28.2504
 -25792342.69148 -20074154.60849  20498735.9304   20498730.8444
        48.7504         54.0004
 -26420301.17447 -20562375.57746  20506774.7274   20506768.4844
        47.0004         40.2504
  -3609975.59846  -2797273.15345  24704406.8914   24704405.0164
        36.7504         30.5004
  -4057998.10747  -3126654.73344  24067208.9144   24067205.7114
        42.0004         24.7504
 -10275145.28346  -7980822.25846  23156256.7664   23156252.9694
        40.5004         38.2504
 -14947321.66847 -11636456.27247  22595051.5634   22595044.7234
        45.5004         44.5004
 20  5  4  1 57  0.0000000  0  9G16G27G30G 9G 4G 3G26G 8G 7
 -18315639.80148 -14551714.65645  21388591.6254   21388584.1454
        48.2504         35.7504
 -13727608.51247 -10677400.91847  22408429.9144   22408425.8674
        45.0004         43.5004
  -2883459.35046  -2232972.83045  25049810.2734   25049806.5314
        38.0004         31.2504
 -25824582.90548 -20099276.86848  20492600.6804   20492595.6094
        48.5004         53.7504
 -26383152.15547 -20533428.30746  20513843.4844   20513837.5704
        46.2504         39.7504
  -3501692.96646  -2712897.10145  24725012.2504   24725009.8404
        36.7504         30.7504
  -3954046.27746  -3045653.38044  24086990.6174   24086987.2934
        40.2504         24.2504
 -10369103.34646  -8054036.31846  23138376.6804   23138373.1094
        40.2504         37.7504
 -15010633.94347 -11685790.51247  22583004.1174   22582997.0554
        45.5004         44.7504
 20  5  4  1 57 30.0000000  0  9G16G27G30G 9G 4G 3G26G 8G 7
 -18240666.95748 -14493294.27346  21402858.0784   21402850.8014
        48.0004         36.5004
 -13782519.63347 -10720188.77447  22397980.9774   22397976.7034
        44.7504         43.5004
  -2968770.50446  -2299449.05544  25033575.9534   25033572.1254
        37.0004         28.0004
 -25856353.39848 -20124033.09648  20486555.2114   20486550.0004
        48.5004         53.7504
 -26345529.98947 -20504112.34646  20521003.0704   20520996.7464
        46.7504         39.5004
  -3393449.80646  -2628551.82645  24745610.1414   24745608.5554
        36.0004         30.5004
  -3849996.52446  -2964575.67243  24106789.5164   24106787.4884
        39.7504         23.7504
 -10462840.22046  -8127078.03546  23120538.8524   23120535.3754
        41.0004         37.7504
 -15073829.23847 -11735033.58447  22570978.3054   22570970.6564
        45.5004         44.7504
 20  5  4  1 58  0.0000000  0  9G16G27G30G 9G 4G 3G26G 8G 7
 -18165271.92948 -14434544.91846  21417205.5474   21417198.0124
        48.2504         36.0004
 -13836920.04147 -10762578.68147  22387629.0944   22387624.2774
        45.0004         43.2504
  -3054049.26246  -2365900.07845  25017347.3674   25017344.0314
        37.5004         30.0004
 -25887652.19448 -20148421.77448  20480599.2814   20480593.8444
        49.0004         53.7504
 -26307434.57147 -20474427.61846  20528252.0784   20528246.1604
        47.0004         39.7504
  -3285248.66146  -2544239.30645  24766201.9454   24766198.2274
        38.2504         31.0004
  -3745850.62146  -2883423.11643  24126609.6484   24126605.2194
        40.7504         23.5004
 -10556352.41246  -8199944.66946  23102744.9304   23102740.9024
        41.0004         38.0004
 -15136907.50047 -11784185.46547  22558974.9454   22558967.4924
        45.0004         44.7504
 20  5  4  1 58 30.0000000  0  9G16G27G30G 9G 4G 3G26G 8G 7
 -18089458.00448 -14375469.14146  21431632.3444   21431624.6334
        48.0004         36.0004
 -13890807.51547 -10804568.89047  22377374.4614   22377369.8204
        45.0004         43.5004
  -3139295.70446  -2432325.89544  25001126.5314   25001122.1644
        37.2504         29.2504
 -25918477.96248 -20172441.86349  20474733.4844   20474728.1644
        49.2504         54.0004
 -26268866.42247 -20444374.53746  20535591.7034   20535585.6054
        47.0004         39.5004
  -3177092.47646  -2459961.81545  24786783.3054   24786779.9924
        39.0004         30.2504
  -3641611.09046  -2802197.53943  24146446.0234   24146441.3404
        40.5004         23.0004
 -10649637.12846  -8272634.06446  23084993.1174   23084989.2664
        41.0004         39.2504
 -15199868.75347 -11833246.17647  22546993.4844   22546986.6174
        45.0004         44.5004
 20  5  4  1 59  0.0000000  0  9G16G27G30G 9G 4G 3G26G 8G 7
 -18013227.59548 -14316068.83645  21446138.5474   21446131.0784
        48.7504         35.2504
 -13944179.02647 -10846157.06147  22367218.4454   22367213.4774
        45.5004         43.5004
  -3224509.06846  -2498725.92644  24984910.1484   24984906.8134
        36.7504         29.5004
 -25948828.60848 -20196091.72449  20468957.9304   20468952.4104
        48.7504         54.0004
 -26229825.30047 -20413952.89546  20543020.9614   20543014.9654
        46.5004         39.2504
  -3068983.42846  -2375721.03445  24807356.3914   24807352.6884
        38.5004         30.2504
  -3537279.52346  -2720900.27743  24166300.0234   24166294.8754
        40.5004         22.0004
 -10742690.39446  -8345143.09746  23067285.4304   23067282.9574
        40.5004         40.0004
 -15262712.58947 -11882215.37847  22535034.7194   22535027.6724
        44.7504         44.5004
 20  5  4  1 59 30.0000000  0  9G16G27G30G 9G 4G 3G26G 8G 7
 -17936583.53448 -14256346.19845  21460723.5084   21460716.2424
        48.2504         35.0004
 -13997032.19247 -10887341.31847  22357160.6254   22357156.2234
        45.2504         44.0004
  -3309689.35946  -2565100.21545  24968701.9844   24968697.3404
        38.0004         30.0004
 -25978702.72048 -20219370.25249  20463272.9454   20463267.4264
        48.7504         54.0004
 -26190311.70247 -20383163.09646  20550540.2424   20550534.0164
        46.5004         39.2504
  -2960924.51546  -2291519.28045  24827918.4844   24827915.8134
        38.2504         31.5004
  -3432858.43046  -2639533.23743  24186170.2034   24186166.1254
        41.2504         22.0004
 -10835509.15546  -8417469.38446  23049622.7664   23049620.2814
        40.7504         40.5004
 -15325438.79747 -11931092.92347  22523097.8284   22523090.9574
        44.5004         44.2504
 20  5  4  2  0  0.0000000  0  9G16G27G30G 9G 4G 3G26G 8G 7
 -17859528.85948 -14196303.61045  21475386.3834   21475378.8094
        48.0004         34.5004
 -14049364.52347 -10928119.73147  22347201.7034   22347197.5864
        44.7504         44.0004
  -3394836.43146  -2631448.59345  24952498.2734   24952494.5394
        36.7504         30.5004
 -26008098.71348 -20242276.23349  20457679.2504   20457673.9694
        49.0004         54.0004
 -26150325.87247 -20352005.32846  20558149.0394   20558143.1804
        46.5004         39.2504
  -2852918.33646  -2207358.70645  24848472.5634   24848468.7384
        39.2504         31.0004
  -3328349.87146  -2558098.10043  24206055.8914   24206052.3524
        38.7504         22.0004
 -10928090.32346  -8489610.55746  23032005.7034   23032002.8594
        40.2504         39.0004
 -15388047.03247 -11979878.51947  22511184.0394   22511176.8134
        45.0004         44.0004
 20  5  4  2  0 30.0000000  0  9G16G27G30G 9G 4G 3G26G 8G 7
 -17782065.90648 -14135942.88445  21490126.8834   21490119.2664
        48.0004         35.5004
 -14101173.26047 -10968490.13847  22337343.2504   22337338.8554
        44.7504         44.0004
  -3479949.77246  -2697770.70145  24936300.9144   24936298.5124
        38.2504         31.5004
 -26037014.72548 -20264808.18849  20452176.5784   20452171.0664
        49.5004         54.0004
 -26109867.87847 -20320479.62846  20565848.0864   20565842.1564
        47.2504         39.7504
  -2744967.29346  -2123241.04545  24869013.6724   24869011.2344
        38.0004         31.5004
  -3223755.79746  -2476596.23043  24225960.1414   24225956.8524
        40.2504         21.7504
 -11020430.40646  -8561563.83846  23014433.1724   23014430.3834
        41.0004         40.0004
 -15450537.20447 -12028572.14547  22499292.8594   22499285.4614
        45.5004         44.0004
 20  5  4  2  1  0.0000000  0  9G16G27G30G 9G 4G 3G26G 8G 7
 -17704198.34448 -14075266.87745  21504944.5634   21504937.2304
        48.0004         34.7504
 -14152456.51847 -11008451.08047  22327584.2034   22327579.8284
        45.5004         44.0004
  -3565029.67446  -2764066.73145  24920110.7584   24920107.8634
        37.0004         30.0004
 -26065449.80848 -20286965.40149  20446765.5704   20446759.9104
        50.0004         54.0004
 -26068938.60747 -20288586.71046  20573636.5084   20573631.1214
        47.0004         39.7504
  -2637074.78346  -2039169.01845  24889545.0314   24889542.4414
        39.0004         32.0004
  -3119078.90846  -2395029.82343  24245876.7424   24245876.3984
        37.0004         22.5004
 -11112526.76346  -8633327.21746  22996907.9614   22996904.1684
        41.5004         39.2504
 -15512909.08847 -12077173.60347  22487423.9924   22487416.4304
        45.5004         44.2504
 20  5  4  2  1 30.0000000  0  9G16G27G30G 9G 4G 3G26G 8G 7
 -17625928.79047 -14014277.63245  21519839.3444   21519831.4184
        47.7504         35.2504
 -14203211.40847 -11048000.31147  22317925.6804   22317921.5554
        45.5004         44.0004
  -3650075.52146  -2830336.21245  24903927.4924   24903924.7854
        36.5004         30.5004
 -26093401.97048 -20308746.30648  20441446.7424   20441441.1094
        49.2504         53.7504
 -26027537.98447 -20256326.49946  20581515.1954   20581509.6564
        46.7504         40.0004
  -2529242.90346  -1955144.21845  24910064.9614   24910061.9884
        38.5004         32.2504
  -3014320.92246  -2313400.33043  24265814.4384   24265811.6724
        39.2504         22.7504
 -11204375.62947  -8704897.74246  22979430.2274   22979426.0944
        42.0004         39.2504
 -15575162.28247 -12125682.57847  22475577.5864   22475569.9344
        45.2504         44.5004
 20  5  4  2  2  0.0000000  0  9G16G27G30G 9G 4G 3G26G 8G 7
 -17547260.04847 -13952977.33145  21534809.2894   21534801.5514
        47.7504         34.2504
 -14253435.66147 -11087136.06147  22308368.5554   22308364.1414
        44.5004         44.2504
  -3735087.18446  -2896579.10945  24887751.1414   24887746.7194
        38.0004         31.5004
 -26120869.80248 -20330149.82848  20436219.5784   20436214.1374
        49.0004         53.7504
 -25985666.47447 -20223699.37346  20589482.7974   20589476.9964
        46.7504         39.0004
  -2421474.50746  -1871168.93745  24930574.2504   24930569.3954
        40.2504         30.5004
  -2909484.14647  -2231709.41843  24285766.0234   24285760.7704
        43.0004         22.0004
 -11295974.09947  -8776273.16446  22961999.1414   22961995.3754
        42.0004         39.0004
 -15637296.66247 -12174098.96247  22463753.6024   22463746.0514
        45.5004         45.0004
 20  5  4  2  2 30.0000000  0  9G16G27G30G 9G 4G 3G26G 8G 7
 -17468194.29947 -13891367.68045  21549854.7894   21549847.3634
        47.7504         35.0004
 -14303126.23047 -11125855.96047  22298912.5704   22298908.3634
        44.7504         44.2504
  -3820064.00946  -2962794.77345  24871580.1724   24871576.6484
        37.5004         31.0004
 -26147851.24848 -20351174.32648  20431085.0084   20431079.6174
        48.5004         53.7504
 -25943323.92547 -20190705.18946  20597540.3054   20597534.9024
        47.0004         39.0004
  -2313771.72646  -1787244.66445  24951068.0704   24951064.5044
        38.5004         30.5004
  -2804569.95446  -2149958.18443  24305729.7504   24305725.4304
        39.5004         21.2504
 -11387318.32146  -8847450.48546  22944617.4614   22944613.4024
        41.5004         38.7504
 -15699311.54447 -12222422.23047  22451952.5164   22451945.4454
        45.5004         45.2504
 20  5  4  2  3  0.0000000  0  9G16G27G30G 9G 4G 3G26G 8G 7
 -17388735.15448 -13829451.48845  21564975.7504   21564968.3094
        48.0004         35.5004
 -14352281.48247 -11164158.72447  22289558.6414   22289554.0044
        45.2504         44.5004
  -3905006.36946  -3028983.67545  24855415.6024   24855412.2344
        36.5004         31.0004
 -26174345.41248 -20371819.13149  20426043.4844   20426037.9144
        48.5004         54.0004
 -25900511.32947 -20157344.74646  20605687.1174   20605681.5044
        46.5004         38.7504
  -2206137.75446  -1703374.11444  24971550.6414   24971546.5904
        39.0004         28.7504
  -2699581.37146  -2068148.91343  24325707.3674   24325704.2704
        38.5004         21.5004
 -11478405.72947  -8918427.67246  22927284.2504   22927279.9694
        42.0004         40.0004
 -15761207.76947 -12270653.03247  22440174.2194   22440167.3524
        45.5004         45.5004
 20  5  4  2  3 30.0000000  0  9G16G27G30G 9G 4G 3G26G 8G 7
 -17308885.11048 -13767230.69845  21580170.7974   21580163.0664
        48.0004         35.0004
 -14400898.51747 -11202042.11347  22280307.0394   22280302.9224
        46.0004         44.2504
  -3989913.50146  -3095145.07745  24839258.7344   24839255.5274
        37.0004         30.7504
 -26200350.34048 -20392082.72149  20421094.8134   20421089.7424
        48.7504         54.0004
 -25857228.65247 -20123618.00546  20613923.6254   20613917.6604
        47.2504         38.2504
  -2098574.82046  -1619558.81844  24992020.0784   24992014.4104
        38.5004         27.0004
  -2594519.88046  -1986282.81043  24345699.3674   24345697.1724
        39.0004         20.7504
 -11569232.21847  -8989201.54346  22909999.5944   22909996.7974
        42.0004         40.2504
 -15822983.82247 -12318790.19847  22428418.8834   22428411.7624
        46.0004         45.2504
 20  5  4  2  4  0.0000000  0  9G16G27G30G 9G 4G 3G26G 8G 7
 -17228646.75147 -13704707.32045  21595439.6334   21595431.9304
        47.7504         35.0004
 -14448975.01147 -11239504.29447  22271158.4534   22271154.1094
        45.7504         44.2504
  -4074785.29246  -3161278.93545  24823108.0474   24823105.2344
        36.7504         31.2504
 -26225864.55148 -20411963.93549  20416239.7504   20416234.6334
        49.7504         54.0004
 -25813476.31047 -20089525.28746  20622249.8204   20622243.5984
        47.5004         38.7504
  -1991085.62246  -1535801.06544  25012474.9304   25012468.7624
        39.0004         27.0004
  -2489387.54846  -1904361.64043  24365706.8754   24365701.4024
        39.5004         20.7504
 -11659795.06846  -9059769.96846  22892766.5394   22892763.2304
        41.2504         40.7504
 -15884639.72347 -12366833.74247  22416685.6024   22416679.0354
        45.5004         45.2504
 20  5  4  2  4 30.0000000  0  9G16G27G30G 9G 4G 3G26G 8G 7
 -17148023.67347 -13641884.16545  21610781.5864   21610774.4264
        47.2504         34.7504
 -14496508.65047 -11276543.46247  22262112.9304   22262108.8714
        45.7504         44.5004
  -4159621.61546  -3227385.18445  24806964.2114   24806960.8634
        37.5004         31.0004
 -26250886.66148 -20431461.68749  20411478.0474   20411472.8754
        49.7504         54.0004
 -25769254.76847 -20055066.95446  20630665.1414   20630658.8244
        46.7504         38.5004
  -1883672.88746  -1452102.80344  25032913.3284   25032910.1604
        37.7504         27.7504
  -2384186.72546  -1822386.97443  24385726.5394   24385721.7304
        41.0004         22.0004
 -11750090.78247  -9130130.24346  22875583.7734   22875580.2734
        42.5004         40.5004
 -15946175.41247 -12414783.60147  22404975.4144   22404968.6804
        45.5004         45.2504
 20  5  4  2  5  0.0000000  0  9G16G27G30G 9G 4G 3G26G 8G 7
 -17067018.33648 -13578763.15345  21626195.8984   21626188.7894
        48.2504         35.0004
 -14543497.22447 -11313157.91747  22253171.3524   22253167.2624
        45.5004         44.2504
  -4244422.09346  -3293463.43945  24790826.8204   24790823.9414
        37.5004         30.0004
 -26275415.20248 -20450574.82849  20406810.6334   20406805.3054
        50.0004         54.2504
 -25724564.54947 -20020243.42146  20639168.9844   20639162.8674
        47.0004         38.0004
  -1776339.10046  -1368466.18144  25053337.3834   25053334.8594
        36.0004         27.7504
  -2278919.32246  -1740360.50543  24405757.6484   24405753.4804
        39.7504         22.0004
 -11840116.70247  -9200280.26746  22858452.3284   22858448.6024
        42.0004         40.7504
 -16007590.57147 -12462639.54547  22393288.6484   22393281.6024
        45.2504         45.0004
 20  5  4  2  5 30.0000000  0  9G16G27G30G 9G 4G 3G26G 8G 7
 -16985633.61147 -13515346.50145  21641683.1804   21641675.8754
        47.5004         34.7504
 -14589938.32347 -11349345.76347  22244334.0004   22244329.4734
        45.2504         44.2504
  -4329186.51546  -3359513.66845  24774697.5394   24774693.3594
        37.2504         30.0004
 -26299448.63948 -20469302.18549  20402237.1174   20402231.9384
        50.0004         54.2504
 -25679406.00847 -19985054.96646  20647762.2974   20647756.4574
        46.7504         38.2504
  -1669086.92846  -1284893.04945  25073747.2274   25073745.1524
        37.2504         30.7504
  -2173587.39446  -1658283.73343  24425800.3984   24425797.9614
        39.0004         22.0004
 -11929868.68347  -9270216.85446  22841373.0004   22841368.9414
        42.7504         40.0004
 -16068884.99047 -12510401.40547  22381624.6724   22381618.0704
        45.2504         45.0004
 20  5  4  2  6  0.0000000  0  9G16G27G30G 9G 4G 3G26G 8G 7
 -16903871.99147 -13451636.18545  21657241.8134   21657234.6094
        46.5004         34.5004
 -14635829.67747 -11385105.23947  22235601.4224   22235597.0004
        45.7504         44.5004
  -4413914.69246  -3425535.63244  24758575.2664   24758570.2544
        39.5004         29.5004
 -26322985.55848 -20487642.64749  20397758.6564   20397753.0944
        50.0004         54.2504
 -25633779.65447 -19949501.97746  20656444.8444   20656438.8524
        46.5004         38.2504
  -1561918.86846  -1201385.61744  25094141.7194   25094137.4264
        38.7504         29.5004
  -2068192.98046  -1576158.31043  24445858.3054   24445853.7074
        39.7504         22.5004
 -12019344.27747  -9339938.07946  22824346.3364   22824342.3554
        42.0004         39.5004
 -16130058.15347 -12558068.78547  22369984.7034   22369976.8554
        46.0004         45.5004
 20  5  4  2  6 30.0000000  0  9G16G27G30G 9G 4G 3G26G 8G 7
 -16821736.71547 -13387634.70045  21672871.6884   21672864.4964
        46.7504         33.5004
 -14681168.72247 -11420434.35447  22226973.1884   22226969.0744
        45.5004         44.7504
  -4498605.98346  -3491528.86945  24742456.9694   24742453.9304
        37.2504         30.5004
 -26346024.23048 -20505594.86649  20393374.1414   20393368.6484
        50.0004         54.2504
 -25587685.55447 -19913584.51746  20665216.2194   20665209.9924
        46.2504         38.5004
  -1454837.35146  -1117945.45045  25114518.2894   25114515.9104
        37.0004         32.5004
  -1962737.85046  -1493985.49943  24465924.7814   24465921.4064
        39.2504         21.5004
 -12108539.97347  -9409441.19346  22807373.1564   22807368.9534
        42.0004         39.5004
 -16191109.63347 -12605641.35947  22358366.3914   22358358.9774
        46.2504         45.5004
 20  5  4  2  7  0.0000000  0  9G16G27G30G 9G 4G 3G26G 8G 7
 -16739231.03247 -13323344.58645  21688572.2584   21688565.0594
        47.0004         34.0004
 -14725953.92147 -11455331.88347  22218451.4534   22218446.8054
        45.2504         44.7504
  -4583260.87846  -3557493.74745  24726348.7814   24726344.7584
        37.7504         32.0004
 -26368563.89648 -20523158.24049  20389084.7814   20389079.2814
        50.7504         54.0004
 -25541125.09747 -19877303.66346  20674076.5314   20674070.8364
        46.5004         39.0004
  -1347845.47846  -1034575.15045  25134876.7274   25134875.5554
        36.7504         31.0004
  -1857224.63446  -1411767.48943  24486001.9924   24485999.5004
        37.5004         19.7504
 -12197452.62947  -9478723.75346  22790453.2344   22790449.4614
        42.0004         39.7504
 -16252040.08047 -12653119.61347  22346772.1644   22346764.2274
        46.2504         45.5004
 20  5  4  2  7 30.0000000  0  9G16G27G30G 9G 4G 3G26G 8G 7
 -16656357.17847 -13258767.56845  21704342.7274   21704335.3754
        46.7504         33.7504
 -14770182.38447 -11489795.60447  22210035.1254   22210030.2274
        46.5004         44.7504
  -4667878.44846  -3623429.49045  24710246.8674   24710242.1604
        38.5004         30.7504
 -26390602.50648 -20540331.18349  20384891.2734   20384885.6254
        49.7504         54.0004
 -25494097.95547 -19840659.15446  20683025.2584   20683019.6374
        46.7504         38.2504
  -1240945.30346   -951276.41545  25155222.4304   25155216.8954
        39.5004         30.7504
  -1751654.74546  -1329505.31043  24506092.7344   24506088.4224
        38.5004         20.0004
 -12286078.76446  -9547783.04146  22773588.4304   22773584.7704
        41.5004         40.2504
 -16312848.24847 -12700502.61547  22335200.1174   22335193.0354
        45.7504         45.2504
 20  5  4  2  8  0.0000000  0  9G16G27G30G 9G 4G 3G26G 8G 7
 -16573117.98347 -13193905.88045  21720182.3444   21720174.8164
        46.2504         33.2504
 -14813851.91447 -11523823.80847  22201724.9384   22201720.1804
        45.7504         44.7504
  -4752458.46246  -3689336.02945  24694151.3914   24694147.2544
        37.5004         31.2504
 -26412138.63448 -20557112.58949  20380793.0554   20380787.8284
        49.7504         54.0004
 -25446604.70947 -19803651.45246  20692063.1804   20692057.4024
        47.0004         39.0004
  -1134139.27946   -868050.96544  25175546.9304   25175540.7624
        38.7504         28.5004
  -1646030.22546  -1247200.55843  24526192.5554   24526188.0984
        40.0004         21.7504
 -12374415.18647  -9616616.56546  22756778.4304   22756775.6804
        42.0004         41.5004
 -16373533.88047 -12747790.11247  22323652.4774   22323644.6374
        45.5004         45.2504
 20  5  4  2  8 30.0000000  0  9G16G27G30G 9G 4G 3G26G 8G 7
 -16489516.94947 -13128762.23645  21736091.1174   21736083.8554
        46.5004         34.0004
 -14856960.81647 -11557415.13847  22193521.0944   22193516.5784
        45.5004         45.0004
  -4837001.06346  -3755213.37845  24678062.7274   24678059.6484
        37.0004         31.7504
 -26433171.39448 -20573501.75349  20376790.7194   20376785.2034
        50.5004         54.0004
 -25398646.35447 -19766281.32646  20701188.9614   20701183.6214
        46.5004         38.5004
  -1027430.50246   -784901.34844  25195851.5314   25195848.9414
        37.2504         26.2504
  -1540353.54346  -1164855.09443  24546301.5394   24546297.7074
        39.5004         20.2504
 -12462459.12047  -9685222.19747  22740024.4614   22740021.1174
        42.5004         42.0004
 -16434096.93447 -12794982.08747  22312127.6484   22312120.0274
        45.2504         45.0004
 20  5  4  2  9  0.0000000  0  9G16G27G30G 9G 4G 3G26G 8G 7
 -16405556.01647 -13063338.14945  21752068.3364   21752061.3714
        46.2504         33.7504
 -14899506.28147 -11590567.43547  22185425.4844   22185420.6914
        46.0004         44.7504
  -4921505.44546  -3821060.93345  24661982.7194   24661979.5354
        37.7504         31.2504
 -26453698.80348 -20589497.14749  20372884.7734   20372879.0824
        51.0004         54.0004
 -25350222.83447 -19728548.72546  20710403.8834   20710398.1374
        46.5004         38.7504
   -920820.80145   -701828.73044  25216136.9384   25216135.6214
        32.7504         25.5004
  -1434625.93846  -1082469.97243  24566419.6024   24566417.3094
        38.0004         19.7504
 -12550206.73847  -9753596.91747  22723325.9224   22723323.6914
        42.0004         42.0004
 -16494536.80947 -12842078.08447  22300625.9064   22300618.9734
        45.0004         45.2504
 20  5  4  2  9 30.0000000  0  9G16G27G30G 9G 4G 3G26G 8G 7
 -16321238.43247 -12997636.15645  21768113.9224   21768106.0864
        46.0004         34.2504
 -14941486.43847 -11623279.23947  22177436.5784   22177432.0354
        45.5004         45.0004
  -5005971.60746  -3886878.67945  24645909.6804   24645906.0004
        37.0004         31.7504
 -26473719.69348 -20605097.84849  20369074.6334   20369069.1884
        51.0004         54.0004
 -25301334.95747 -19690454.29146  20719707.0234   20719701.1884
        47.0004         38.0004
   -814312.93045   -637394.77753  25236405.4844   25236403.6254
        35.5004         23.5004
  -1328849.69646  -1000047.00343  24586548.2814   24586545.7584
        37.0004         20.5004
 -12637654.66247  -9821738.09347  22706686.3444   22706682.6054
        42.5004         42.0004
 -16554853.40947 -12889078.01147  22289148.2114   22289141.1054
        45.7504         45.5004
 20  5  4  2 10  0.0000000  0  9G16G27G30G 9G 4G 3G26G 8G 7
 -16236567.27947 -12931658.66445  21784226.4534   21784218.8554
        46.0004         34.0004
 -14982899.37347 -11655549.04047  22169555.6094   22169551.0514
        45.2504         44.7504
  -5090399.36446  -3952666.53745  24629842.8594   24629839.8094
        37.0004         32.5004
 -26493232.99448 -20620303.02749  20365361.2114   20365356.1684
        50.2504         54.0004
 -25251983.53847 -19651998.66746  20729098.0944   20729092.5234
        47.0004         38.5004
   -707909.71345   -554483.11443  25256651.9694   25256650.1994
        32.5004         22.7504
  -1223027.03746   -917587.88743  24606687.4304   24606683.3524
        38.0004         19.7504
 -12724800.61847  -9889644.00546  22690102.7194   22690098.4064
        43.5004         41.7504
 -16615046.73347 -12935981.88447  22277693.8524   22277686.9064
        46.2504         45.5004
 20  5  4  2 10 30.0000000  0  9G16G27G30G 9G 4G 3G26G 8G 7
 -16151545.54847 -12865407.99045  21800405.1954   21800398.1764
        46.2504         34.2504
 -15023743.19847 -11687375.37847  22161783.6804   22161779.1094
        46.0004         44.7504
  -5174788.74646  -4018424.48645  24613783.6334   24613781.0594
        37.7504         31.7504
 -26512237.50648 -20635111.73949  20361744.9384   20361739.7664
        48.7504         54.2504
 -25202169.31747 -19613182.41646  20738577.1094   20738571.6644
        46.2504         38.7504
   -601613.89846   -471655.29744  25276883.4144   25276879.8444
        38.5004         26.0004
  -1117160.06946   -835094.22543  24626833.0864   24626829.2814
        38.2504         20.0004
 -12811641.00847  -9957311.81846  22673577.2424   22673573.3014
        42.7504         41.0004
 -16675116.94447 -12982789.83047  22266262.7194   22266255.4344
        46.2504         45.5004
 20  5  4  2 11  0.0000000  0  9G16G27G30G 9G 4G 3G26G 8G 7
 -16066175.92647 -12798886.23345  21816650.6954   21816643.1724
        46.2504         34.2504
 -15064015.53747 -11718756.40947  22154119.6954   22154115.6454
        45.7504         45.0004
  -5259139.07846  -4084151.96945  24597733.9694   24597730.0824
        39.5004         33.0004
 -26530731.63848 -20649522.75049  20358225.8834   20358220.3284
        50.7504         54.2504
 -25151892.63947 -19574005.79646  20748144.6254   20748138.9924
        46.7504         38.2504
   -495427.60846   -388912.62845  25297090.0634   25297084.5554
        40.2504         30.2504
  -1011250.46546   -752567.28643  24646987.1024   24646983.5354
        39.0004         20.5004
 -12898172.64447 -10024739.03546  22657110.3134   22657106.4924
        42.5004         40.5004
 -16735062.33847 -13029500.51347  22254855.6804   22254848.2624
        46.0004         45.7504
 20  5  4  2 11 30.0000000  0  9G16G27G30G 9G 4G 3G26G 8G 7
 -15980461.22647 -12732095.58345  21832961.6484   21832954.0744
        46.0004         33.7504
 -15103714.29147 -11749690.49347  22146565.5554   22146560.7304
        46.0004         45.0004
  -5343450.11046  -4149848.89645  24581689.7894   24581686.2544
        39.0004         32.2504
 -26548714.03648 -20663535.01649  20354803.6564   20354798.3834
        50.0004         54.2504
 -25101154.09047 -19534469.29146  20757799.8594   20757794.1994
        46.7504         38.0004
   -389353.38946   -306257.30545  25317276.1804   25317271.4654
        41.2504         34.0004
   -905300.00346   -670008.62243  24667148.9144   24667146.0204
        38.0004         20.0004
 -12984392.25247 -10091923.09846  22640703.5164   22640699.9534
        43.5004         41.0004
 -16794882.91647 -13076113.93647  22243471.9064   22243464.4494
        46.0004         46.0004
 20  5  4  2 12  0.0000000  0  9G16G27G30G 9G 4G 3G26G 8G 7
 -15894404.19147 -12665038.17245  21849337.9614   21849330.0984
        46.5004         33.5004
 -15142837.66247 -11780176.21847  22139120.7344   22139116.4964
        46.2504         45.2504
  -5427721.74846  -4215515.06745  24565653.3754   24565649.0824
        40.0004         32.5004
 -26566183.65748 -20677147.70949  20351479.6414   20351473.7464
        50.5004         54.0004
 -25049954.50647 -19494573.52646  20767542.9534   20767537.1644
        46.5004         38.0004
   -283393.73745   -244397.50754  25337434.9924   25337434.4924
        35.7504         29.7504
   -799310.95946   -587419.80343  24687316.9304   24687314.8554
        37.0004         20.5004
 -13070296.82647 -10158861.70446  22624356.4844   22624352.6174
        43.7504         41.0004
 -16854578.90947 -13122630.27547  22232112.0164   22232105.2344
        46.5004         46.0004
 20  5  4  2 12 30.0000000  0  9G16G27G30G 9G 4G 3G26G 8G 7
 -15808007.73247 -12597716.28245  21865778.2504   21865771.3364
        45.7504         32.7504
 -15181383.16547 -11810211.65247  22131785.3134   22131781.1294
        46.2504         45.2504
  -5511953.25246  -4281150.02145  24549623.8284   24549621.1884
        38.5004         32.7504
 -26583138.69448 -20690359.43549  20348252.7114   20348247.3204
        51.0004         54.0004
 -24998294.03347 -19454318.63246  20777373.5474   20777367.8984
        47.0004         38.5004
   -177550.73345   -161922.50844  25357575.4844   25357576.1914
        33.2504         25.5004
   -693284.67246   -504801.94443  24707492.8914   24707490.7274
        36.7504         19.2504
 -13155882.62547 -10225551.90346  22608070.1954   22608066.1414
        43.2504         41.5004
 -16914149.40147 -13169048.83447  22220776.6804   22220768.7814
        46.0004         46.0004
 20  5  4  2 13  0.0000000  0  9G16G27G30G 9G 4G 3G26G 8G 7
 -15721269.61647 -12530128.16445  21882284.1334   21882276.7274
        45.5004         33.0004
 -15219343.93447 -11839791.45047  22124561.8754   22124557.7664
        46.2504         45.2504
  -5596139.43146  -4346749.62945  24533604.4384   24533600.2774
        39.5004         32.0004
 -26599573.08048 -20703165.45549  20345125.3444   20345120.0514
        50.5004         54.0004
 -24946168.60247 -19413701.42546  20787293.1484   20787287.1294
        46.2504         38.0004
                                  25377696.563
        35.500
   -587218.22046   -422152.80943  24727676.9454   24727674.7504
        37.5004         19.7504
 -13241141.59147 -10291987.42746  22591845.1644   22591841.9264
        43.2504         41.5004
 -16973589.17747 -13215365.53347  22209465.3204   22209458.1134
        46.7504         46.0004
 20  5  4  2 13 30.0000000  0  9G16G27G30G 9G 4G 3G26G 8G 7
 -15634202.76047 -12462283.88345  21898852.5004   21898845.0164
        45.5004         33.0004
 -15256728.08247 -11868921.94147  22117447.8594   22117443.5634
        45.7504         45.2504
  -5680290.08246  -4412321.55945  24517591.6564   24517587.2034
        40.7504         31.7504
 -26615495.59548 -20715572.62149  20342095.3914   20342090.1484
        50.0004         54.0004
 -24893588.81947 -19372730.19146  20797298.6414   20797292.9414
        46.5004         38.5004
                                  25397795.9304   25397791.0594
        40.2504         21.5004
   -481123.49445   -339481.68043  24747864.9614   24747863.5664
        35.0004         21.2504
 -13326080.88047 -10358173.86347  22575682.0864   22575678.8284
        44.5004         42.2504
 -17032908.07847 -13261588.04547  22198177.3674   22198169.9774
        46.0004         45.7504
 20  5  4  2 14  0.0000000  0  9G16G27G30G 9G 4G 3G26G 8G 7
 -15546813.60047 -12394188.45445  21915482.0164   21915474.2704
        45.5004         33.0004
 -15293537.51047 -11897604.59147  22110443.4224   22110438.6134
        44.7504         45.2504
  -5764408.67146  -4477868.52145  24501584.3984   24501579.7154
        39.0004         32.2504
 -26630908.73448 -20727582.86849  20339162.4224   20339157.1764
        50.7504         54.0004
 -24840559.23847 -19331408.46046  20807389.9144   20807383.8674
        46.0004         38.0004
   -588829.50556  19639484.00855  25417865.4694   25417863.0554
        38.7504         33.2504
   -375006.28146   -256792.94143  24768060.8834   24768056.7464
        38.7504         19.5004
 -13410700.71147 -10424111.35347  22559579.4844   22559575.8594
        44.0004         42.0004
 -17092109.19347 -13307718.78047  22186911.6174   22186904.1954
        46.2504         45.5004
 20  5  4  2 14 30.0000000  0  9G16G27G30G 9G 4G 3G26G 8G 7
 -15459079.28747 -12325824.08245  21932177.0394   21932169.6804
        45.0004         32.5004
 -15329744.48047 -11925817.80247  22103553.1954   22103548.9534
        45.0004         45.0004
  -5848469.13546  -4543370.16945  24485587.4694   24485583.5784
        39.2504         33.0004
 -26645785.61848 -20739175.25149  20336331.6414   20336326.2274
        50.0004         54.0004
 -24787054.71947 -19289716.64646  20817571.3444   20817565.8284
        46.5004         38.0004
                                  25437914.2344   25437912.2034
        38.5004         31.2504
   -268842.49746   -174068.06942  24788263.0164   24788260.0904
        36.5004         17.7504
 -13494972.31247 -10489777.49047  22543543.4144   22543539.4694
        44.7504         42.2504
 -17151166.81747 -13353737.67747  22175673.6254   22175666.0594
        46.2504         45.5004
 20  5  4  2 15  0.0000000  0  9G16G27G30G 9G 4G 3G26G 8G 7
 -15371028.60247 -12257213.18445  21948932.7974   21948925.1454
        45.0004         32.0004
 -15365372.89147 -11953580.17147  22096773.3444   22096768.8714
        44.7504         45.0004
  -5932496.95546  -4608846.38245  24469597.3984   24469593.8634
        39.7504         33.5004
 -26660150.78348 -20750368.88949  20333598.2114   20333592.5314
        50.5004         54.2504
 -24733101.87947 -19247675.49446  20827838.3054   20827832.8054
        45.5004         38.5004
                                  25457937.2194   25457931.5004
        38.2504         24.0004
   -162659.89646    -91328.44643  24808469.1884   24808465.5234
        38.0004         19.2504
 -13578918.34247 -10555189.96247  22527568.9064   22527564.8794
        44.5004         42.5004
 -17210105.90847 -13399664.23847  22164457.6724   22164450.5634
        46.5004         45.7504
 20  5  4  2 15 30.0000000  0  9G16G27G30G 9G 4G 3G26G 8G 7
 -15282661.25847 -12188355.53345  21965749.0634   21965740.5664
        45.2504         32.2504
 -15400417.82147 -11980887.89547  22090104.6644   22090100.1564
        44.5004         45.0004
  -6016488.77946  -4674294.54945  24453613.5474   24453610.6254
        38.2504         32.5004
 -26673999.98348 -20761160.48449  20330962.5394   20330957.2544
        50.2504         54.0004
 -24678698.27347 -19205283.09646  20838191.0084   20838185.4304
        45.7504         38.2504
   -273165.21146  19782424.13954  25477932.2274   25477930.5984
        37.0004         29.0004
    -56457.27746     -8573.10743  24828677.6724   24828675.9344
        36.7504         20.0004
 -13662532.60647 -10620343.90247  22511657.5084   22511654.1914
        44.2504         42.5004
 -17268923.07147 -13445495.77547  22153264.9694   22153257.7734
        45.7504         46.0004
 20  5  4  2 16  0.0000000  0  9G16G27G30G 9G 4G 3G26G 8G 7
 -15193968.50647 -12119244.30345  21982626.6024   21982618.5474
        45.0004         32.5004
 -15434865.75447 -12007730.41947  22083549.4614   22083544.8554
        45.5004         45.5004
  -6100432.61646  -4739705.29445  24437640.0234   24437636.6254
        38.2504         32.0004
 -26687320.31548 -20771539.97549  20328427.7664   20328422.8554
        50.0004         54.2504
 -24623833.13847 -19162531.06246  20848631.8444   20848625.9344
        46.5004         38.2504
   -168209.27745  19864208.03943  25497903.0314   25497900.3324
        35.0004         22.7504
     49775.21346     74205.30343  24848894.8524   24848891.4964
        39.0004         21.2504
 -13745800.58647 -10685227.99647  22495812.2504   22495808.6214
        43.7504         42.2504
 -17327606.42647 -13491223.05547  22142098.2734   22142090.9694
        46.0004         46.2504
 20  5  4  2 16 30.0000000  0  9G16G27G30G 9G 4G 3G26G 8G 7
 -15104959.08347 -12049886.32545  21999564.2194   21999556.5784
        45.0004         32.5004
 -15468721.08747 -12034111.18247  22077106.6024   22077102.5474
        45.0004         45.7504
  -6184334.39246  -4805083.27545  24421673.9534   24421670.7814
        38.0004         32.7504
 -26700116.88148 -20781511.33049  20325992.8204   20325987.3554
        50.5004         54.2504
 -24568513.29947 -19119424.71946  20859158.4144   20859152.6684
        45.7504         38.0004
    -63389.81946  19945885.53244  25517851.1334   25517848.2894
        36.7504         28.5004
    156029.59146    157000.86543  24869113.0234   24869111.1374
        37.5004         22.0004
 -13828724.78147 -10749844.21547  22480032.5784   22480029.0084
        44.5004         42.7504
 -17386161.79847 -13536850.59747  22130955.5634   22130948.3634
        46.2504         46.5004
 20  5  4  2 17  0.0000000  0  9G16G27G30G 9G 4G 3G26G 8G 7
 -15015636.03547 -11980283.97645  22016561.9614   22016554.5944
        45.0004         31.0004
 -15501982.27047 -12060028.96947  22070777.5234   22070773.3594
        45.5004         46.0004
  -6268193.92346  -4870428.33645  24405717.6334   24405713.0004
        40.5004         32.7504
 -26712388.78148 -20791073.86449  20323657.6094   20323652.2974
        50.0004         54.2504
 -24512739.87647 -19075964.93546  20869771.9064   20869766.2194
        45.7504         37.2504
     41290.39646  20027454.55244  25537770.8524   25537768.3794
        36.0004         25.7504
    262303.77746    239811.82643  24889338.0784   24889333.8794
        39.5004         21.5004
 -13911302.64347 -10814190.58347  22464318.2194   22464314.3524
        45.0004         42.2504
 -17444589.16947 -13582378.40547  22119837.2584   22119829.5594
        46.2504         46.5004
 20  5  4  2 17 30.0000000  0  9G16G27G30G 9G 4G 3G26G 8G 7
 -14926002.43747 -11910439.63945  22033618.4844   22033610.6994
        45.0004         33.0004
 -15534647.44347 -12085482.33447  22064561.5394   22064557.1844
        45.0004         46.0004
  -6352010.82646  -4935740.17845  24389767.2274   24389763.0634
        40.5004         34.0004
 -26724134.77348 -20800226.59149  20321422.2344   20321416.9574
        50.0004         54.2504
 -24456513.52147 -19032152.20946  20880471.4144   20880465.2584
        45.5004         37.0004
    145829.07445  20108913.30943  25557663.8984   25557660.6844
        30.5004         21.2504
    368596.04546    322636.85243  24909563.4454   24909561.5664
        38.0004         21.2504
 -13993530.74147 -10878264.41647  22448670.1724   22448667.6724
        45.5004         42.7504
 -17502887.78447 -13627805.88547  22108743.1954   22108736.1374
        46.2504         46.5004
 20  5  4  2 18  0.0000000  0  8G16G27G30G 9G 4G26G 8G 7
 -14836053.41247 -11840349.52345  22050735.2584   22050727.9694
        45.0004         32.2504
 -15566707.26647 -12110463.99747  22058460.8754   22058456.4964
        45.0004         46.0004
  -6435777.22446  -5001012.67545  24373827.0784   24373822.8404
        40.5004         33.5004
 -26735346.12248 -20808962.71049  20319288.6884   20319283.3954
        49.5004         54.2504
 -24399827.45847 -18987981.26846  20891258.7734   20891252.8594
        45.5004         37.5004
    474912.27345    405480.56643  24929793.3134   24929792.3674
        34.7504         19.2504
 -14075398.14647 -10942057.19347  22433091.7504   22433088.1254
        45.0004         42.5004
 -17561049.61447 -13673126.78247  22097675.2274   22097668.4454
        46.0004         46.7504
 20  5  4  2 18 30.0000000  0  9G16G27G30G 9G 4G 5G26G 8G 7
 -14745805.69947 -11770026.64845  22067908.6414   22067901.7664
        44.7504         32.2504
 -15598174.35047 -12134983.78847  22052472.4694   22052468.3954
        44.7504         45.7504
  -6519507.11046  -5066256.73845  24357893.2274   24357889.1094
        40.0004         33.0004
 -26746036.12248 -20817292.58949  20317254.3284   20317248.9414
        49.0004         54.2504
 -24342696.85047 -18943463.93446  20902129.9224   20902124.2234
        46.0004         37.5004
                                  25111204.203
        33.500
    581236.11246    488330.39542  24950027.8054   24950024.6174
        36.7504         17.2504
 -14156916.53947 -11005577.97647  22417578.9924   22417575.9344
        45.0004         43.0004
 -17619088.57547 -13718351.94047  22086631.0234   22086623.4384
        46.2504         46.5004
 20  5  4  2 19  0.0000000  0  9G16G27G30G 9G 4G 5G26G 8G 7
 -14655256.21047 -11699468.63645  22085140.1414   22085132.4224
        45.2504         32.2504
 -15629040.54747 -12159035.35647  22046599.1724   22046594.5864
        45.0004         46.2504
  -6603193.69846  -5131467.04745  24341968.1024   24341964.1724
        39.2504         32.5004
 -26756197.24148 -20825210.35149  20315320.9694   20315315.6764
        48.5004         54.2504
 -24285116.11047 -18898595.84546  20913087.1254   20913081.4104
        45.7504         37.0004
    520396.67746    422003.57753  25099464.5394   25099457.7274
        38.7504         21.5004
    687572.50046    571189.88443  24970263.7664   24970259.8164
        38.7504         21.5004
 -14238076.21747 -11068819.25947  22402135.2194   22402131.7424
        44.2504         42.7504
 -17676997.97147 -13763476.12147  22075610.9774   22075603.9804
        46.0004         46.0004
 20  5  4  2 19 30.0000000  0  9G16G27G30G 9G 4G 5G26G 8G 7
 -14564406.36747 -11628676.58045  22102427.8284   22102420.6334
        45.0004         31.5004
 -15659303.10247 -12182616.54447  22040840.2424   22040836.1024
        44.7504         45.7504
  -6686835.56546  -5196642.50045  24326051.0784   24326048.0554
        38.2504         31.7504
 -26765827.27548 -20832714.27948  20313488.2894   20313483.1724
        49.2504         53.5004
 -24227085.01847 -18853376.82646  20924130.2504   20924124.0594
        45.7504         37.2504
    459150.38546    374279.14643  25087810.0234   25087803.3204
        38.2504         20.5004
    793920.72945    654058.49142  24990499.7664   24990497.9224
        34.7504         17.7504
 -14318872.78947 -11131777.61247  22386759.5004   22386756.7814
        45.2504         43.5004
 -17734776.19147 -13808498.10647  22064615.8914   22064608.5904
        45.2504         45.5004
 20  5  4  2 20  0.0000000  0  9G16G27G30G 9G 4G 5G26G 8G 7
 -14473259.45447 -11557653.03445  22119772.9304   22119765.3834
        44.7504         31.5004
 -15688960.60647 -12205726.27647  22035196.7734   22035192.3244
        45.0004         45.5004
  -6770432.56546  -5261783.01045  24310143.9384   24310139.8324
        38.5004         31.5004
 -26774925.48548 -20839803.80348  20311756.8834   20311751.6414
        49.0004         53.5004
 -24168604.60447 -18807807.68346  20935258.7664   20935252.9694
        45.7504         37.0004
    398352.52746    326904.23243  25076240.6254   25076233.9144
        38.2504         21.5004
    900278.62146    736934.69342  25010740.6804   25010737.8444
        38.0004         16.7504
 -14399303.95147 -11194451.23247  22371454.3674   22371450.8794
        45.0004         43.2504
 -17792423.08247 -13853417.74147  22053646.4774   22053638.9534
        45.7504         45.5004
 20  5  4  2 20 30.0000000  0  9G16G27G30G 9G 4G 5G26G 8G 7
 -14381819.07647 -11486400.81145  22137173.6174   22137165.8634
        44.7504         31.5004
 -15718012.38347 -12228364.00247  22029668.4454   22029664.2034
        45.5004         45.7504
  -6853985.36246  -5326889.05445  24294244.0784   24294239.8554
        38.7504         31.5004
 -26783491.75748 -20846478.83348  20310127.2114   20310121.6844
        49.2504         53.5004
 -24109676.77247 -18761889.89946  20946472.1564   20946466.3594
        45.5004         37.2504
    338004.17346    279879.49643  25064756.0864   25064749.9964
        37.5004         21.2504
   1006643.63145    819816.40043  25030979.1254   25030978.7344
        34.7504         20.2504
 -14479366.82747 -11256837.85847  22356219.0864   22356215.4694
        46.0004         43.5004
 -17849939.06347 -13898235.37647  22042701.3594   22042693.8444
        46.0004         45.7504
 20  5  4  2 21  0.0000000  0  9G16G27G30G 9G 4G 5G26G 8G 7
 -14290087.68647 -11414921.83145  22154628.5944   22154621.7344
        44.5004         30.7504
 -15746456.34547 -12250528.12047  22024255.8054   22024251.1804
        45.0004         45.7504
  -6937493.07746  -5391959.98645  24278353.1954   24278349.0824
        39.0004         32.0004
 -26791524.54748 -20852738.15348  20308598.2424   20308593.1484
        48.0004         53.7504
 -24050301.88547 -18715623.77546  20957770.8674   20957765.5984
        45.5004         37.5004
    278107.69146    233206.88343  25053358.3754   25053352.4844
        38.5004         21.7504
   1113014.57846    902702.90343  25051221.8364   25051219.0234
        36.5004         20.2504
 -14559058.26047 -11318935.06047  22341054.4304   22341051.0164
        45.0004         43.0004
 -17907323.34147 -13942950.39447  22031781.6414   22031774.2114
        46.0004         46.0004
 20  5  4  2 21 30.0000000  0  9G16G27G30G 9G 4G 5G26G 8G 7
 -14198067.40947 -11343217.74745  22172140.0394   22172132.4774
        45.0004         31.5004
 -15774290.60947 -12272217.15347  22018958.9224   22018954.1914
        45.7504         46.2504
  -7020955.12946  -5456995.32645  24262470.5314   24262466.0664
        38.7504         32.7504
 -26799022.57948 -20858580.77949  20307171.3834   20307166.0944
        49.0004         54.2504
 -23990480.51347 -18669009.74346  20969154.6254   20969148.8524
        45.5004         37.0004
    218665.04946    186887.93843  25042047.2894   25042040.7854
        38.5004         20.2504
   1219390.08746    985592.72843  25071464.4224   25071462.6804
        39.0004         21.0004
 -14638374.78947 -11380740.13847  22325960.3914   22325957.3134
        44.7504         43.2504
 -17964575.25647 -13987562.26647  22020886.6564   22020879.3634
        46.5004         46.5004
 20  5  4  2 22  0.0000000  0  9G16G27G30G 9G 4G 5G26G 8G 7
 -14105762.12947 -11271291.57345  22189705.1564   22189697.4454
        44.5004         31.5004
 -15801514.43547 -12293430.51447  22013778.4064   22013774.0744
        45.2504         46.2504
  -7104371.84646  -5521995.34345  24246596.8444   24246592.6374
        39.2504         33.5004
 -26805985.66248 -20864006.56949  20305846.4694   20305841.0784
        48.5004         54.2504
 -23930214.43047 -18622049.17246  20980622.6644   20980616.9494
        45.5004         37.0004
    159677.66146    140923.71943  25030822.4924   25030815.3444
        38.0004         22.7504
   1325767.59146   1068484.19343  25091708.1254   25091705.7814
        38.5004         21.5004
 -14717313.73147 -11442250.98647  22310939.0084   22310935.7734
        45.0004         43.5004
 -18021694.79747 -14032070.99447  22010017.3444   22010010.2464
        46.7504         46.7504
 20  5  4  2 22 30.0000000  0  9G16G27G30G 9G 4G 5G26G 8G 7
 -14013173.85947 -11199144.89745  22207324.2734   22207316.8054
        44.0004         30.0004
 -15828125.69347 -12314166.55647  22008714.2114   22008710.0824
        45.7504         46.2504
  -7187742.26846  -5586959.31045  24230732.3054   24230728.0514
        39.7504         34.0004
 -26812412.26748 -20869014.31749  20304623.5704   20304618.4104
        48.5004         54.2504
 -23869503.98747 -18574742.35146  20992175.8674   20992169.9414
        45.5004         37.0004
    101147.56346     95315.83943  25019683.8444   25019678.0084
        38.2504         22.5004
  23488025.92956  18337776.37552  25111950.8524   25111949.2234
        37.2504         17.7504
 -14795872.16747 -11503465.33847  22295990.2114   22295986.2504
        45.0004         43.5004
 -18078681.07847 -14076475.87547  21999173.4774   21999165.7894
        47.0004         47.2504
 20  5  4  2 23  0.0000000  0  9G16G27G30G 9G 4G 5G26G 8G 7
 -13920305.61247 -11126780.05145  22224997.0314   22224988.6484
        43.7504         30.5004
 -15854123.32547 -12334424.43947  22003767.4454   22003762.7664
        45.5004         46.0004
  -7271066.53846  -5651887.29545  24214876.2194   24214871.9494
        39.7504         35.0004
 -26818301.78948 -20873603.56749  20303502.7734   20303497.6254
        48.5004         54.2504
 -23808350.47247 -18527090.27546  21003813.1804   21003807.1214
        45.7504         37.2504
     43076.15046     50065.39743  25008633.6564   25008627.1994
        39.0004         22.5004
  23594403.07146  18420667.55043  25132194.4774   25132191.8204
        39.0004         19.0004
 -14874046.99847 -11564380.78047  22281113.8134   22281110.4654
        45.2504         44.0004
 -18135534.07147 -14120776.91647  21988354.7274   21988347.0904
        47.0004         47.2504
 20  5  4  2 23 30.0000000  0  9G16G27G30G 9G 4G 5G26G 8G 7
 -13827160.04947 -11054199.11645  22242721.3914   22242713.6174
        44.0004         30.0004
 -15879505.41047 -12354202.68247  21998937.2194   21998932.4844
        45.5004         46.0004
  -7354343.72046  -5716778.57845  24199028.4844   24199025.1564
        40.0004         35.0004
 -26823652.92548 -20877773.29349  20302484.4924   20302479.0084
        48.5004         54.0004
 -23746754.49847 -18479093.42246  21015534.1024   21015528.8094
        45.7504         37.0004
    -14533.80746      5174.49643  24997670.8914   24997664.2504
        38.2504         22.2504
  23700777.77046  18503556.90143  25152436.5704   25152433.8984
        39.7504         19.2504
 -14951834.75947 -11624994.60747  22266311.0474   22266308.0904
        45.7504         43.7504
 -18192252.84647 -14164973.36647  21977561.6954   21977553.7774
        47.0004         47.2504
 20  5  4  2 24  0.0000000  0  9G16G27G30G 9G 4G 5G26G 8G 7
 -13733740.40747 -10981404.61545  22260498.9844   22260491.0234
        44.2504         30.0004
 -15904271.40347 -12373500.85947  21994224.7344   21994220.0744
        46.2504         46.0004
  -7437574.43546  -5781633.65145  24183191.2584   24183187.2774
        39.7504         34.2504
 -26828465.61448 -20881523.45449  20301569.2424   20301563.4534
        48.5004         54.0004
 -23684717.87647 -18430753.22246  21027339.3834   21027333.5904
        45.7504         37.2504
    -71681.49346    -39356.15743  24986795.7034   24986789.9064
        38.5004         22.0004
  23807147.59946  18586442.55942  25172677.0234   25172674.8874
        37.0004         16.2504
 -15029233.34747 -11685305.18647  22251582.7894   22251579.3134
        45.5004         44.0004
 -18248837.85047 -14209065.56147  21966793.6484   21966786.0204
        46.0004         47.0004
 20  5  4  2 24 30.0000000  0  9G16G27G30G 9G 4G 5G26G 8G 7
 -13640048.94647 -10908398.30944  22278327.7894   22278319.7774
        44.5004         29.7504
 -15928418.80847 -12392317.00747  21989629.3914   21989624.9304
        45.7504         46.0004
  -7520757.23546  -5846451.38845  24167360.7894   24167357.6294
        39.0004         34.0004
 -26832737.89748 -20884852.51949  20300755.6254   20300750.5634
        48.5004         54.0004
 -23622240.53047 -18382069.59146  21039228.6254   21039222.7074
        45.7504         37.5004
   -128364.35246    -83524.64143  24976009.9454   24976004.4884
        37.7504         22.5004
  23913511.62145  18669323.67142  25192918.0394   25192915.1294
        35.0004         17.7504
 -15106238.72547 -11745309.36147  22236929.1564   22236925.8014
        45.5004         44.0004
 -18305287.51247 -14253052.28947  21956051.6484   21956044.3634
        46.7504         47.0004
 20  5  4  2 25  0.0000000  0  9G16G27G30G 9G 4G 5G26G 8G 7
 -13546090.37347 -10835183.84545  22296208.1094   22296200.0004
        44.5004         30.2504
 -15951948.52647 -12410651.84147  21985151.6334   21985147.1524
        46.0004         46.0004
  -7603893.97846  -5911233.22245  24151541.5944   24151536.9534
        39.7504         34.5004
 -26836471.13948 -20887761.54949  20300045.4064   20300039.7304
        48.5004         54.0004
 -23559325.76347 -18333045.11546  21051200.8444   21051195.6214
        46.2504         37.2504
   -184582.72746   -127331.14343  24965311.5084   24965306.7074
        38.7504         21.5004
    220771.33756  18712148.17053  25213157.6564   25213156.0084
        38.7504         23.5004
 -15182850.15147 -11805006.56747  22222350.7274   22222346.8524
        45.0004         44.0004
 -18361603.56247 -14296934.90047  21945334.6884   21945327.8444
        46.5004         47.0004
 20  5  4  2 25 30.0000000  0  9G16G27G30G 9G 4G 5G26G 8G 7
 -13451862.50947 -10761759.57245  22314138.4454   22314130.6054
        44.5004         31.0004
 -15974854.55347 -12428500.67847  21980793.0944   21980788.1884
        45.5004         46.0004
  -7686979.62946  -5975975.26645  24135730.5314   24135726.3794
        39.5004         33.5004
 -26839659.89748 -20890246.30349  20299438.7034   20299433.2194
        50.0004         54.0004
 -23495969.95447 -18283676.96346  21063256.8914   21063251.1294
        46.2504         36.5004
   -240330.08446   -170770.63243  24954702.5634   24954697.1054
        38.0004         20.0004
    327119.58346  18749039.97053  25233395.4224   25233392.8984
        39.2504         22.0004
 -15259059.79347 -11864390.69347  22207848.2974   22207844.6604
        45.7504         44.0004
 -18417780.81447 -14340709.36647  21934644.8204   21934637.3594
        46.2504         47.0004
 20  5  4  2 26  0.0000000  0  9G16G27G30G 9G 4G 5G26G 8G 7
 -13357372.62547 -10688131.11045  22332119.1484   22332112.0634
        44.5004         30.7504
 -15997139.47847 -12445865.54947  21976551.9224   21976547.7154
        45.0004         46.0004
  -7770017.78746  -6040680.30545  24119928.6724   24119924.5634
        40.7504         33.2504
 -26842307.25248 -20892309.18149  20298934.8364   20298929.4304
        49.5004         54.0004
 -23432178.06647 -18233969.02346  21075396.4224   21075390.4344
        46.0004         37.0004
   -295608.69846   -213844.85043  24944184.1414   24944177.1804
        38.0004         19.7504
    433455.77346  18831899.22043  25253629.7344   25253627.8984
        37.5004         19.2504
 -15334868.50947 -11923462.41647  22193422.3754   22193418.8054
        45.5004         44.5004
 -18473822.85447 -14384378.47547  21923979.7814   21923972.7034
        46.5004         46.7504
 20  5  4  2 26 30.0000000  0  9G16G27G30G 9G 4G 5G26G 8G 7
 -13262622.41347 -10614299.79745  22350149.6644   22350142.3714
        44.5004         30.0004
 -16018801.30547 -12462744.88047  21972430.1174   21972425.0474
        47.0004         46.0004
  -7853007.24346  -6105347.39545  24104136.2974   24104132.5394
        39.5004         34.2504
 -26844411.61148 -20893948.94649  20298534.3364   20298529.0944
        50.5004         54.0004
 -23367950.41747 -18183921.51846  21087618.1954   21087612.0594
        46.0004         36.2504
   -350416.28146   -256552.07243  24933754.3204   24933748.6604
        38.0004         21.5004
    539779.02646  18914748.50543  25273863.0164   25273859.9534
        40.5004         21.5004
 -15410273.28047 -11982219.35347  22179073.6804   22179069.6254
        46.2504         44.7504
 -18529728.16847 -14427941.05647  21913341.7894   21913334.3364
        46.5004         47.0004
 20  5  4  2 27  0.0000000  0  9G16G27G30G 9G 4G 5G26G 8G 7
 -13167614.27947 -10540267.50345  22368229.3444   22368222.0904
        44.5004         31.0004
 -16039838.71047 -12479137.65247  21968426.4304   21968422.2934
        46.2504         46.0004
  -7935947.74246  -6169976.33745  24088354.2274   24088349.2464
        40.7504         34.5004
 -26845972.18548 -20895164.98449  20298237.1954   20298232.2074
        49.0004         54.0004
 -23303288.04947 -18133535.26246  21099922.6484   21099916.8794
        46.2504         36.5004
   -404751.01346   -298890.81743  24923414.8204   24923408.7034
        38.2504         21.5004
    646087.91445  18997586.50142  25294091.6884   25294090.4384
        31.5004         16.7504
 -15485270.26247 -12040658.56047  22164802.0634   22164798.1914
        46.5004         45.0004
 -18585496.76747 -14471397.10747  21902729.3914   21902721.5744
        47.0004         47.0004
 20  5  4  2 27 30.0000000  0  8G16G27G30G 9G 4G 5G 8G 7
 -13072349.64347 -10466035.34445  22386356.9844   22386350.0824
        44.5004         30.0004
 -16060248.88547 -12495041.67547  21964542.7664   21964538.6054
        46.5004         46.2504
  -8018837.12646  -6234565.46845  24072580.0164   24072575.9024
        39.5004         35.2504
 -26846986.63848 -20895955.47249  20298044.4844   20298039.1094
        48.2504         54.0004
 -23238190.53347 -18082809.94146  21112310.3914   21112304.7544
        45.5004         36.0004
   -458609.12046   -340858.17743  24913166.0004   24913159.6604
        37.7504         20.7504
 -15559855.21747 -12098776.70247  22150608.6954   22150604.9734
        45.5004         44.2504
 -18641126.08747 -14514744.62147  21892143.3914   21892136.1644
        47.5004         47.0004
 20  5  4  2 28  0.0000000  0  8G16G27G30G 9G 4G 5G 8G 7
 -12976834.40047 -10391607.91445  22404532.8594   22404525.9144
        44.2504         30.2504
 -16080033.51647 -12510458.25947  21960777.7664   21960773.8524
        46.5004         46.2504
  -8101678.02146  -6299116.79845  24056815.6954   24056812.0124
        39.7504         35.5004
 -26847457.11348 -20896322.08349  20297954.8674   20297949.5514
        48.2504         54.0004
 -23172661.81747 -18031748.61846  21124780.4924   21124775.1174
        46.5004         36.0004
   -511992.27646   -382455.45343  24903006.9224   24903001.4414
        36.0004         20.5004
 -15634028.05747 -12156573.70647  22136493.9774   22136490.1994
        45.7504         44.2504
 -18696618.78547 -14557985.67647  21881583.8284   21881575.8484
        46.7504         47.0004
 20  5  4  2 28 30.0000000  0  8G16G27G30G 9G 4G 5G 8G 7
 -12881069.43147 -10316985.88845  22422756.1804   22422749.3094
        44.2504         30.2504
 -16099189.93147 -12525385.32847  21957132.5634   21957127.9384
        47.0004         46.2504
  -8184468.53746  -6363628.86045  24041061.0864   24041057.2234
        39.7504         35.5004
 -26847381.35348 -20896263.05149  20297969.3594   20297964.1214
        49.0004         54.0004
 -23106701.55847 -17980351.04346  21137332.4924   21137326.8284
        46.2504         37.0004
   -564897.22646   -423680.08643  24892939.5554   24892933.7974
        37.5004         19.5004
 -15707784.84047 -12214046.50347  22122458.8444   22122454.3324
        45.5004         44.2504
 -18751972.58147 -14601118.50247  21871050.1254   21871042.7304
        47.2504         47.0004
 20  5  4  2 29  0.0000000  0  8G16G27G30G 9G 4G 5G 8G 7
 -12785058.03647 -10242171.85344  22441027.3134   22441020.0784
        44.7504         29.5004
 -16117717.30347 -12539822.23247  21953607.1174   21953602.4614
        47.5004         46.5004
  -8267208.55446  -6428101.58546  24025316.0234   24025312.5944
        40.0004         36.0004
 -26846759.01948 -20895778.12449  20298087.4844   20298082.7344
        48.5004         54.0004
 -23040311.14647 -17928618.27546  21149966.2894   21149960.5594
        46.2504         37.2504
   -617322.51546   -464530.98343  24882963.5164   24882957.3054
        38.0004         20.2504
 -15781122.28547 -12271192.55047  22108503.2504   22108499.3634
        45.7504         44.5004
 -18807187.49847 -14644143.11347  21860542.7274   21860535.5314
        46.5004         47.2504
 20  5  4  2 29 30.0000000  0  8G16G27G30G 9G 4G 5G 8G 7
 -12688802.10247 -10167167.25244  22459343.8284   22459336.2974
        43.7504         29.0004
 -16135613.83447 -12553767.57047  21950201.1484   21950196.7304
        47.7504         46.5004
  -8349897.03346  -6492534.13945  24009580.9694   24009577.4184
        40.5004         35.5004
 -26845588.66148 -20894866.17349  20298310.5784   20298305.2584
        48.5004         54.2504
 -22973491.12947 -17876550.74646  21162681.5864   21162676.0234
        46.5004         37.0004
   -669266.17546   -505006.55343  24873079.0084   24873072.4804
        36.7504         19.2504
 -15854036.95847 -12328009.16847  22094627.5394   22094624.2464
        45.0004         44.5004
 -18862261.93147 -14687058.26047  21850062.7114   21850055.6414
        46.5004         47.0004
 20  5  4  2 30  0.0000000  0  8G16G27G30G 9G 4G 5G 8G 7
 -12592305.06447 -10091974.77644  22477706.9774   22477698.9384
        44.5004         29.2504
 -16152879.30047 -12567221.16847  21946915.7584   21946911.5784
        47.0004         46.5004
  -8432534.47746  -6556926.92345  23993855.2344   23993852.0784
        39.7504         35.2504
 -26843870.53548 -20893527.38149  20298637.5004   20298632.0314
        50.0004         54.2504
 -22906243.52247 -17824150.04946  21175478.3364   21175472.7974
        46.5004         36.7504
   -720727.37146   -545106.25043  24863285.1884   24863280.0784
        37.0004         18.2504
 -15926527.07647 -12384494.94447  22080833.1644   22080829.6334
        46.5004         45.0004
 -18917196.69447 -14729864.56647  21839608.9614   21839601.7774
        46.0004         47.2504
 20  5  4  2 30 30.0000000  0  8G16G27G30G 9G 4G 5G 8G 7
 -12495569.38447 -10016596.34544  22496115.0474   22496107.3244
        44.7504         28.5004
 -16169512.02247 -12580181.71847  21943751.0084   21943746.2274
        46.7504         46.5004
  -8515119.81546  -6621279.10945  23978139.5084   23978136.1564
        39.2504         35.5004
 -26841603.38748 -20891760.78049  20299068.8914   20299063.4924
        49.0004         54.0004
 -22838568.86447 -17771416.56946  21188356.1804   21188350.1644
        46.0004         36.5004
   -771703.79546   -584828.08442  24853586.3834   24853579.8164
        38.2504         17.2504
 -15998589.15147 -12440647.19347  22067120.0234   22067117.0474
        46.0004         45.7504
 -18971990.56547 -14772561.07547  21829181.5784   21829174.6174
        46.0004         47.5004
 20  5  4  2 31  0.0000000  0  8G16G27G30G 9G 4G 5G 8G 7
 -12398598.41047  -9941034.57544  22514568.0474   22514560.5164
        44.2504         28.5004
 -16185511.81947 -12592649.08447  21940706.0864   21940701.2344
        47.2504         46.5004
  -8597653.52346  -6685591.06946  23962435.1884   23962430.6914
        40.7504         36.0004
 -26838787.38548 -20889566.51049  20299604.7734   20299599.2194
        48.7504         54.0004
 -22770469.24347 -17718351.95246  21201315.1024   21201309.4414
        46.0004         36.2504
   -822194.49246   -624171.51843  24843977.7424   24843971.3984
        37.2504         18.2504
 -16070220.82847 -12496464.04647  22053489.6414   22053485.9884
        45.7504         45.7504
 -19026643.92347 -14815148.09147  21818781.4694   21818774.6844
        46.2504         47.5004
 20  5  4  2 31 30.0000000  0  8G16G27G30G 9G 4G 5G 8G 7
 -12301394.01247  -9865290.90344  22533065.8284   22533057.8714
        44.2504         28.2504
 -16200877.08747 -12604622.01247  21937782.1564   21937777.2544
        47.7504         46.5004
  -8680134.57046  -6749861.99446  23946738.9384   23946735.0084
        39.7504         36.0004
 -26835421.33848 -20886943.62749  20300245.2504   20300239.8134
        48.2504         54.0004
 -22701945.23647 -17664956.63246  21214355.1564   21214349.3524
        46.2504         36.0004
   -872197.85446   -663135.19143  24834461.7894   24834456.1524
        36.5004         18.5004
 -16141418.89847 -12551943.04447  22039940.9774   22039937.3484
        46.0004         45.5004
 -19081155.25947 -14857624.44847  21808408.5944   21808401.2114
        46.5004         47.7504
 20  5  4  2 32  0.0000000  0  8G16G27G30G 9G 4G 5G 8G 7
 -12203958.44347  -9789367.10144  22551606.4064   22551599.4454
        43.0004         28.0004
 -16215606.49247 -12616099.46347  21934978.7424   21934974.5704
        47.0004         46.5004
  -8762562.17246  -6814091.27045  23931053.5634   23931049.4454
        39.7504         35.7504
 -26831504.29648 -20883891.39949  20300990.7034   20300985.1844
        48.7504         54.0004
 -22632997.70047 -17611231.30346  21227475.5474   21227469.4844
        45.5004         36.5004
   -921711.56446   -701717.29643  24825040.9304   24825033.6994
        39.5004         18.2504
 -16212180.12247 -12607081.63547  22026475.7424   22026471.7194
        45.7504         45.5004
 -19135523.96947 -14899989.64848  21798062.9454   21798055.5514
        46.7504         48.0004
 20  5  4  2 32 30.0000000  0  8G16G27G30G 9G 4G 5G 8G 7
 -12106295.35747  -9713266.03544  22570191.4064   22570184.0984
        43.7504         28.5004
 -16229699.42247 -12627080.94947  21932297.3524   21932292.8324
        46.5004         46.5004
  -8844936.27746  -6878278.87145  23915377.2584   23915374.2304
        39.0004         35.7504
 -26827036.00248 -20880409.62049  20301841.0314   20301836.0394
        48.2504         54.0004
 -22563628.23247 -17557177.18946  21240676.5164   21240670.2734
        47.0004         36.0004
   -970734.58946   -739917.08543  24815712.4454   24815704.4064
        40.2504         18.2504
 -16282502.19447 -12661878.03547  22013093.2894   22013089.4534
        45.2504         45.2504
 -19189749.77447 -14942243.54047  21787744.0234   21787736.6764
        47.0004         47.7504
 20  5  4  2 33  0.0000000  0  8G16G27G30G 9G 4G 5G 8G 7
 -12008407.55647  -9636989.87645  22588819.3134   22588811.4694
        43.5004         30.5004
 -16243155.47348 -12637566.20247  21929736.7734   21929732.0984
        48.2504         47.7504
  -8927257.03946  -6942424.88446  23899713.2114   23899708.8984
        41.5004         36.5004
 -26822016.43848 -20876498.28548  20302796.0234   20302790.8014
        49.0004         52.7504
 -22493838.64647 -17502795.67145  21253956.1094   21253950.3284
        44.0004         32.0004
  -1019265.93746   -777733.72743  24806477.4844   24806469.8754
        41.5004         20.7504
 -16352382.39247 -12716330.06246  21999795.4534   21999791.8754
        42.2504         40.5004
 -19243832.70447 -14984386.07247  21777452.4924   21777444.7234
        46.7504         47.7504
 20  5  4  2 33 30.0000000  0  8G16G27G30G 9G 4G 5G 8G 7
 -11910297.53047  -9560540.51644  22607489.0634   22607481.7154
        42.2504         26.5004
 -16255973.59947 -12647554.29947  21927297.2504   21927292.9264
        47.0004         46.7504
  -9009523.74046  -7006528.81346  23884058.3364   23884054.1604
        41.0004         36.0004
 -26816444.94148 -20872156.87248  20303856.1484   20303851.0864
        49.5004         53.2504
 -22423629.92147 -17448087.63145  21267316.9144   21267310.8634
        45.7504         35.5004
  -1067303.90846   -815165.96843  24797335.0634   24797328.9184
        41.5004         20.5004
 -16421817.87247 -12770435.64047  21986582.6884   21986578.9024
        44.5004         44.5004
 -19297771.91047 -15026416.61947  21767188.0234   21767180.3754
        46.2504         47.7504
 20  5  4  2 34  0.0000000  0  8G16G27G30G 9G 4G 5G 8G 7
 -11811967.63047  -9483919.88844  22626200.0234   22626193.1524
        43.2504         28.5004
 -16268152.63547 -12657044.45347  21924979.7734   21924975.4614
        47.2504         46.7504
  -9091735.74246  -7070590.07646  23868414.0394   23868409.7194
        39.7504         36.7504
 -26810320.59648 -20867384.67149  20305021.8134   20305016.4064
        49.5004         54.0004
 -22353003.10647 -17393053.79546  21280756.9224   21280751.0004
        46.7504         36.7504
  -1114846.77446   -852212.29643  24788289.0784   24788281.1994
        40.5004         19.2504
 -16490805.68847 -12824192.37647  21973454.5164   21973450.4384
        45.5004         45.5004
 -19351566.39347 -15068334.37247  21756951.0704   21756943.8984
        46.5004         47.5004
 20  5  4  2 34 30.0000000  0  8G16G27G30G 9G 4G 5G 8G 7
 -11713419.98247  -9407129.52944  22644953.6334   22644946.1844
        43.5004         28.2504
 -16279691.21147 -12666035.53647  21922784.0554   21922779.2424
        47.5004         47.0004
  -9173892.07146  -7134607.98046  23852779.5394   23852775.8054
        39.5004         36.2504
 -26803642.49948 -20862180.95849  20306292.4694   20306287.0824
        48.2504         54.0004
 -22281958.93047 -17337694.70146  21294275.5234   21294270.4614
        46.2504         36.5004
  -1161892.53946   -888871.34343  24779336.4304   24779328.9734
        40.0004         19.0004
 -16559342.65047 -12877597.77647  21960412.3674   21960408.5594
        45.5004         45.5004
 -19405215.27347 -15110138.69247  21746741.8594   21746734.6024
        46.2504         47.5004
 20  5  4  2 35  0.0000000  0  8G16G27G30G 9G 4G 5G 8G 7
 -11614658.35147  -9330172.44944  22663747.6094   22663739.8984
        43.2504         28.2504
 -16290589.66347 -12674527.81847  21920710.3054   21920705.7154
        46.5004         47.0004
  -9255993.45246  -7198583.05746  23837156.4614   23837152.4414
        40.0004         36.5004
 -26796411.23548 -20856546.22349  20307668.6024   20307663.1764
        49.7504         54.0004
 -22210499.92747 -17282012.38945  21307873.8444   21307868.5084
        45.5004         35.2504
  -1208440.89146   -925142.82843  24770477.7194   24770471.0124
        39.7504         19.7504
 -16627426.69947 -12930650.25447  21947456.5474   21947452.4304
        45.2504         46.0004
 -19458719.05347 -15151829.94247  21736560.6884   21736553.4304
        46.2504         47.7504
 20  5  4  2 35 30.0000000  0  8G16G27G30G 9G 4G 5G 8G 7
 -11515684.94547  -9253050.35444  22682581.4614   22682573.5864
        43.5004         28.2504
 -16300846.76847 -12682520.34247  21918758.2734   21918754.1414
        46.5004         46.7504
  -9338038.90646  -7262514.55646  23821544.3444   23821539.7194
        40.2504         36.0004
 -26788625.91448 -20850479.75749  20309149.8054   20309144.6174
        49.0004         54.0004
 -22138626.78947 -17226007.37045  21321550.8674   21321545.3484
        46.2504         35.7504
  -1254489.76146   -961025.04343  24761714.9844   24761708.5084
        39.0004         19.5004
 -16695054.95347 -12983347.56547  21934587.8054   21934583.6134
        45.5004         46.0004
 -19512076.62847 -15193407.25947  21726406.6564   21726399.6054
        46.2504         47.7504
 20  5  4  2 36  0.0000000  0  8G16G27G30G 9G 4G 5G 8G 7
 -11416502.41547  -9175765.28044  22701454.2194   22701447.5124
        42.5004         28.2504
 -16310461.77447 -12690012.53647  21916928.7974   21916923.8204
        46.0004         46.7504
  -9420028.06146  -7326402.19446  23805940.9534   23805937.5234
        39.2504         36.2504
 -26780286.07948 -20843981.19849  20310737.3134   20310731.9654
        49.0004         54.0004
 -22066340.98047 -17169680.78746  21335306.5704   21335300.5474
        46.5004         36.0004
  -1300038.35846   -996517.47043  24753048.0554   24753040.4924
        39.5004         19.2504
 -16762224.77947 -13035687.66647  21921805.4224   21921801.8794
        46.0004         46.5004
 -19565287.32647 -15234870.12947  21716281.2274   21716273.9104
        46.7504         47.7504
 20  5  4  2 36 30.0000000  0  8G16G27G30G 9G 4G 5G 8G 7
 -11317113.51347  -9098319.43744  22720367.8914   22720360.5004
        43.7504         28.0004
 -16319434.06647 -12697003.94548  21915221.4924   21915217.0944
        47.2504         48.0004
  -9501960.52746  -7390245.68245  23790350.3204   23790346.2704
        38.5004         34.7504
 -26771391.45248 -20837050.32848  20312429.7814   20312424.1604
        48.2504         52.5004
 -21993643.95547 -17113033.77545  21349140.8284   21349134.5594
        47.2504         33.5004
  -1345084.96946  -1031618.64942  24744476.1254   24744469.2114
        38.5004         17.2504
 -16828933.39147 -13087668.40147  21909110.9454   21909107.3244
        46.5004         46.7504
 -19618350.80847 -15276218.27747  21706183.7034   21706175.9774
        46.7504         47.2504
 20  5  4  2 37  0.0000000  0  8G16G27G30G 9G 4G 5G 8G 7
 -11217521.00546  -9020714.90344  22739320.1644   22739312.5004
        41.7504         24.5004
 -16327763.24047 -12703494.15347  21913636.5394   21913631.8404
        46.7504         46.7504
  -9583836.36546  -7454044.97246  23774769.7194   23774766.0234
        40.5004         37.0004
 -26761941.96948 -20829687.09748  20314227.8984   20314222.6094
        49.5004         53.2504
 -21920537.27747 -17056067.54745  21363052.3054   21363046.0314
        45.5004         34.5004
  -1389628.75946  -1066328.16243  24735998.3754   24735993.3444
        39.7504         20.7504
 -16895178.04247 -13139287.56147  21896505.1954   21896501.3364
        44.5004         45.5004
 -19671267.01647 -15317451.71748  21696114.6094   21696106.8134
        47.7504         49.2504
 20  5  4  2 37 30.0000000  0  8G16G27G30G 9G 4G 5G 8G 7
 -11117726.67547  -8942953.13444  22758310.1804   22758303.1054
        42.5004         28.2504
 -16335447.92147 -12709482.20847  21912174.2274   21912169.5474
        46.0004         46.5004
  -9665653.95646  -7517798.95846  23759201.2734   23759197.2974
        41.0004         37.5004
 -26751936.39148 -20821890.55449  20316131.7424   20316126.8244
        48.2504         54.0004
 -21847021.62247 -16998782.63446  21377041.9304   21377035.7814
        47.0004         36.0004
  -1433667.43646  -1100644.02143  24727618.8054   24727612.2464
        39.0004         22.2504
 -16960955.71547 -13190542.86847  21883987.7894   21883984.2584
        45.0004         46.5004
 -19724034.24947 -15358569.00748  21686072.9844   21686065.4924
        47.5004         48.2504
 20  5  4  2 38  0.0000000  0  8G16G27G30G 9G 4G 5G 8G 7
 -11017734.11447  -8865036.88444  22777337.8754   22777330.9734
        42.7504         27.5004
 -16342488.21247 -12714968.13047  21910834.6254   21910829.6484
        46.0004         46.5004
  -9747413.81846  -7581507.91746  23743642.8594   23743638.4844
        40.5004         37.5004
 -26741375.20948 -20813661.08149  20318141.6954   20318136.7304
        48.5004         54.0004
 -21773099.08147 -16941180.66445  21391108.8674   21391103.2774
        46.2504         35.2504
  -1477200.32346  -1134565.78743  24719333.9454   24719329.1414
        37.7504         22.5004
 -17026264.52047 -13241432.81447  21871560.5234   21871555.9694
        45.2504         46.5004
 -19776652.50047 -15399570.22748  21676060.1954   21676052.5664
        47.0004         48.2504
