     2.11           OBSERVATION DATA    G (GPS)             RINEX VERSION / TYPE
teqc  2008Oct2                          20220511 04:16:25UTCPGM / RUN BY / DATE
MSXP|IAx86-PII|bcc32 5.0|MSWin95->XP|486/DX+                COMMENT
BIT 2 OF LLI FLAGS DATA COLLECTED UNDER A/S CONDITION       COMMENT
NtRSkaza                                                    MARKER NAME
kaza                                                        MARKER NUMBER
-Unknown-           -Unknown-                               OBSERVER / AGENCY
4752143407          TRIMBLE NETRS       NP 1.32 / SP 0.00   REC # / TYPE / VERS
30895097            TRM55971.00                             ANT # / TYPE
  1325807.6201  4606496.1378  4195524.9368                  APPROX POSITION XYZ
        0.1705        0.0000        0.0000                  ANTENNA: DELTA H/E/N
     1     1                                                WAVELENGTH FACT L1/2
     7    L1    L2    C1    P2    P1    S1    S2            # / TYPES OF OBSERV
 SNR is mapped to RINEX snr flag value [0-9]                COMMENT
  L1 & L2: min(max(int(snr_dBHz/6), 0), 9)                  COMMENT
  2020     5     5     0     0    0.0000000     GPS         TIME OF FIRST OBS
                                                            END OF HEADER
 20  5  5  0  0  0.0000000  0  9G16G 6G 4G22G 9G31G26G14G 3
 -21602054.12147 -16606106.10246  20969747.2584   20969739.2464
        46.5004         37.5004
  -1455202.04646  -1137409.05343  25149437.1484   25149433.9884
        37.0004         20.0004
 -24334489.03847 -18939972.05246  21000423.2034   21000417.1134
        47.0004         36.5004
 -18456537.73147 -14370762.96945  22288063.3524   22288053.6994
        46.5004         34.7504
 -10780386.73046  -8387536.49646  23449800.8284   23449795.1844
        41.2504         39.0004
  -9009208.59947  -7882679.54946  23158882.7344   23158875.0514
        43.7504         39.7504
 -20772756.73648 -16163056.48848  20981136.0474   20981131.0784
        48.2504         50.0004
  -5410217.11446  -3989958.76943  24241302.2734   24241295.3984
        40.5004         21.0004
 -22409025.51048 -17445889.27048  20919181.9694   20919176.4304
        49.5004         51.2504
 20  5  5  0  0 30.0000000  0  9G16G 6G 4G22G 9G31G26G14G 3
 -21663338.01447 -16653859.78446  20958085.5554   20958077.4384
        46.5004         37.5004
  -1454653.20046  -1136981.44043  25149542.1484   25149538.5664
        36.2504         19.0004
 -24385171.89647 -18979465.18346  20990778.6564   20990772.5784
        47.0004         36.7504
 -18373480.19047 -14306042.83345  22303869.0004   22303859.1884
        47.0004         35.2504
 -10869945.57046  -8457322.62246  23432758.4694   23432753.0204
        40.7504         39.2504
  -8917095.53347  -7810903.17946  23176411.1254   23176403.4884
        43.7504         39.7504
 -20751826.82048 -16146747.46548  20985118.7894   20985114.3754
        48.0004         50.0004
  -5329042.04546  -3926705.51543  24256749.0234   24256742.4844
        39.2504         19.5004
 -22362748.84348 -17409829.53248  20927987.3754   20927982.5664
        49.0004         51.5004
 20  5  5  0  1  0.0000000  0  9G16G 6G 4G22G 9G31G26G14G 3
 -21724046.37747 -16701165.00646  20946533.1644   20946525.5904
        47.0004         37.5004
  -1453580.88546  -1136145.86743  25149747.1254   25149741.8364
        37.0004         19.0004
 -24435603.95947 -19018762.88946  20981181.9304   20981175.6454
        46.0004         37.5004
 -18290095.17447 -14241067.50245  22319736.3754   22319726.6454
        45.5004         34.7504
 -10959438.33747  -8527057.22946  23415728.6414   23415723.0394
        42.0004         39.7504
  -8824916.35647  -7739075.29046  23193952.6804   23193944.6134
        44.0004         39.0004
 -20730296.49847 -16129970.60248  20989215.8914   20989211.1914
        47.7504         50.0004
  -5247720.94746  -3863338.48543  24272224.8754   24272217.1134
        38.2504         19.5004
 -22315925.27148 -17373343.64348  20936897.5394   20936893.0274
        49.5004         51.2504
 20  5  5  0  1 30.0000000  0  9G16G 6G 4G22G 9G31G26G14G 3
 -21784177.99347 -16748020.81846  20935090.5084   20935082.2384
        47.5004         37.0004
  -1451987.12646  -1134904.00143  25150050.0394   25150045.0864
        37.0004         19.0004
 -24485785.14447 -19057865.11146  20971632.5234   20971626.3954
        46.7504         38.0004
 -18206385.78847 -14175839.43345  22335665.7274   22335655.6724
        46.5004         33.7504
 -11048865.05646  -8596740.39146  23398710.5004   23398706.0744
        41.2504         40.0004
  -8732673.67247  -7667197.90646  23211505.3754   23211497.8404
        42.7504         39.0004
 -20708168.01748 -16112727.64248  20993426.9304   20993422.4304
        48.5004         50.0004
  -5166255.25345  -3799858.71842  24287725.4454   24287719.5864
        35.2504         16.2504
 -22268557.46948 -17336433.67948  20945911.8674   20945906.6564
        49.0004         51.2504
 20  5  5  0  2  0.0000000  0  9G16G 6G 4G22G 9G31G26G14G 3
 -21843730.97547 -16794425.74546  20923757.5784   20923750.0124
        47.2504         37.2504
  -1449872.30246  -1133256.08643  25150452.1174   25150448.2384
        37.2504         20.0004
 -24535714.04347 -19096770.74946  20962132.1484   20962125.2894
        47.2504         37.5004
 -18122354.56847 -14110360.57345  22351656.1254   22351646.6024
        46.2504         33.7504
 -11138224.51447  -8666371.08846  23381706.9844   23381701.1914
        42.7504         40.2504
  -8640369.04947  -7595272.25546  23229069.9924   23229062.5234
        42.7504         40.0004
 -20685442.36548 -16095019.34848  20997751.4534   20997747.0474
        48.0004         50.0004
  -5084645.35046  -3736266.67543  24303256.4614   24303249.4654
        38.5004         19.0004
 -22220646.83348 -17299100.73748  20955029.3754   20955024.1374
        48.7504         51.2504
 20  5  5  0  2 30.0000000  0  9G16G 6G 4G22G 9G31G26G14G 3
 -21902703.03747 -16840378.00346  20912536.1644   20912528.0944
        47.5004         37.7504
  -1447236.92946  -1131202.59143  25150954.3054   25150949.0204
        36.5004         20.7504
 -24585389.11147 -19135478.59446  20952678.8204   20952672.0744
        47.0004         36.7504
 -18038003.86147 -14044632.77545  22367707.6644   22367697.9184
        45.7504         34.5004
 -11227515.27947  -8735948.28746  23364715.6804   23364709.7074
        42.7504         40.5004
  -8548003.77747  -7523299.35346  23246646.1254   23246639.5824
        43.0004         39.5004
 -20662120.46947 -16076846.45148  21002189.4844   21002185.1684
        47.7504         50.0004
  -5002891.56646  -3672562.47543  24318812.9064   24318807.0704
        36.7504         19.7504
 -22172194.74548 -17261345.86748  20964248.7504   20964243.9774
        48.2504         51.0004
 20  5  5  0  3  0.0000000  0  9G16G 6G 4G22G 9G31G26G14G 3
 -21961092.13947 -16885876.00346  20901424.9064   20901417.0434
        47.5004         37.2504
  -1444081.79346  -1128744.05943  25151554.2344   25151550.3204
        37.0004         21.0004
 -24634809.18247 -19173987.74846  20943274.9844   20943268.1334
        46.0004         38.0004
 -17953335.91947 -13978657.76745  22383819.5634   22383809.4884
        45.7504         33.7504
 -11316736.25947  -8805471.13346  23347737.2424   23347731.4574
        42.0004         40.0004
  -8455579.31547  -7451280.34046  23264235.1254   23264227.9104
        42.7504         39.5004
 -20638203.53948 -16058209.89448  21006741.0394   21006736.3094
        48.0004         50.0004
  -4920993.97345  -3608746.23443  24334397.6564   24334391.8634
        35.2504         19.2504
 -22123202.87448 -17223170.39748  20973571.6884   20973566.6604
        49.0004         51.0004
 20  5  5  0  3 30.0000000  0  9G16G 6G 4G22G 9G31G26G14G 3
 -22018896.22747 -16930918.15846  20890424.9694   20890417.3754
        47.0004         38.0004
  -1440408.04746  -1125881.43843  25152253.8914   25152249.5434
        37.5004         20.2504
 -24683973.33547 -19212297.47546  20933918.8054   20933912.0744
        46.5004         37.2504
 -17868353.69247 -13912437.86745  22399991.2664   22399981.4144
        46.5004         34.0004
 -11405886.75947  -8874939.04346  23330772.5004   23330766.5124
        42.0004         39.5004
  -8363097.63247  -7379216.74646  23281833.7504   23281826.2974
        43.0004         39.5004
 -20613693.14148 -16039110.89848  21011405.0864   21011400.5124
        48.7504         50.2504
  -4838953.85746  -3544819.07743  24350011.3914   24350004.2704
        38.5004         21.2504
 -22073673.19948 -17184575.85448  20982996.7734   20982992.3714
        48.5004         51.0004
 20  5  5  0  4  0.0000000  0  9G16G 6G 4G22G 9G31G26G14G 3
 -22076112.51247 -16975502.28546  20879536.8984   20879529.0984
        46.7504         37.7504
  -1436215.57046  -1122614.59143  25153051.2894   25153046.9024
        37.0004         19.7504
 -24732879.34747 -19250406.06146  20924612.5704   20924605.6024
        46.7504         38.0004
 -17783058.96447 -13845974.46245  22416222.6174   22416212.5314
        46.0004         33.7504
 -11494964.74647  -8944350.47346  23313821.4844   23313815.6054
        42.0004         40.0004
  -8270559.19547  -7307108.92746  23299443.0004   23299435.9144
        43.0004         39.5004
 -20588589.58148 -16019549.69148  21016181.7114   21016177.4414
        48.0004         50.2504
  -4756770.56146  -3480780.16243  24365650.7114   24365642.8674
        38.0004         19.7504
 -22023606.46448 -17145562.82748  20992524.6884   20992519.4494
        49.0004         51.0004
 20  5  5  0  4 30.0000000  0  9G16G 6G 4G22G 9G31G26G14G 3
 -22132739.73347 -17019627.39146  20868761.2584   20868753.3594
        46.7504         37.2504
  -1431505.71646  -1118944.59343  25153947.7114   25153943.0204
        37.0004         20.7504
 -24781526.52247 -19288312.95146  20915355.0864   20915348.4534
        47.0004         37.7504
 -17697454.41147 -13779269.63545  22432512.2894   22432502.8444
        46.0004         33.2504
 -11583969.37846  -9013704.72346  23296884.3834   23296878.6724
        41.7504         39.5004
  -8177966.09347  -7234958.51746  23317063.2814   23317055.6294
        43.0004         39.2504
 -20562894.64947 -15999527.67348  21021071.4694   21021067.3634
        47.5004         50.2504
  -4674445.13146  -3416630.48543  24381315.7584   24381308.6174
        38.7504         18.2504
 -21973004.87248 -17106133.02148  21002153.6024   21002148.4924
        49.0004         51.0004
 20  5  5  0  5  0.0000000  0  9G16G 6G 4G22G 9G31G26G14G 3
 -22188774.85747 -17063291.13246  20858098.5634   20858090.1564
        47.0004         37.5004
  -1426278.65246  -1114871.54443  25154941.7114   25154937.8674
        36.5004         20.2504
 -24829912.94447 -19326016.65946  20906147.5944   20906140.7814
        47.0004         37.0004
 -17611541.96447 -13712324.89245  22448860.7734   22448851.6054
        46.2504         34.5004
 -11672898.98346  -9083000.51446  23279961.4534   23279956.1174
        41.2504         39.5004
  -8085319.22247  -7162766.19546  23334692.9304   23334685.6254
        42.5004         39.5004
 -20536608.99948 -15979045.36548  21026073.9144   21026069.3244
        48.0004         50.2504
  -4591977.42846  -3352370.01443  24397008.8054   24397001.5124
        36.5004         18.5004
 -21921869.53048 -17066287.31148  21011884.1094   21011879.2384
        48.2504         50.7504
 20  5  5  0  5 30.0000000  0  9G16G 6G 4G22G 9G31G26G14G 3
 -22244215.77047 -17106491.84946  20847547.9304   20847540.4304
        46.7504         37.2504
  -1420534.98346  -1110396.00943  25156036.0164   25156030.6954
        36.5004         19.0004
 -24878036.99647 -19363515.92646  20896989.8134   20896983.2854
        46.5004         36.5004
 -17525323.95547 -13645142.05945  22465267.6334   22465257.9654
        45.7504         34.0004
 -11761752.12146  -9152236.70846  23263052.8134   23263047.6024
        41.5004         40.2504
  -7992619.97047  -7090533.06146  23352333.5634   23352325.8714
        43.0004         38.7504
 -20509733.61848 -15958103.51748  21031187.4844   21031183.3714
        48.5004         50.2504
  -4509367.50046  -3287998.78842  24412728.7504   24412722.4534
        36.0004         17.7504
 -21870201.81848 -17026026.78048  21021716.2274   21021711.5274
        48.5004         50.7504
 20  5  5  0  6  0.0000000  0  9G16G 6G 4G22G 9G31G26G14G 3
 -22299061.28647 -17149228.62546  20837111.5084   20837103.6374
        47.0004         37.5004
  -1414276.11646  -1105519.01443  25157226.7584   25157222.0124
        37.0004         19.5004
 -24925897.96747 -19400810.19446  20887882.2504   20887875.1334
        46.7504         37.2504
 -17438803.39047 -13577723.46145  22481731.8984   22481722.1524
        45.5004         34.0004
 -11850528.07746  -9221412.77046  23246158.7194   23246154.6884
        40.7504         40.5004
  -7899870.06847  -7018260.45546  23369982.9144   23369975.6484
        43.5004         39.0004
 -20482270.32147 -15936703.55248  21036414.0864   21036409.4304
        47.2504         50.0004
  -4426616.58646  -3223517.57943  24428475.5394   24428469.9024
        39.7504         18.5004
 -21818004.00548 -16985353.17548  21031649.2584   21031644.3204
        49.0004         50.7504
 20  5  5  0  6 30.0000000  0  9G16G 6G 4G22G 9G31G26G14G 3
 -22353309.14047 -17191499.68546  20826788.4844   20826780.5234
        46.5004         37.5004
  -1407502.82945  -1100241.12343  25158513.4384   25158510.5744
        35.2504         19.7504
 -24973494.36347 -19437898.29746  20878824.5394   20878818.1484
        47.0004         37.5004
 -17351982.76847 -13510071.03845  22498253.4534   22498243.0744
        45.7504         34.0004
 -11939225.54446  -9290527.67546  23229280.4454   23229275.5744
        41.5004         40.5004
  -7807070.98847  -6945949.53346  23387641.7114   23387634.6844
        43.0004         39.0004
 -20454220.30347 -15914846.40648  21041751.5394   21041747.3954
        47.2504         50.0004
  -4343724.94446  -3158926.61242  24444249.7504   24444243.0004
        38.7504         17.7504
 -21765277.69548 -16944267.74648  21041682.6724   21041677.5594
        48.5004         51.0004
 20  5  5  0  7  0.0000000  0  9G16G 6G 4G22G 9G31G26G14G 3
 -22406957.12547 -17233303.31446  20816579.3284   20816571.5704
        47.0004         38.0004
  -1400215.60446  -1094562.81743  25159902.7034   25159897.1764
        38.2504         20.7504
 -25020824.62647 -19474779.02846  20869818.0704   20869811.8444
        47.7504         37.2504
 -17264864.25547 -13442186.50145  22514831.3914   22514821.7154
        45.2504         33.2504
 -12027843.05747  -9359580.27846  23212417.6724   23212412.4104
        42.2504         41.0004
  -7714223.74147  -6873601.07546  23405310.2894   23405303.1684
        43.0004         39.2504
 -20425584.70647 -15892532.96348  21047200.6564   21047196.0824
        47.0004         50.0004
  -4260692.68946  -3094226.28843  24460049.5864   24460044.0124
        37.0004         21.5004
 -21712024.41548 -16902771.70148  21051816.9774   21051811.8554
        48.7504         51.0004
 20  5  5  0  7 30.0000000  0  9G16G 6G 4G22G 9G31G26G14G 3
 -22460002.83948 -17274637.64346  20806485.2894   20806477.3444
        48.2504         37.7504
  -1392415.20446  -1088484.61843  25161386.6174   25161382.2344
        37.0004         20.2504
 -25067887.04647 -19511451.04546  20860862.8054   20860856.1134
        47.7504         37.5004
 -17177449.95547 -13374071.48045  22531466.3054   22531456.0704
        45.5004         33.2504
 -12116378.95947  -9428569.28646  23195570.1884   23195564.5634
        42.0004         40.7504
  -7621329.41847  -6801215.94246  23422987.6564   23422980.2234
        42.7504         39.2504
 -20396364.39147 -15869763.89548  21052761.1884   21052756.6214
        47.0004         49.7504
  -4177519.95846  -3029416.52043  24475877.6954   24475872.1414
        39.5004         21.5004
 -21658245.48747 -16860866.05248  21062050.7894   21062045.3204
        47.5004         50.5004
 20  5  5  0  8  0.0000000  0  9G16G 6G 4G22G 9G31G26G14G 3
 -22512445.25248 -17315501.87146  20796505.6804   20796497.8984
        48.0004         38.5004
  -1384103.23546  -1082007.77443  25162966.9694   25162964.0044
        36.7504         19.5004
 -25114681.14048 -19547913.97446  20851958.0634   20851951.4344
        48.0004         37.5004
 -17089743.05847 -13305728.46945  22548156.6334   22548145.6914
        45.7504         32.7504
 -12204832.87847  -9497494.42346  23178736.9774   23178732.4924
        42.2504         41.0004
  -7528390.05347  -6728795.69746  23440673.2664   23440665.9184
        42.5004         39.2504
 -20366561.59247 -15846540.94848  21058432.2814   21058428.1524
        47.0004         49.7504
  -4094208.06546  -2964498.11743  24491731.0554   24491724.7194
        39.0004         19.0004
 -21603943.53048 -16818552.84948  21072383.5084   21072378.6134
        48.0004         50.5004
 20  5  5  0  8 30.0000000  0  9G16G 6G 4G22G 9G31G26G14G 3
 -22564280.74248 -17355893.17246  20786642.1414   20786634.3484
        48.2504         38.0004
  -1375279.05446  -1075131.77843  25164646.9694   25164642.6024
        36.7504         20.2504
 -25161203.78447 -19584165.39846  20843105.0084   20843098.1914
        47.5004         37.2504
 -17001744.68447 -13237158.31245  22564901.5944   22564891.5864
        45.5004         33.2504
 -12293201.71147  -9566353.22146  23161921.9844   23161916.6134
        42.5004         41.5004
  -7435405.43447  -6656340.19546  23458367.0474   23458360.8014
        42.7504         39.0004
 -20336175.95347 -15822863.83748  21064214.7194   21064210.3364
        47.0004         50.0004
  -4010755.93445  -2899470.54242  24507610.0004   24507605.0474
        31.5004         14.7504
 -21549118.57947 -16775832.12648  21082816.7894   21082811.6914
        47.7504         50.5004
 20  5  5  0  9  0.0000000  0  9G16G 6G 4G22G 9G31G26G14G 3
 -22615508.81447 -17395811.15946  20776893.4694   20776885.6954
        47.5004         37.7504
  -1365944.50246  -1067858.13843  25166423.1094   25166419.0354
        36.2504         20.2504
 -25207454.77948 -19620205.14446  20834303.5634   20834297.3164
        48.2504         37.5004
 -16913458.44347 -13168363.86445  22581702.0084   22581691.9454
        45.0004         33.0004
 -12381485.38047  -9635145.67346  23145122.3284   23145116.5744
        42.5004         41.2504
  -7342378.39347  -6583851.64846  23476070.3674   23476062.6214
        43.0004         39.0004
 -20305209.95447 -15798734.50148  21070107.5004   21070103.0474
        47.5004         49.7504
  -3927164.84945  -2834334.74242  24523517.7584   24523512.5234
        35.2504         17.2504
 -21493773.59647 -16732706.18148  21093348.3284   21093343.4734
        47.5004         50.5004
 20  5  5  0  9 30.0000000  0  9G16G 6G 4G22G 9G31G26G14G 3
 -22666127.86447 -17435254.57846  20767261.4144   20767253.6094
        47.0004         37.5004
  -1356101.17046  -1060188.02143  25168296.5944   25168292.9064
        36.5004         20.2504
 -25253433.22548 -19656032.51146  20825554.6174   20825548.0944
        48.0004         38.0004
 -16824887.11847 -13099347.25645  22598555.9614   22598546.6564
        45.0004         33.2504
 -12469683.04047  -9703871.11646  23128338.8674   23128333.0354
        42.2504         41.0004
  -7249310.33147  -6511331.13546  23493780.7584   23493773.4654
        42.7504         38.7504
 -20273665.53147 -15774154.43748  21076110.2974   21076105.7034
        47.0004         49.5004
  -3843435.86146  -2769091.45343  24539451.7814   24539445.8204
        38.7504         19.7504
 -21437910.83447 -16689176.77148  21103978.6724   21103973.6724
        47.5004         50.5004
 20  5  5  0 10  0.0000000  0  9G16G 6G 4G22G 9G31G26G14G 3
 -22716135.29847 -17474221.41446  20757744.9924   20757737.2074
        47.5004         37.5004
  -1345749.29246  -1052121.65043  25170267.1564   25170262.1644
        36.0004         19.0004
 -25299136.94747 -19691645.79946  20816857.5314   20816850.3164
        47.5004         37.5004
 -16736032.30247 -13030109.76445  22615465.0474   22615455.3244
        44.5004         33.5004
 -12557792.58446  -9772527.91946  23111570.2734   23111566.2814
        41.5004         41.0004
  -7156201.88147  -6438779.15446  23511499.2814   23511491.6094
        42.5004         38.5004
 -20241543.28047 -15749124.12348  21082222.7114   21082218.4494
        47.7504         49.5004
  -3759568.55046  -2703740.46542  24555410.6254   24555405.3634
        36.7504         17.7504
 -21381531.34747 -16645244.71648  21114707.4924   21114702.2544
        47.0004         50.5004
 20  5  5  0 10 30.0000000  0 10G16G 6G 4G22G 9G31G26G14G 7G 3
 -22765529.49748 -17512710.40846  20748345.9144   20748337.9844
        48.0004         38.7504
  -1334889.99346  -1043659.89443  25172333.1414   25172328.4024
        37.7504         19.2504
 -25344564.71247 -19727044.06746  20808212.7894   20808205.9614
        47.2504         38.0004
 -16646896.62047 -12960653.41245  22632427.0784   22632417.3794
        45.0004         33.5004
 -12645812.86447  -9841115.14746  23094821.9304   23094816.3834
        42.5004         41.0004
  -7063054.36247  -6366196.71446  23529224.1644   23529216.5394
        42.5004         38.2504
 -20208844.84747 -15723644.83848  21088444.9304   21088440.4494
        47.5004         49.5004
  -3675563.580 5                  24571396.008
        35.500
   -438051.89455   -269774.39053  25473589.7974   25473581.9844
        31.0004         20.0004
 -21324637.15747 -16600911.59248  21125533.8364   21125529.0784
        47.5004         50.7504
 20  5  5  0 11  0.0000000  0 10G16G 6G 4G22G 9G31G26G14G 7G 3
 -22814308.67947 -17550720.16346  20739062.8284   20739055.3524
        47.2504         38.0004
  -1323524.28246  -1034803.53543  25174496.2034   25174492.0234
        37.7504         21.0004
 -25389715.10147 -19762226.19646  20799620.8204   20799614.2584
        46.5004         37.5004
 -16557482.85547 -12890980.36745  22649442.1414   22649432.0004
        45.0004         32.0004
 -12733742.49847  -9909631.72946  23078089.5004   23078084.0394
        42.5004         40.5004
  -6969869.38447  -6293585.09846  23546957.2344   23546949.2034
        42.5004         38.0004
 -20175571.62247 -15697717.66048  21094777.1254   21094772.2194
        47.0004         49.5004
  -3591421.21846  -2619033.52553  24587409.2584   24587402.0004
        38.5004         19.0004
   -522004.25245   -335191.83743  25457613.8594   25457606.0554
        33.5004         20.0004
 -21267230.03947 -16556178.79648  21136458.4694   21136453.6374
        47.5004         50.7504
 20  5  5  0 11 30.0000000  0 10G16G 6G 4G22G 9G31G26G14G 7G 3
 -22862470.73547 -17588249.04346  20729898.2344   20729890.6174
        47.5004         37.5004
  -1311652.85445  -1025553.11143  25176755.2194   25176750.7384
        35.7504         20.2504
 -25434586.41447 -19797190.86246  20791082.1644   20791075.2704
        45.7504         37.5004
 -16467792.96747 -12821092.16345  22666509.0554   22666499.4574
        44.7504         32.5004
 -12821579.81147  -9978076.37046  23061374.8914   23061368.8094
        42.5004         41.2504
  -6876647.68347  -6220944.85446  23564696.7504   23564688.8134
        43.0004         38.5004
 -20141724.74047 -15671343.48448  21101217.4844   21101213.1374
        47.5004         49.5004
  -3507141.70645  -2553361.23943  24603445.8444   24603440.5634
        35.5004         20.7504
   -605875.72945   -400546.25443  25441654.0634   25441645.9774
        34.7504         23.7504
 -21209311.53347 -16511047.50748  21147479.8204   21147474.7934
        47.5004         50.7504
 20  5  5  0 12  0.0000000  0 10G16G 6G 4G22G 9G31G26G14G 7G 3
 -22910014.12748 -17625295.84746  20720850.9224   20720843.2074
        48.2504         38.0004
  -1299277.00646  -1015909.64143  25179110.8054   25179105.6884
        38.0004         18.2504
 -25479177.46347 -19831937.14746  20782596.7974   20782589.7894
        47.5004         37.7504
 -16377829.66247 -12750990.90645  22683629.1724   22683618.9384
        45.0004         32.5004
 -12909323.68846 -10046448.22647  23044677.4064   23044672.4614
        41.7504         42.0004
  -6783390.67547  -6148277.09844  23582442.2424   23582434.8954
        42.5004         29.7504
 -20107305.94847 -15644523.65348  21107767.3754   21107762.7234
        46.7504         49.5004
  -3422725.82145  -2487582.77642  24619510.1724   24619504.6844
        34.5004         16.7504
   -689666.52145   -465837.79444  25425708.9454   25425701.0314
        35.7504         28.0004
 -21150883.80547 -16465519.42848  21158598.3674   21158593.3794
        47.7504         50.5004
 20  5  5  0 12 30.0000000  0 10G16G 6G 4G22G 9G31G26G14G 7G 3
 -22956936.94647 -17661859.08846  20711921.8524   20711913.7854
        47.7504         38.0004
  -1286397.66746  -1005873.82444  25181560.9224   25181556.6484
        38.2504         27.0004
 -25523486.68747 -19866463.81546  20774164.7894   20774157.8364
        46.7504         37.5004
 -16287595.89947 -12680678.90745  22700799.8914   22700789.4924
        44.5004         32.7504
 -12996972.53247 -10114746.01547  23027998.5394   23027993.1484
        42.5004         42.7504
  -6690099.50547  -6075582.74744  23600195.2664   23600188.1644
        42.0004         28.5004
 -20072316.56447 -15617259.21648  21114425.6334   21114421.0474
        47.5004         49.5004
  -3338174.00545  -2421698.40642  24635599.7584   24635594.5594
        32.2504         13.7504
   -773376.34346   -531066.24544  25409779.7894   25409771.8674
        37.5004         28.7504
 -21091948.50147 -16419595.83348  21169813.5314   21169808.1684
        47.2504         50.2504
 20  5  5  0 13  0.0000000  0 10G16G 6G 4G22G 9G31G26G14G 7G 3
 -23003237.76748 -17697937.66246  20703111.6564   20703103.4614
        48.0004         38.5004
  -1273016.11546   -995446.66344  25184106.6174   25184103.7584
        36.2504         26.0004
 -25567512.87347 -19900769.94146  20765787.2734   20765780.6294
        46.7504         38.0004
 -16197094.21747 -12610158.15245  22718021.5474   22718011.9104
        45.0004         32.5004
 -13084525.19647 -10182968.87547  23011337.4384   23011332.4344
        42.7504         42.5004
  -6596775.74147  -6002862.98844  23617953.8524   23617947.0984
        42.0004         27.2504
 -20036758.34247 -15589551.52348  21121192.0634   21121187.6374
        47.0004         49.5004
  -3253486.93046  -2355708.42542  24651715.7194   24651710.4844
        36.7504         14.7504
   -857004.98446   -596231.43145  25393865.2584   25393857.8634
        38.5004         31.2504
 -21032507.78947 -16373278.39948  21181123.8754   21181119.3794
        47.5004         50.2504
 20  5  5  0 13 30.0000000  0 10G16G 6G 4G22G 9G31G26G14G 7G 3
 -23048915.26048 -17733530.52846  20694418.8444   20694411.3524
        48.5004         37.7504
  -1259133.86846   -984629.37845  25186749.7344   25186744.6604
        37.7504         30.2504
 -25611254.93847 -19934854.68046  20757463.4534   20757456.4884
        46.5004         37.7504
 -16106326.74947 -12539430.27245  22735293.8364   22735284.1724
        44.7504         32.7504
 -13171980.66046 -10251115.98346  22994694.7344   22994690.5784
        41.7504         41.7504
  -6503421.09547  -5930119.16344  23635719.4304   23635711.9454
        42.7504         28.2504
 -20000633.16347 -15561402.04448  21128066.2814   21128061.8094
        47.5004         49.5004
  -3168665.13745  -2289613.49543  24667856.2274   24667850.7304
        35.7504         18.5004
   -940552.49346   -661333.40845  25377966.6484   25377959.4804
        38.2504         31.7504
 -20972563.99547 -16326568.97348  21192531.0554   21192526.4494
        47.2504         50.0004
 20  5  5  0 14  0.0000000  0 10G16G 6G 4G22G 9G31G26G14G 7G 3
 -23093967.09248 -17768635.86046  20685846.0554   20685838.1484
        49.0004         38.0004
  -1244751.41446   -973422.27745  25189485.2274   25189481.4454
        37.5004         30.2504
 -25654710.82847 -19968716.42546  20749193.7734   20749186.8914
        47.5004         37.5004
 -16015295.52747 -12468496.88545  22752616.7114   22752606.8674
        44.5004         32.0004
 -13259336.85147 -10319185.72846  22978071.6564   22978066.6294
        42.0004         41.2504
  -6410035.80447  -5857351.45344  23653489.8134   23653482.3014
        42.5004         28.5004
 -19963941.91347 -15532811.47248  21135048.5704   21135044.4304
        47.7504         49.5004
  -3083708.15545  -2223413.42642  24684023.0314   24684017.9734
        34.2504         16.2504
  -1024017.64246   -726371.20545  25362083.5164   25362076.3554
        37.5004         31.2504
 -20912118.30247 -16279468.44648  21204034.1094   21204028.8164
        47.5004         50.0004
 20  5  5  0 14 30.0000000  0 10G16G 6G 4G22G 9G31G26G14G 7G 3
 -23138391.56548 -17803252.33946  20677392.1414   20677384.5554
        48.7504         39.0004
  -1229869.78546   -961826.26445  25192317.7974   25192314.0204
        37.5004         31.2504
 -25697879.12547 -20002354.05846  20740978.9694   20740972.2894
        47.0004         38.0004
 -15924003.46447 -12397360.25045  22769988.5314   22769979.1804
        44.7504         31.5004
 -13346592.36547 -10387177.01446  22961468.7974   22961461.9924
        43.0004         41.5004
  -6316621.25747  -5784560.95244  23671265.6024   23671258.8094
        42.0004         28.5004
 -19926686.18847 -15503781.04648  21142138.4694   21142134.1294
        47.5004         49.5004
  -2998617.14946  -2157108.85942  24700214.8594   24700210.2774
        36.0004         17.7504
  -1107400.21946   -791344.64244  25346216.8834   25346209.0704
        37.0004         29.2504
 -20851172.76247 -16231978.43748  21215631.5864   21215626.1994
        47.5004         50.0004
 20  5  5  0 15  0.0000000  0 10G16G 6G 4G22G 9G31G26G14G 7G 3
 -23182187.61347 -17837379.12746  20669058.1334   20669050.7384
        47.7504         38.0004
  -1214490.72646   -949842.60845  25195244.0394   25195240.0354
        36.5004         30.7504
 -25740758.79047 -20035766.79446  20732819.3674   20732812.7034
        47.2504         38.0004
 -15832453.37747 -12326022.53545  22787410.3914   22787400.7894
        45.0004         32.7504
 -13433746.12047 -10455089.03347  22944883.5784   22944877.2734
        43.0004         42.0004
  -6223179.08246  -5711748.91844  23689047.1804   23689040.1294
        41.7504         28.0004
 -19888867.93148 -15474312.28648  21149334.8834   21149330.1484
        48.7504         49.5004
  -2913392.60746  -2090700.22342  24716433.4614   24716427.8874
        38.0004         16.7504
  -1190700.52746   -856253.96444  25330365.1954   25330357.5824
        36.5004         27.7504
 -20789729.63347 -16184100.68648  21227323.6724   21227318.7624
        47.2504         50.0004
 20  5  5  0 15 30.0000000  0 10G16G 6G 4G22G 9G31G26G14G 7G 3
 -23225353.71448 -17871015.05546  20660844.0554   20660836.2344
        48.0004         38.7504
  -1198615.25246   -937472.13145  25198264.9844   25198261.0234
        36.5004         30.2504
 -25783348.33747 -20068953.46046  20724714.8984   20724708.2894
        46.7504         38.2504
 -15740647.86847 -12254485.80145  22804880.3134   22804870.6484
        45.0004         32.2504
 -13520796.69347 -10522920.64646  22928318.4534   22928312.3054
        43.0004         41.5004
  -6129710.68847  -5638916.48244  23706834.7424   23706826.1294
        42.0004         27.5004
 -19850488.76848 -15444406.45948  21156638.0554   21156633.5514
        48.7504         49.5004
  -2828035.04346  -2024187.78742  24732676.9774   24732671.0164
        38.5004         16.2504
  -1273917.55046   -921098.40644  25314529.7274   25314522.1524
        37.0004         29.2504
 -20727790.97147 -16135836.81148  21239110.0784   21239105.2734
        46.7504         50.0004
 20  5  5  0 16  0.0000000  0 10G16G 6G 4G22G 9G31G26G14G 7G 3
 -23267887.76448 -17904158.47346  20652750.1334   20652742.0274
        48.7504         38.7504
  -1182244.21645   -924715.56245  25201380.5704   25201376.7234
        35.7504         31.2504
 -25825645.98147 -20101912.67946  20716666.1254   20716659.5234
        47.2504         38.2504
 -15648589.03047 -12182751.67045  22822398.4924   22822388.8674
        44.2504         32.0004
 -13607742.29647 -10590670.46047  22911773.4304   22911766.9884
        43.7504         42.2504
  -6036216.53347  -5566063.92344  23724625.2974   23724618.2504
        42.7504         27.5004
 -19811549.97847 -15414064.55948  21164047.9304   21164043.3984
        47.0004         49.2504
  -2742544.68145  -1957571.89542  24748944.1484   24748938.6094
        35.0004         16.2504
  -1357050.89746   -985877.67945  25298710.6804   25298702.8094
        38.2504         30.0004
 -20665358.40047 -16087188.07348  21250990.5944   21250985.4844
        47.0004         50.0004
 20  5  5  0 16 30.0000000  0  9G16G 6G 4G22G 9G31G26G 7G 3
 -23309787.64548 -17936807.74346  20644776.6564   20644769.2154
        48.0004         38.7504
  -1165378.36245   -911573.37045  25204590.6254   25204585.9224
        35.7504         30.0004
 -25867649.71547 -20134642.87646  20708673.0004   20708666.3014
        47.5004         38.7504
 -15556278.80747 -12110821.65445  22839965.0314   22839955.1684
        45.0004         32.0004
 -13694580.84247 -10658336.85847  22895248.3594   22895242.6174
        43.7504         42.5004
  -5942697.18747  -5493191.74144  23742420.8054   23742413.7304
        42.0004         27.0004
 -19772052.61848 -15383287.41148  21171564.0234   21171559.3524
        48.2504         49.2504
  -1440099.80746  -1050591.14645  25282906.4534   25282898.4344
        37.7504         30.0004
 -20602433.31947 -16038155.55648  21262964.7194   21262960.3014
        47.0004         50.0004
 20  5  5  0 17  0.0000000  0 10G16G 6G 4G22G 9G31G26G14G 7G 3
 -23351055.32647 -17968964.38246  20636923.5394   20636916.0234
        47.5004         37.7504
  -1148022.39846   -898049.27745  25207893.0784   25207888.7584
        36.7504         31.0004
 -25909361.54347 -20167145.60146  20700735.3284   20700728.7814
        46.2504         38.2504
 -15463723.39247 -12038700.57945  22857577.1174   22857568.0824
        44.5004         32.2504
 -13781314.38647 -10725921.43347  22878742.9144   22878737.6414
        43.0004         42.5004
  -5849157.68847  -5420303.86744  23760221.5554   23760214.4184
        42.0004         26.5004
 -19732001.78747 -15352078.98148  21179185.2114   21179180.7344
        47.0004         49.0004
  28937231.27755  22628353.58153  24781556.7734   24781548.7034
        35.0004         20.2504
  -1523067.32946  -1115241.17244  25267118.2424   25267110.4224
        36.7504         29.7504
 -20539021.23447 -15988743.56348  21275031.7504   21275027.2074
        47.0004         50.0004
 20  5  5  0 17 30.0000000  0 10G16G 6G 4G22G 9G31G26G14G 7G 3
 -23391684.09948 -18000623.16546  20629192.5084   20629184.6454
        48.2504         38.7504
  -1130172.07346   -884139.98445  25211290.2194   25211285.4964
        36.7504         32.0004
 -25950774.61947 -20199415.54046  20692854.6954   20692848.0984
        47.0004         38.0004
 -15370919.60347 -11966385.97245  22875237.4774   22875227.5554
        44.2504         31.7504
 -13867935.98747 -10793418.77647  22862260.1484   22862254.0004
        43.7504         42.7504
  -5755593.37147  -5347396.67144  23778026.3834   23778018.7814
        42.7504         27.0004
 -19691393.75847 -15320436.38148  21186912.5944   21186908.1374
        47.5004         49.0004
  29023117.66846  22695277.95143  24797899.8134   24797894.0784
        37.0004         18.5004
  -1605947.47846  -1179823.11344  25251346.5314   25251338.7194
        37.0004         29.0004
 -20475118.79547 -15938949.46448  21287192.0084   21287187.3244
        47.0004         50.0004
 20  5  5  0 18  0.0000000  0 10G16G 6G 4G22G 9G31G26G14G 7G 3
 -23431675.79648 -18031785.53746  20621582.4534   20621574.3554
        48.0004         38.7504
  -1111832.08646   -869849.13245  25214779.4694   25214775.2704
        37.2504         31.2504
 -25991890.89447 -20231454.20246  20685030.4064   20685024.0514
        47.0004         38.5004
 -15277873.37547 -11893882.44445  22892944.0634   22892934.2304
        44.5004         31.5004
 -13954447.55947 -10860830.39747  22845797.4614   22845791.1374
        43.5004         42.2504
  -5662008.67847  -5274473.58544  23795834.7734   23795827.7504
        43.0004         26.7504
 -19650233.61447 -15288363.55648  21194745.3204   21194740.9494
        47.0004         48.7504
  29109134.46245  22762303.94242  24814267.7424   24814262.7584
        34.7504         16.7504
  -1688743.55546  -1244339.58344  25235591.1724   25235583.6524
        38.0004         28.0004
 -20410731.46047 -15888777.53848  21299445.0944   21299440.0234
        47.5004         50.0004
 20  5  5  0 18 30.0000000  0 10G16G 6G 4G22G 9G31G26G14G 7G 3
 -23471026.56547 -18062448.48446  20614093.7194   20614086.1604
        47.5004         38.7504
  -1093001.69946   -855176.12045  25218363.1094   25218359.2114
        37.5004         30.7504
 -26032706.57847 -20263258.64246  20677263.6564   20677256.8204
        47.5004         38.7504
 -15184585.01847 -11821190.24445  22910695.7034   22910686.3874
        44.2504         31.5004
 -14040845.31147 -10928153.31147  22829356.2584   22829350.4494
        43.0004         42.0004
  -5568402.63047  -5201533.85944  23813647.3364   23813640.2114
        42.5004         26.5004
 -19608520.78847 -15255860.07048  21202683.2584   21202678.4924
        47.5004         48.7504
                                  24830662.4694   24830657.8794
        33.2504         14.7504
  -1771452.70546  -1308788.31244  25219851.6024   25219844.2424
        37.2504         29.7504
 -20345859.00247 -15838227.59248  21311789.6414   21311784.5084
        47.0004         49.7504
 20  5  5  0 19  0.0000000  0 10G16G 6G 4G22G 9G31G26G14G 7G 3
 -23509739.65548 -18092614.53346  20606727.4614   20606719.4494
        48.2504         38.7504
  -1073686.19946   -840125.12945  25222038.7034   25222034.9224
        37.5004         30.7504
 -26073224.67247 -20294831.18546  20669553.4844   20669547.1644
        46.7504         38.5004
 -15091061.37147 -11748314.69445  22928493.1094   22928482.7664
        44.2504         31.0004
 -14127132.21947 -10995389.86847  22812936.1644   22812930.4144
        43.2504         42.0004
  -5474780.90646  -5128581.93244  23831463.2344   23831455.6844
        41.5004         25.7504
 -19566261.41247 -15222930.69448  21210724.6484   21210720.4804
        47.5004         48.7504
  29281559.14246  22825927.66653  24847080.4384   24847071.4654
        38.7504         19.2504
  -1854079.30946  -1373172.66645  25204128.3204   25204120.6484
        38.0004         30.5004
 -20280507.91247 -15787304.67848  21324225.6484   21324220.8954
        46.7504         50.0004
 20  5  5  0 19 30.0000000  0 10G16G 6G 4G22G 9G31G26G14G 7G 3
 -23547809.65647 -18122279.47546  20599482.8914   20599474.6484
        46.5004         38.5004
  -1053883.44646   -824694.45745  25225807.6334   25225803.1604
        37.0004         31.2504
 -26113439.87047 -20326167.71546  20661900.6884   20661893.7624
        45.5004         38.2504
 -14997301.39447 -11675254.99845  22946334.9694   22946325.0474
        44.5004         32.2504
 -14213302.82947 -11062535.80247  22796538.3914   22796532.7544
        43.2504         42.2504
  -5381140.70047  -5055615.55844  23849283.0784   23849274.9024
        42.2504         28.0004
 -19523453.37748 -15189573.80248  21218871.1094   21218866.3874
        48.5004         48.5004
  29367964.92046  22893256.88842  24863522.9144   24863516.9344
        38.7504         16.7504
  -1936618.70746  -1437489.10645  25188421.5084   25188414.5164
        38.5004         30.7504
 -20214676.49547 -15736007.49848  21336752.7894   21336748.1484
        47.2504         49.7504
 20  5  5  0 20  0.0000000  0 10G16G 6G 4G22G 9G31G26G14G 7G 3
 -23585236.32847 -18151443.12646  20592360.2974   20592352.5824
        47.5004         39.0004
  -1033595.72046   -808885.84945  25229667.4534   25229663.6214
        37.5004         31.0004
 -26153351.75847 -20357267.90346  20654305.3754   20654299.1804
        47.7504         38.5004
 -14903308.78847 -11602014.04245  22964221.0784   22964211.2734
        44.0004         31.2504
 -14299356.75047 -11129590.80547  22780163.0554   22780157.4064
        43.5004         42.5004
  -5287484.02247  -4982636.41344  23867105.0084   23867097.0274
        42.0004         27.0004
 -19480099.54447 -15155791.61448  21227120.7894   21227116.3484
        47.7504         48.5004
  29454499.49746  22960686.34942  24879989.2274   24879984.0354
        36.7504         17.2504
  -2019071.92446  -1501738.40445  25172731.7584   25172724.3054
        36.7504         30.0004
 -20148367.88647 -15684338.46448  21349370.9844   21349366.3014
        47.2504         49.5004
 20  5  5  0 20 30.0000000  0 10G16G 6G 4G22G 9G31G26G14G 7G 3
 -23622018.77047 -18180104.77446  20585360.6804   20585353.0984
        47.5004         39.0004
  -1012824.65545   -792700.64045  25233619.6254   25233615.9024
        35.7504         31.2504
 -26192959.09347 -20388130.76446  20646768.7424   20646761.9534
        47.5004         38.2504
 -14809086.17247 -11528593.85445  22982151.5164   22982141.1484
        44.0004         31.7504
 -14385292.63547 -11196553.83747  22763810.0554   22763804.3634
        43.7504         43.2504
  -5193812.34846  -4909645.52544  23884929.5164   23884922.6994
        41.2504         27.7504
 -19436201.90448 -15121585.67048  21235474.2814   21235469.8284
        48.2504         48.5004
  29541162.21845  23028215.69042  24896480.8524   24896475.9264
        34.5004         16.7504
  -2101438.98946  -1565920.53945  25157058.1024   25157050.4344
        38.7504         31.5004
 -20081584.47747 -15632299.47048  21362079.2504   21362074.3954
        47.5004         49.5004
 20  5  5  0 21  0.0000000  0 10G16G 6G 4G22G 9G31G26G14G 7G 3
 -23658155.04247 -18208262.91146  20578484.2974   20578476.8554
        47.0004         39.0004
   -991571.16345   -776139.49945  25237664.9694   25237660.9534
        35.5004         31.5004
 -26232260.01348 -20418754.87346  20639290.0164   20639283.3674
        48.0004         38.2504
 -14714635.47647 -11454995.93345  23000124.4534   23000114.7384
        44.5004         30.5004
 -14471108.49847 -11263423.35247  22747479.3134   22747474.0634
        43.7504         43.2504
  -5100126.19047  -4836643.39944  23902758.5394   23902750.0784
        42.0004         28.0004
 -19391761.77348 -15086957.01148  21243930.9844   21243926.4264
        48.5004         48.5004
  29627953.05845  23095844.84142  24912996.2814   24912992.3204
        33.2504         14.7504
  -2183718.83846  -1630034.71945  25141400.5704   25141392.8444
        38.2504         30.0004
 -20014327.96147 -15579891.81348  21374877.2734   21374872.6024
        47.5004         49.5004
 20  5  5  0 21 30.0000000  0 10G16G 6G 4G22G 9G31G26G14G 7G 3
 -23693642.51847 -18235915.48846  20571731.5004   20571724.2274
        47.5004         39.0004
   -969835.44146   -759202.65145  25241801.3364   25241797.2234
        36.5004         31.2504
 -26271251.68847 -20449137.99746  20631870.2664   20631863.1334
        46.7504         38.7504
 -14619958.05547 -11381221.35245  23018140.6094   23018130.9884
        43.7504         31.5004
 -14556801.52447 -11330197.13547  22731172.1254   22731167.3794
        43.7504         43.5004
  -5006425.46347  -4763629.89544  23920588.8524   23920581.3094
        42.2504         26.5004
 -19346779.68248 -15051906.04448  21252490.7974   21252486.3834
        48.2504         48.5004
                                  24929537.742
        30.750
  -2265909.63446  -1694079.52044  25125759.9304   25125751.9454
        37.5004         29.2504
 -19946599.20747 -15527116.18748  21387766.4144   21387760.8754
        46.7504         49.2504
 20  5  5  0 22  0.0000000  0 10G16G 6G 4G22G 9G31G26G14G 7G 3
 -23728485.64047 -18263065.98246  20565101.3204   20565093.3094
        47.2504         38.5004
   -947624.18246   -741895.22344  25246029.0554   25246023.7114
        38.5004         29.7504
 -26309938.02847 -20479283.21446  20624508.6644   20624501.5984
        47.2504         39.0004
 -14525061.94047 -11307276.35845  23036199.7194   23036189.3754
        44.5004         30.7504
 -14642375.45447 -11396878.11347  22714888.3054   22714883.3594
        43.0004         43.5004
  -4912716.46546  -4690609.92844  23938419.4774   23938413.5784
        41.2504         25.7504
 -19301262.77248 -15016438.33748  21261152.4304   21261148.0704
        49.0004         48.5004
  29801915.54415                  24946100.875
        33.000
  -2348016.81846  -1758059.18245  25110135.2894   25110128.2544
        39.5004         31.7504
 -19878405.70547 -15473978.40748  21400742.8914   21400737.8984
        47.7504         49.2504
 20  5  5  0 22 30.0000000  0 10G16G 6G 4G22G 9G31G26G14G 7G 3
 -23762677.38548 -18289708.90746  20558595.0784   20558587.1804
        48.0004         39.0004
   -924933.53046   -724214.19145  25250346.9224   25250341.5984
        37.5004         31.0004
 -26348312.11447 -20509185.11246  20617205.8054   20617199.2774
        47.2504         38.2504
 -14429943.97347 -11233158.48045  23054299.6254   23054289.8524
        44.5004         31.0004
 -14727823.25047 -11463460.80447  22698627.3674   22698623.5204
        43.0004         43.2504
  -4818994.83347  -4617580.14744  23956254.9774   23956248.4884
        42.0004         26.7504
 -19255207.45548 -14980551.09248  21269916.5164   21269911.8524
        48.5004         48.7504
  29889085.99845  23097328.88053  24962687.8914   24962682.5394
        34.7504         18.2504
  -2430034.59246  -1821969.10144  25094527.1954   25094520.2704
        37.5004         29.5004
 -19809744.20948 -15420475.96048  21413808.7734   21413803.6374
        48.0004         49.0004
 20  5  5  0 23  0.0000000  0 10G16G 6G 4G22G 9G31G26G14G 7G 3
 -23796218.53148 -18315844.87446  20552212.0554   20552204.2154
        48.7504         38.7504
   -901766.55646   -706162.04445  25254754.5164   25254750.4384
        36.5004         30.5004
 -26386374.22947 -20538843.91546  20609963.3594   20609956.3634
        47.5004         38.2504
 -14334608.68847 -11158871.26645  23072441.4304   23072431.4884
        43.5004         30.7504
 -14813145.21647 -11529945.42747  22682392.3284   22682386.6914
        44.5004         43.0004
  -4725263.20347  -4544542.56544  23974091.4224   23974085.0044
        42.0004         27.0004
 -19208617.41748 -14944247.17448  21278782.4694   21278777.9774
        48.2504         48.5004
  29976381.93446  23165351.63342  24979300.8204   24979295.3164
        37.0004         17.7504
  -2511964.64646  -1885810.78544  25078937.6884   25078929.9804
        39.0004         29.7504
 -19740618.77047 -15366612.00548  21426963.0394   21426958.3164
        47.5004         49.0004
 20  5  5  0 23 30.0000000  0 10G16G 6G 4G22G 9G31G26G14G 7G 3
 -23829107.80147 -18341472.87846  20545953.5704   20545945.6334
        47.5004         38.5004
   -878124.66546   -687739.85045  25259253.3594   25259249.4924
        36.7504         30.2504
 -26424122.77847 -20568258.37446  20602779.5784   20602773.1054
        47.5004         38.5004
 -14239058.64147 -11084416.72245  23090624.8524   23090614.4344
        44.0004         31.0004
 -14898339.50747 -11596330.58947  22666180.0554   22666174.6994
        43.7504         43.5004
  -4631522.55246  -4471497.97844  23991930.0164   23991923.1524
        41.0004         25.7504
 -19161494.32047 -14907527.88748  21287749.2584   21287744.8524
        47.7504         48.2504
  30063803.22946  23233472.06343  24995937.0554   24995930.4694
        37.5004         18.5004
  -2593806.05146  -1949583.28145  25063363.3594   25063356.4694
        38.2504         31.5004
 -19671031.34747 -15312388.05648  21440204.9384   21440200.3954
        47.7504         49.2504
 20  5  5  0 24  0.0000000  0 10G16G 6G 4G22G 9G31G26G14G 7G 3
 -23861344.40047 -18366592.31546  20539819.0554   20539811.2194
        47.7504         39.0004
   -854010.03945   -668949.23644  25263841.3754   25263838.3244
        34.2504         29.5004
 -26461556.82047 -20597427.76946  20595656.7034   20595649.5164
        47.5004         38.0004
 -14143296.84647 -11009797.17845  23108846.8914   23108837.6764
        44.0004         31.0004
 -14983405.12147 -11662615.47747  22649992.5634   22649987.0594
        44.2504         42.7504
  -4537774.37847  -4398447.51344  24009770.5084   24009762.4884
        42.0004         25.5004
 -19113840.59548 -14870395.13148  21296817.5394   21296813.1994
        48.0004         48.0004
  30151348.72945  23301689.26342  25012595.5944   25012590.5634
        34.2504         16.7504
  -2675558.49046  -2013286.53045  25047806.3914   25047798.6374
        39.0004         32.0004
 -19600984.80447 -15257806.35348  21453534.6484   21453529.9344
        47.7504         49.5004
 20  5  5  0 24 30.0000000  0 10G16G 6G 4G22G 9G31G26G14G 7G 3
 -23892926.77347 -18391201.96246  20533808.9384   20533800.9734
        46.5004         38.5004
   -829423.40045   -649790.86544  25268520.5084   25268517.2704
        34.7504         29.7504
 -26498674.29047 -20626350.49346  20588593.1254   20588586.4574
        47.5004         39.0004
 -14047325.22147 -10935014.12645  23127109.6484   23127100.2544
        44.5004         31.5004
 -15068339.84547 -11728798.38547  22633829.7894   22633824.5554
        44.5004         43.0004
  -4444019.36646  -4325391.73544  24027610.8754   24027603.8484
        41.0004         25.0004
 -19065657.57848 -14832849.94148  21305986.6884   21305982.2934
        48.0004         48.2504
  30239018.13445  23370002.96342  25029278.9694   25029274.2074
        32.0004         14.7504
  -2757221.96946  -2076920.44045  25032266.6174   25032259.0164
        38.5004         31.7504
 -19530480.73847 -15202868.14148  21466950.7664   21466946.4264
        47.7504         49.0004
 20  5  5  0 25  0.0000000  0 10G16G 6G 4G22G 9G31G26G14G 7G 3
 -23923854.41847 -18415301.43746  20527924.2194   20527915.8874
        47.7504         38.7504
   -804366.73146   -630266.25945  25273289.9844   25273285.2194
        37.7504         31.7504
 -26535474.00447 -20655025.60346  20581590.6024   20581583.5944
        46.7504         38.2504
 -13951146.50447 -10860069.70645  23145412.0314   23145402.1884
        44.0004         31.5004
 -15153142.36147 -11794878.27347  22617693.0004   22617687.0864
        44.5004         43.7504
  -4350258.55346  -4252331.39044  24045453.3984   24045445.7464
        41.2504         25.2504
 -19016947.46947 -14794894.02448  21315255.7344   21315251.2424
        47.7504         48.2504
  30326810.87245  23438412.88142  25045985.3054   25045980.8794
        34.5004         17.2504
  -2838796.56446  -2140485.09245  25016743.2424   25016735.5594
        38.5004         30.7504
 -19459521.73747 -15147575.44148  21480453.8984   21480449.3674
        46.5004         48.7504
 20  5  5  0 25 30.0000000  0 10G16G 6G 4G22G 9G31G26G14G 7G 3
 -23954125.81847 -18438889.54446  20522163.3914   20522155.2974
        47.5004         38.7504
   -778841.64646   -610376.59345  25278145.8984   25278143.2424
        36.5004         30.2504
 -26571954.56447 -20683452.02146  20574648.5394   20574641.7734
        47.0004         38.7504
 -13854763.38747 -10784966.01045  23163753.2664   23163743.2624
        43.5004         30.7504
 -15237811.15347 -11860853.95547  22601580.3204   22601575.5124
        43.7504         43.7504
  -4256493.12146  -4179267.48044  24063296.3284   24063288.6414
        41.5004         26.0004
 -18967712.28847 -14756528.97348  21324625.0234   21324620.3984
        47.5004         48.5004
  30414726.33445  23506918.33142  25062715.9144   25062710.3404
        34.7504         16.7504
  -2920281.42446  -2203979.83745  25001237.3134   25001229.9024
        38.7504         32.0004
 -19388110.13647 -15091930.06548  21494043.1564   21494038.3164
        47.0004         48.7504
 20  5  5  0 26  0.0000000  0 10G16G 6G 4G22G 9G31G26G14G 7G 3
 -23983740.20347 -18461965.69246  20516528.1024   20516520.3484
        47.2504         38.5004
   -752849.69545   -590123.15345  25283092.3444   25283088.2774
        35.7504         30.5004
 -26608114.46547 -20711628.59446  20567767.3984   20567760.7584
        46.5004         39.0004
 -13758178.46347 -10709705.06145  23182132.0704   23182122.7894
        43.7504         30.0004
 -15322344.57547 -11926724.13847  22585494.6174   22585489.6094
        44.0004         43.7504
  -4162724.17947  -4106200.81444  24081140.9614   24081131.9614
        42.5004         25.7504
 -18917953.96747 -14717756.26848  21334093.7814   21334089.1374
        47.7504         48.0004
  30502763.95145  23575519.07142  25079468.5704   25079463.7074
        34.0004         16.2504
  -3001676.93846  -2267404.92545  24985747.9694   24985740.9304
        37.2504         30.7504
 -19316248.23647 -15035933.79948  21507718.5164   21507713.6564
        47.7504         49.0004
 20  5  5  0 26 30.0000000  0 10G16G 6G 4G22G 9G31G26G14G 7G 3
 -24012693.73647 -18484526.89246  20511018.3204   20511010.4734
        47.7504         38.5004
   -726389.39945   -569504.76445  25288128.0394   25288123.5434
        35.7504         30.5004
 -26643949.19047 -20739551.77046  20560948.1724   20560941.6374
        46.2504         39.0004
 -13661391.48447 -10634286.66544  23200550.4384   23200540.4734
        43.7504         29.2504
 -15406737.85647 -11992485.12447  22569435.4224   22569429.9024
        44.0004         44.0004
  -4068949.37846  -4033129.59944  24098984.6174   24098977.0904
        41.5004         24.2504
 -18867671.35348 -14678575.03448  21343662.5084   21343657.8984
        48.0004         48.2504
                                  25096244.242
        27.250
  -3082979.12346  -2330757.31645  24970277.3914   24970269.3874
        38.5004         31.7504
 -19243935.20247 -14979586.00448  21521478.4384   21521473.8674
        47.7504         49.0004
 20  5  5  0 27  0.0000000  0 10G16G 6G 4G22G 9G31G26G14G 7G 3
 -24040994.27447 -18506579.27146  20505632.8134   20505625.1954
        47.2504         39.0004
   -699471.56346   -548529.85645  25293249.9774   25293245.5204
        36.7504         31.7504
 -26679466.35147 -20767227.49346  20554189.4534   20554183.0084
        46.7504         39.0004
 -13564413.96847 -10558719.79744  23219004.1484   23218994.8054
        43.5004         28.5004
 -15490998.52047 -12058142.77547  22553400.7814   22553396.0124
        44.2504         44.2504
  -3975178.69746  -3960061.57643  24116828.8524   24116821.8714
        41.2504         23.7504
 -18816875.60847 -14638993.95548  21353328.5234   21353324.1134
        47.7504         48.0004
  30679204.47915                  25113045.023
        30.250
  -3164196.70546  -2394043.73345  24954821.4694   24954814.3054
        37.2504         30.7504
 -19171182.51847 -14922895.62748  21535323.2814   21535318.1604
        47.7504         48.7504
 20  5  5  0 27 30.0000000  0 10G16G 6G 4G22G 9G31G26G14G 7G 3
 -24068632.11347 -18528115.25246  20500373.7894   20500365.7974
        47.0004         39.0004
   -672088.89146   -527192.73845  25298461.0084   25298456.7934
        37.5004         31.2504
 -26714655.68047 -20794647.76846  20547493.4144   20547486.6644
        46.0004         39.2504
 -13467239.75447 -10482999.67245  23237496.1954   23237486.6764
        43.7504         30.0004
 -15575116.11747 -12123688.96647  22537393.9614   22537388.5904
        44.2504         44.7504
  -3881404.38746  -3886990.73544  24134672.8594   24134666.1914
        41.2504         24.0004
 -18765559.89347 -14599007.70648  21363093.2274   21363088.9534
        47.0004         48.2504
  30767605.31215                  25129867.039
        34.250
  -3245321.04246  -2457257.54845  24939383.9144   24939376.5634
        38.7504         31.0004
 -19097983.70547 -14865857.61948  21549252.3204   21549247.7034
        47.2504         48.5004
 20  5  5  0 28  0.0000000  0 11G16G 6G27G 4G22G 9G31G26G14G 7G 3
 -24095609.29047 -18549136.42946  20495239.9534   20495232.1764
        47.0004         38.7504
   -644246.11245   -505497.07745  25303758.2814   25303755.3404
        35.2504         30.0004
    -73306.03955    -35808.79854  25104203.6484   25104199.3484
        35.0004         26.0004
 -26749518.64547 -20821813.72746  20540859.1724   20540852.3834
        46.2504         38.7504
 -13369874.07847 -10407130.34545  23256024.7664   23256014.6414
        43.5004         30.0004
 -15659091.91247 -12189124.65847  22521414.4224   22521408.2194
        45.0004         44.2504
  -3787630.56546  -3813920.29344  24152518.5864   24152510.7854
        41.5004         26.0004
 -18713729.11947 -14558620.10548  21372956.6254   21372952.0664
        47.7504         48.2504
  30856125.90345  23543624.84953  25146710.4454   25146704.2814
        33.5004         19.7504
  -3326354.25346  -2520400.30445  24923964.0164   24923956.9774
        38.2504         32.2504
 -19024344.01148 -14808476.05948  21563265.8134   21563260.8284
        48.0004         48.5004
 20  5  5  0 28 30.0000000  0 11G16G 6G27G 4G22G 9G31G26G14G 7G 3
 -24121925.60347 -18569642.66146  20490231.9614   20490224.3094
        46.5004         39.0004
   -615945.29746   -483444.53545  25309144.4924   25309140.8324
        37.0004         31.7504
   -169107.25446   -110459.10445  25085973.6174   25085969.2504
        37.5004         30.5004
 -26784054.23347 -20848724.58646  20534286.8134   20534280.5234
        46.0004         39.2504
 -13272320.15147 -10331114.32844  23274588.7034   23274578.8134
        44.0004         29.5004
 -15742924.71147 -12254448.91747  22505461.0474   22505455.6914
        44.5004         44.2504
  -3693858.47446  -3740851.19244  24170362.6094   24170355.3554
        41.5004         24.0004
 -18661385.85647 -14517833.16948  21382916.8674   21382912.4534
        47.7504         48.0004
  30944765.22146  23612694.36442  25163578.0634   25163572.3794
        36.2504         16.7504
  -3407296.91746  -2583472.54645  24908560.6334   24908554.2304
        38.0004         31.0004
 -18950266.30947 -14750753.19348  21577362.1804   21577357.5944
        47.2504         48.5004
 20  5  5  0 29  0.0000000  0 10G16G 6G27G 4G22G 9G31G26G 7G 3
 -24147577.01347 -18589630.77046  20485350.7424   20485343.0824
        46.7504         39.0004
   -587185.03646   -461033.95545  25314617.1094   25314613.7894
        37.0004         31.0004
   -264942.27746   -185135.83844  25067735.7974   25067731.4024
        37.0004         27.0004
 -26818257.82247 -20875376.75146  20527778.3054   20527771.7464
        46.2504         39.5004
 -13174577.53347 -10254951.28144  23293188.7344   23293178.7544
        44.0004         29.0004
 -15826609.73347 -12319658.03447  22489536.2664   22489530.8244
        44.0004         44.5004
  -3600085.82047  -3667781.64844  24188207.3134   24188199.7734
        42.2504         26.5004
 -18608528.92847 -14476645.96548  21392975.4454   21392971.2114
        47.5004         48.0004
  -3488145.85946  -2646471.74745  24893176.5864   24893169.3204
        39.0004         32.7504
 -18875749.81447 -14692688.41348  21591542.0784   21591537.5904
        47.5004         48.5004
 20  5  5  0 29 30.0000000  0 10G16G 6G27G 4G22G 9G31G26G 7G 3
 -24172567.63047 -18609103.99446  20480595.0784   20480587.9144
        46.5004         39.0004
   -557972.02246   -438270.59645  25320176.2504   25320172.7154
        37.5004         32.2504
   -360812.71346   -259840.18445  25049493.3674   25049489.0204
        39.7504         31.2504
 -26852132.88147 -20901772.91846  20521332.0164   20521325.9494
        46.2504         39.2504
 -13076653.72547 -10178647.06444  23311822.3284   23311812.9574
        43.2504         29.7504
 -15910150.11547 -12384754.44647  22473638.6334   22473633.6094
        44.0004         44.5004
  -3506318.56646  -3594716.30944  24206050.4924   24206042.9774
        41.2504         27.0004
 -18555165.34147 -14435063.96648  21403130.3984   21403126.2384
        47.2504         48.2504
  -3568904.82546  -2709400.83445  24877808.6954   24877801.2034
        38.7504         31.5004
 -18800801.78947 -14634287.38648  21605804.4144   21605799.9804
        47.5004         48.5004
 20  5  5  0 30  0.0000000  0 10G16G 6G27G 4G22G 9G31G26G 7G 3
 -24196894.44447 -18628059.95246  20475966.0704   20475958.1954
        46.7504         39.2504
   -528305.65946   -415153.97645  25325822.8674   25325818.0084
        36.5004         30.5004
   -456713.32346   -334567.94945  25031243.5474   25031239.4494
        39.0004         31.2504
 -26885675.68047 -20927910.17646  20514949.1644   20514942.9924
        46.2504         39.0004
 -12978548.97047 -10102201.82244  23330491.0164   23330481.4104
        42.7504         29.5004
 -15993542.05147 -12449735.16047  22457770.1334   22457765.0044
        45.0004         44.5004
  -3412555.38646  -3521654.14844  24223892.0554   24223885.5664
        39.7504         24.7504
 -18501294.94347 -14393087.05448  21413381.4924   21413377.1644
        47.0004         48.0004
  -3649572.11846  -2772258.50045  24862458.1334   24862450.8634
        38.5004         31.5004
 -18725422.42547 -14575550.24348  21620148.6564   21620143.8444
        47.7504         48.2504
 20  5  5  0 30 30.0000000  0 10G16G 6G27G 4G22G 9G31G26G 7G 3
 -24220556.23447 -18646497.72046  20471463.2274   20471455.6054
        47.0004         38.7504
   -498187.42446   -391685.24345  25331553.1254   25331549.3054
        37.7504         32.5004
   -552640.88346   -409316.67745  25012989.4774   25012985.6094
        36.0004         31.0004
 -26918884.56147 -20953787.24446  20508630.0864   20508623.4184
        46.2504         39.0004
 -12880265.55547 -10025617.39044  23349193.9844   23349184.1724
        43.2504         29.5004
 -16076783.60847 -12514598.71647  22441929.2814   22441924.2304
        44.7504         44.5004
  -3318796.97146  -3448595.70044  24241734.5394   24241726.7934
        41.0004         25.2504
 -18446919.52947 -14350716.62748  21423728.7504   21423724.8524
        46.5004         48.0004
  -3730146.78346  -2835043.99545  24847125.5234   24847117.5004
        39.0004         31.7504
 -18649613.89847 -14516478.68248  21634574.4844   21634570.1994
        47.5004         48.2504
 20  5  5  0 31  0.0000000  0 10G16G 6G27G 4G22G 9G31G26G 7G 3
 -24243552.95047 -18664417.24246  20467087.4774   20467079.7384
        47.2504         39.2504
   -467619.50646   -367866.11645  25337370.8524   25337365.9184
        37.7504         32.5004
   -648592.42746   -484084.14345  24994730.2194   24994726.1914
        38.7504         33.2504
 -26951758.33347 -20979403.19146  20502374.0314   20502367.6884
        46.0004         38.5004
 -12781806.41847  -9948896.02044  23367930.4534   23367920.0744
        43.5004         29.2504
 -16159873.28647 -12579343.92047  22426117.7584   22426112.9654
        45.0004         45.0004
  -3225044.44446  -3375541.82644  24259574.5084   24259567.6764
        40.2504         25.2504
 -18392041.55747 -14307954.58748  21434172.0234   21434167.5984
        47.0004         48.0004
  -3810628.98746  -2897757.41745  24831810.5784   24831802.6254
        39.0004         30.7504
 -18573378.93748 -14457074.84448  21649081.8674   21649077.2814
        48.0004         48.2504
 20  5  5  0 31 30.0000000  0 10G16G 6G27G 4G22G 9G31G26G 7G 3
 -24265884.03847 -18681818.08946  20462837.7664   20462829.9064
        47.0004         39.7504
   -436603.83646   -343698.06645  25343272.7974   25343268.0904
        37.2504         30.0004
   -744565.01046   -558868.04645  24976467.3674   24976463.5514
        37.5004         32.7504
 -26984295.70447 -21004757.01846  20496182.7034   20496176.6294
        45.7504         40.0004
 -12683174.73347  -9872040.19244  23386699.6024   23386689.1684
        43.5004         28.5004
 -16242809.65547 -12643969.65447  22410336.5234   22410330.6564
        44.5004         45.2504
  -3131298.76346  -3302493.32944  24277414.8054   24277407.4614
        40.7504         24.5004
 -18336663.27847 -14264802.68647  21444709.4384   21444705.6844
        46.2504         47.5004
  -3891019.04246  -2960399.04445  24816512.4534   24816505.1294
        39.0004         31.7504
 -18496720.11148 -14397340.71948  21663669.4454   21663664.7734
        48.0004         48.0004
 20  5  5  0 32  0.0000000  0 10G16G 6G27G 4G22G 9G31G26G 7G 3
 -24287548.46347 -18698699.46446  20458715.2894   20458707.5704
        47.5004         39.5004
   -405142.04546   -319182.40244  25349258.6724   25349254.9454
        36.0004         29.7504
   -840555.52845   -633665.80045  24958201.0474   24958197.3754
        35.0004         31.7504
 -27016495.03847 -21029847.41346  20490055.3054   20490048.7624
        46.2504         39.0004
 -12584372.18547  -9795051.20444  23405500.4614   23405490.8444
        43.2504         28.7504
 -16325590.77147 -12708474.43147  22394583.2814   22394578.0554
        44.7504         45.2504
  -3037560.82646  -3229450.79044  24295250.6644   24295244.3164
        41.2504         24.0004
 -18280786.66347 -14221262.48347  21455342.6564   21455338.1724
        46.0004         47.5004
  -3971315.68346  -3022967.89845  24801231.3754   24801224.8794
        38.2504         32.0004
 -18419639.77348 -14337278.14247  21678337.2274   21678332.5514
        48.0004         47.7504
 20  5  5  0 32 30.0000000  0 10G16G 6G27G 4G22G 9G31G26G 7G 3
 -24308545.59447 -18715060.87446  20454719.5704   20454711.8244
        46.5004         39.0004
   -373235.86846   -294320.48444  25355330.9384   25355326.4574
        36.0004         29.5004
   -936560.47646   -708474.86145  24939931.9064   24939928.8444
        37.2504         34.5004
 -27048354.84447 -21054673.25346  20483992.4614   20483986.2664
        46.5004         39.5004
 -12485401.77447  -9717931.43544  23424334.9224   23424325.0004
        44.0004         28.0004
 -16408214.87547 -12772856.85347  22378860.0314   22378855.2074
        44.2504         45.0004
  -2943831.43346  -3156415.01444  24313088.4144   24313081.1484
        41.0004         25.7504
 -18224413.77547 -14177335.57447  21466070.3674   21466065.9064
        46.2504         47.2504
  -4051519.47846  -3085464.35845  24785969.3594   24785962.8754
        37.5004         32.0004
 -18342140.25647 -14276888.93147  21693085.0554   21693080.1804
        47.5004         47.7504
 20  5  5  0 33  0.0000000  0 10G16G 6G27G 4G22G 9G31G26G 7G 3
 -24328875.34847 -18730902.23946  20450850.8594   20450843.3094
        47.0004         39.0004
   -340887.51746   -269113.98744  25361486.8204   25361481.7584
        37.7504         29.2504
  -1032577.23546   -783293.14344  24921660.5164   24921655.7894
        36.0004         28.2504
 -27079874.02347 -21079233.66646  20477994.5704   20477988.1604
        46.0004         39.5004
 -12386266.66747  -9640683.32544  23443198.8284   23443189.7734
        43.0004         28.0004
 -16490680.66547 -12837115.89247  22363167.5084   22363161.9694
        44.0004         44.7504
  -2850111.85446  -3083386.78844  24330923.0164   24330914.9264
        41.2504         25.5004
 -18167547.16347 -14133023.94947  21476891.6414   21476887.1294
        46.5004         47.5004
  -4131629.93846  -3147888.12345  24770725.8594   24770718.9924
        38.7504         33.5004
 -18264224.46447 -14216175.34847  21707911.9924   21707907.3204
        47.5004         47.7504
 20  5  5  0 33 30.0000000  0 10G16G 6G27G 4G22G 9G31G26G 7G 3
 -24348536.69647 -18746222.77546  20447109.4384   20447101.5084
        46.5004         39.0004
   -308098.66346   -243564.24344  25367726.1024   25367721.8674
        37.5004         29.7504
  -1128602.42946   -858117.99845  24903387.3444   24903383.2464
        37.7504         32.0004
 -27111050.77747 -21103527.25846  20472062.1564   20472055.3714
        46.5004         39.2504
 -12286968.75647  -9563308.37944  23462094.8204   23462085.2734
        42.2504         28.7504
 -16572986.01947 -12901249.94547  22347505.3674   22347499.9144
        44.0004         44.7504
  -2756402.53946  -3010366.62044  24348754.8444   24348747.8834
        40.0004         25.0004
 -18110188.65647 -14088329.02247  21487806.3834   21487802.0634
        46.0004         47.0004
  -4211646.49846  -3210238.69545  24755499.1804   24755491.6334
        40.0004         32.7504
 -18185894.54447 -14155139.06947  21722817.6334   21722812.9384
        47.5004         47.5004
 20  5  5  0 34  0.0000000  0 10G16G 6G27G 4G22G 9G31G26G 7G 3
 -24367529.52647 -18761022.38646  20443495.3134   20443487.3094
        47.5004         39.0004
   -274871.31845   -217672.86844  25374048.4144   25374044.2504
        35.0004         27.5004
  -1224633.11846   -932947.15345  24885113.3284   24885109.7424
        38.5004         31.0004
 -27141884.05747 -21127553.19546  20466194.6724   20466188.0474
        46.7504         39.5004
 -12187511.01247  -9485808.88044  23481020.3134   23481011.7114
        42.5004         29.5004
 -16655129.59047 -12965257.93147  22331873.5394   22331868.4804
        44.5004         44.7504
  -2662704.80546  -2937355.45443  24366585.0084   24366577.5594
        40.5004         23.5004
 -18052340.80847 -14043252.79247  21498814.7974   21498810.0664
        46.0004         47.0004
  -4291569.38146  -3272516.27745  24740290.0554   24740283.2504
        39.7504         33.7504
 -18107153.36747 -14093782.32747  21737801.1174   21737796.5394
        47.0004         47.5004
 20  5  5  0 34 30.0000000  0 10G16G 6G27G 4G22G 9G31G26G 7G 3
 -24385853.26747 -18775300.63546  20440008.2664   20440000.4064
        47.5004         39.2504
   -241207.41645   -191441.28744  25380455.5314   25380451.1414
        35.5004         28.0004
  -1320666.05546  -1007778.06445  24866839.3674   24866834.3054
        39.7504         31.0004
 -27172372.21047 -21151310.21646  20460392.6954   20460385.8404
        46.5004         39.7504
 -12087896.06647  -9408186.87944  23499977.3134   23499967.7234
        42.7504         28.5004
 -16737109.46847 -13029138.35147  22316273.8364   22316268.5354
        44.5004         45.2504
  -2569019.32647  -2864353.84844  24384413.8674   24384405.1524
        42.0004         25.0004
 -17994005.67247 -13997796.85947  21509915.7894   21509911.1804
        46.5004         47.0004
  -4371398.09846  -3334720.50945  24725098.9384   24725092.0084
        39.0004         33.2504
 -18028003.26347 -14032106.94947  21752863.1024   21752858.4024
        47.2504         47.5004
 20  5  5  0 35  0.0000000  0 10G16G 6G27G 4G22G 9G31G26G 7G 3
 -24403507.55247 -18789057.22446  20436649.0164   20436641.2664
        47.7504         39.7504
   -207108.92546   -164871.05044  25386944.8134   25386940.3714
        36.2504         28.0004
  -1416698.06746  -1082608.27245  24848564.1884   24848560.3524
        38.0004         31.0004
 -27202513.93747 -21174797.29646  20454657.5004   20454650.4454
        46.7504         40.0004
 -11988126.65247  -9330444.52344  23518962.2424   23518953.6134
        42.5004         28.5004
 -16818924.02647 -13092889.97147  22300704.5394   22300699.5314
        44.2504         45.5004
  -2475346.89246  -2791362.40444  24402237.5554   24402231.0354
        40.7504         24.5004
 -17935185.50947 -13951962.98247  21521108.8444   21521103.9264
        46.2504         47.2504
  -4451132.77246  -3396851.44545  24709926.3364   24709918.6454
        39.2504         33.5004
 -17948446.85447 -13970114.97147  21768002.7734   21767997.6644
        47.2504         47.5004
 20  5  5  0 35 30.0000000  0 10G16G 6G27G 4G22G 9G31G26G 7G 3
 -24420491.70647 -18802291.62946  20433417.0394   20433408.9844
        47.5004         39.2504
   -172577.78446   -137963.68045  25393514.5634   25393511.5704
        36.7504         30.0004
  -1512726.19646  -1157435.41045  24830291.9614   24830287.0234
        39.5004         31.0004
 -27232307.83947 -21198013.34046  20448987.5314   20448980.4024
        47.7504         40.0004
 -11888205.37547  -9252583.81244  23537977.1414   23537967.3594
        42.5004         27.0004
 -16900571.56047 -13156511.41947  22285167.7814   22285162.6644
        44.2504         45.5004
  -2381688.54747  -2718381.90143  24420061.3054   24420053.5554
        42.0004         23.5004
 -17875882.62247 -13905752.95647  21532393.3284   21532389.0594
        46.2504         47.2504
  -4530773.13746  -3458908.89645  24694771.0084   24694764.4264
        40.5004         33.2504
 -17868486.73047 -13907808.40247  21783218.2584   21783213.8874
        46.7504         47.5004
 20  5  5  0 36  0.0000000  0 10G16G 6G27G 4G22G 9G31G26G 7G 3
 -24436805.22047 -18815003.47046  20430312.8594   20430304.5824
        47.7504         39.2504
   -137615.54445   -110720.44645  25400167.8674   25400164.9964
        34.5004         30.0004
  -1608746.72246  -1232256.63845  24812018.6954   24812016.2584
        37.2504         31.5004
 -27261752.09847 -21220956.92746  20443384.5864   20443377.6844
        47.2504         39.5004
 -11788134.55347  -9174606.58944  23557019.4924   23557010.0004
        42.5004         27.7504
 -16982049.93247 -13220001.05147  22269663.0944   22269658.2464
        44.5004         45.7504
  -2288044.66646  -2645412.68744  24437880.6724   24437873.1094
        41.0004         24.5004
 -17816098.86247 -13859168.22347  21543770.2974   21543765.8404
        47.0004         47.5004
  -4610318.50946  -3520892.33245  24679634.7734   24679627.1134
        39.7504         33.5004
 -17788125.11947 -13845188.99347  21798510.6254   21798505.9804
        47.5004         47.5004
 20  5  5  0 36 30.0000000  0 10G16G 6G27G 4G22G 9G31G26G 7G 3
 -24452447.96047 -18827192.61846  20427335.6724   20427328.0824
        47.0004         40.0004
   -102224.56046    -83143.08944  25406902.5554   25406899.7234
        36.0004         29.0004
  -1704756.87246  -1307069.67745  24793748.6724   24793746.0664
        36.5004         32.7504
 -27290845.55247 -21243627.16846  20437847.9774   20437841.5044
        46.2504         39.5004
 -11687917.08147  -9096515.10644  23576090.4454   23576081.1604
        42.0004         28.7504
 -17063357.63147 -13283357.69647  22254190.7274   22254185.5664
        44.5004         46.0004
  -2194416.54146  -2572455.79143  24455697.9924   24455690.1684
        40.7504         23.2504
 -17755836.74447 -13812210.74147  21555237.8054   21555232.9024
        46.2504         47.2504
  -4689768.80546  -3582801.67245  24664515.2584   24664508.0634
        39.5004         33.5004
 -17707364.79547 -13782258.89447  21813878.8984   21813874.1724
        47.0004         47.2504
 20  5  5  0 37  0.0000000  0 10G16G 6G27G 4G22G 9G31G26G 7G 3
 -24467419.24647 -18838858.56446  20424487.3754   20424479.2114
        47.7504         39.5004
    -66406.45146    -55232.84845  25413719.3284   25413715.6884
        37.0004         32.2504
  -1800753.05146  -1381871.90645  24775480.9454   24775478.3594
        36.5004         32.5004
 -27319586.44747 -21266022.69346  20432378.4774   20432372.1134
        46.5004         39.7504
 -11587555.13047  -9018311.01744  23595189.4224   23595179.3984
        42.5004         27.0004
 -17144492.60547 -13346579.75147  22238751.4844   22238746.2074
        45.0004         45.7504
  -2100804.45746  -2499511.35743  24473512.2114   24473504.4774
        41.2504         23.5004
 -17695098.22947 -13764882.04747  21566795.9694   21566791.5474
        46.5004         47.2504
  -4769123.63846  -3644636.61045  24649414.6644   24649407.2544
        40.2504         32.5004
 -17626208.06347 -13719019.90347  21829322.2344   21829317.7114
        46.5004         47.5004
 20  5  5  0 37 30.0000000  0 10G16G 6G27G 4G22G 9G31G26G 7G 3
 -24481719.49548 -18850001.61946  20421766.1254   20421757.9844
        48.2504         39.2504
    -30163.81345    -26991.88645  25420615.3754   25420612.1214
        35.7504         30.5004
  -1896732.75646  -1456661.21245  24757217.0004   24757213.6914
        37.0004         32.0004
 -27347974.00147 -21288142.86846  20426977.0634   20426970.0004
        46.2504         39.5004
 -11487051.97847  -8939996.91144  23614314.5554   23614304.5274
        42.5004         27.5004
 -17225453.67847 -13409666.30847  22223344.9534   22223340.0234
        44.5004         45.5004
  -2007209.71946  -2426580.38543  24491321.9144   24491314.3984
        40.5004         22.7504
 -17633886.19347 -13717184.37047  21578444.2274   21578439.7344
        45.7504         47.0004
  -4848383.57846  -3706397.61245  24634331.4844   24634324.4964
        39.5004         33.2504
 -17544658.09447 -13655474.49747  21844841.0084   21844836.9414
        47.0004         47.2504
 20  5  5  0 38  0.0000000  0 10G16G 6G27G 4G22G 9G31G26G 7G 3
 -24495348.29248 -18860621.46346  20419172.1724   20419164.5274
        48.2504         39.5004
      6501.28845      1578.35945  25427592.5864   25427588.9654
        35.5004         30.5004
  -1992692.62646  -1531435.16545  24738957.9224   24738952.5004
        41.2504         35.5004
 -27376006.78747 -21309986.61246  20421642.7114   20421635.5514
        46.5004         39.5004
 -11386410.43447  -8861574.97444  23633465.9384   23633456.4344
        43.0004         26.7504
 -17306239.06247 -13472615.96047  22207972.0004   22207966.6804
        45.0004         45.5004
  -1913633.46446  -2353663.95144  24509128.4534   24509122.4734
        40.0004         24.7504
 -17572202.92347 -13669119.50447  21590182.1644   21590177.6994
        46.5004         47.0004
  -4927548.29846  -3768084.43245  24619267.6334   24619260.3094
        39.0004         33.0004
 -17462717.48647 -13591624.69847  21860433.7664   21860429.5044
        46.5004         47.0004
 20  5  5  0 38 30.0000000  0 10G16G 6G27G 4G22G 9G31G26G 7G 3
 -24508305.12348 -18870717.69646  20416706.4304   20416698.7384
        48.0004         39.2504
     43587.27345     30476.43944  25434649.3674   25434646.0234
        33.5004         28.7504
  -2088629.14546  -1606190.98745  24720701.1414   24720696.5314
        39.2504         33.7504
 -27403683.02147 -21331552.52246  20416375.8984   20416369.5664
        46.0004         39.7504
 -11285632.27347  -8783046.58944  23652643.0314   23652633.1334
        42.5004         27.2504
 -17386846.60447 -13535427.04647  22192632.6804   22192627.2424
        46.0004         45.5004
  -1820075.93946  -2280762.01244  24526933.0704   24526924.8484
        41.0004         25.0004
 -17510050.35647 -13620688.95147  21602009.2274   21602004.9184
        45.5004         46.7504
  -5006616.87546  -3829696.33145  24604221.3674   24604213.8204
        41.0004         32.5004
 -17380388.48147 -13527472.25847  21876100.3674   21876095.5984
        46.7504         46.7504
 20  5  5  0 39  0.0000000  0 10G16G 6G27G 4G22G 9G31G26G 7G 3
 -24520589.52347 -18880289.96446  20414368.9144   20414361.3204
        47.5004         38.7504
     81092.25545     59701.09044  25441786.5554   25441782.3244
        33.5004         28.0004
  -2184538.92046  -1680925.83745  24702449.2814   24702446.1134
        37.2504         33.7504
 -27431000.99047 -21352839.27246  20411176.8134   20411170.7894
        46.2504         40.2504
 -11184720.42947  -8704414.00944  23671845.5704   23671836.0314
        42.2504         26.7504
 -17467274.26847 -13598097.95247  22177327.7664   22177322.9804
        45.2504         46.0004
  -1726537.57146  -2207875.10744  24544732.1564   24544725.7424
        40.2504         24.5004
 -17447430.48047 -13571894.25847  21613925.4694   21613921.2384
        46.0004         46.7504
  -5085589.04046  -3891233.10545  24589193.6644   24589186.1454
        41.0004         33.0004
 -17297673.42947 -13463018.99747  21891840.4924   21891836.0004
        46.7504         46.7504
 20  5  5  0 39 30.0000000  0 10G16G 6G27G 4G22G 9G31G26G 7G 3
 -24532202.04447 -18889338.68046  20412159.1094   20412151.5124
        47.5004         39.0004
    119013.52345     89250.14944  25449003.1884   25448999.1684
        34.0004         27.5004
  -2280419.34346  -1755637.84645  24684203.6484   24684201.1374
        37.0004         34.0004
 -27457959.97147 -21373846.27946  20406047.1884   20406040.8484
        46.2504         39.7504
 -11083677.96846  -8625679.65944  23691073.4224   23691064.2814
        41.7504         27.0004
 -17547520.86147 -13660627.76947  22162058.0394   22162052.4694
        46.0004         46.5004
  -1633019.75446  -2135004.08743  24562527.8204   24562521.1024
        39.2504         22.5004
 -17384346.30747 -13522737.78247  21625930.2034   21625925.5634
        46.0004         46.7504
  -5164465.45146  -3952695.24645  24574183.6954   24574176.3794
        40.7504         34.2504
 -17214575.63047 -13398267.47347  21907652.8364   21907648.7974
        46.5004         46.5004
 20  5  5  0 40  0.0000000  0 10G16G 6G27G 4G22G 9G31G26G 7G 3
 -24543141.95348 -18897863.29746  20410077.4534   20410069.5314
        48.0004         39.2504
    157349.39046    119122.15545  25456298.1334   25456294.1684
        36.0004         31.2504
  -2376266.79746  -1830324.12345  24665965.0944   24665961.4614
        38.5004         34.7504
 -27484558.23547 -21394572.21846  20400986.1094   20400979.2894
        46.5004         39.7504
 -10982506.74347  -8546844.99144  23710326.1644   23710316.4534
        42.0004         26.7504
 -17627584.28947 -13723014.85547  22146821.6564   22146817.1644
        46.0004         46.5004
  -1539523.20946  -2062149.68043  24580317.3754   24580313.2894
        36.2504         22.5004
 -17320799.85947 -13473221.09047  21638022.7274   21638018.1294
        46.2504         46.5004
  -5243245.36146  -4014082.21345  24559192.3524   24559185.1644
        39.7504         34.2504
 -17131097.38847 -13333219.52247  21923539.0554   21923534.0824
        46.5004         46.5004
 20  5  5  0 40 30.0000000  0 10G16G 6G27G 4G22G 9G31G26G 7G 3
 -24553409.58747 -18905864.04646  20408123.6724   20408115.9414
        47.2504         39.0004
    196097.23845    149315.24644  25463671.9304   25463667.9964
        31.5004         25.2504
  -2472078.50446  -1904982.60945  24647732.9924   24647729.2934
        40.7504         35.2504
 -27510794.77247 -21415016.29046  20395993.1564   20395986.6294
        47.0004         40.0004
 -10881210.32747  -8467912.75344  23729601.8444   23729592.4534
        42.2504         26.2504
 -17707463.16947 -13785258.13347  22131622.4384   22131616.9454
        46.7504         46.5004
  -1446049.07046  -1989312.74643  24598106.7814   24598100.7854
        40.2504         21.5004
 -17256793.88647 -13423346.32347  21650202.2344   21650198.1644
        46.7504         46.5004
  -5321928.88446  -4075394.09445  24544219.3134   24544212.4574
        39.7504         34.7504
 -17047241.74647 -13267877.48547  21939496.6884   21939491.8874
        46.0004         46.0004
 20  5  5  0 41  0.0000000  0 10G16G 6G27G 4G22G 9G31G26G 7G 3
 -24563001.99947 -18913338.65446  20406298.1644   20406290.2934
        47.5004         39.0004
                                  25471124.0634   25471120.5824
        25.2504         17.2504
  -2567848.26746  -1979608.38745  24629508.5474   24629505.0594
        38.5004         34.0004
 -27536665.27947 -21435175.13946  20391070.5164   20391063.6604
        46.7504         40.5004
 -10779788.29947  -8388882.63344  23748901.9454   23748892.7234
        43.0004         27.0004
 -17787152.74647 -13847353.90447  22116457.7114   22116452.2544
        46.5004         46.2504
  -1352594.97646  -1916491.36043  24615892.2734   24615883.5944
        41.7504         22.2504
 -17192327.80147 -13373113.02947  21662469.3444   21662465.3674
        46.2504         46.5004
  -5400513.43946  -4136628.83245  24529264.7194   24529258.2624
        41.0004         34.5004
 -16963008.48547 -13202241.20647  21955525.1024   21955520.3054
        46.0004         46.2504
 20  5  5  0 41 30.0000000  0  9G16G27G 4G22G 9G31G26G 7G 3
 -24571924.36047 -18920291.14646  20404600.2814   20404592.7934
        47.0004         39.0004
  -2663577.91846  -2054202.89845  24611292.4304   24611286.9694
        40.0004         31.0004
 -27562173.37147 -21455051.58746  20386216.3594   20386210.0084
        47.0004         40.5004
 -10678248.13047  -8309760.46444  23768224.6724   23768214.6174
        42.2504         27.0004
 -17866656.27747 -13909304.70747  22101328.9614   22101322.7464
        45.7504         46.5004
  -1259166.90646  -1843690.43343  24633670.1484   24633664.3874
        39.7504         23.5004
 -17127408.98947 -13322526.96447  21674823.6484   21674819.0124
        46.5004         46.2504
  -5479002.98746  -4197789.49045  24514329.4304   24514321.8444
        40.7504         34.5004
 -16878405.29747 -13136316.66247  21971624.9144   21971620.7424
        46.2504         46.2504
 20  5  5  0 42  0.0000000  0  9G16G27G 4G22G 9G31G26G 7G 3
 -24580174.16847 -18926719.57046  20403030.2974   20403022.8014
        47.5004         40.0004
  -2759261.92746  -2128761.94345  24593083.4614   24593078.7464
        38.5004         30.0004
 -27587315.41547 -21474642.81546  20381431.9304   20381425.3054
        47.5004         40.2504
 -10576590.30547  -8230546.63044  23787570.6024   23787559.9964
        42.0004         25.7504
 -17945969.57647 -13971107.28747  22086235.5314   22086230.1564
        46.2504         46.2504
  -1165763.18646  -1770908.30943  24651442.6414   24651437.5634
        36.2504         20.5004
 -17062037.54647 -13271588.20147  21687263.3594   21687258.8204
        46.7504         46.0004
  -5557395.49146  -4258874.56045  24499411.7974   24499404.5164
        41.2504         33.5004
 -16793432.59247 -13070104.19947  21987795.0864   21987789.8094
        45.7504         46.2504
 20  5  5  0 42 30.0000000  0  9G16G27G 4G22G 9G31G26G 7G 3
 -24587751.01948 -18932623.61746  20401588.6334   20401581.1764
        48.0004         39.2504
  -2854896.52246  -2203282.34345  24574883.8364   24574881.1024
        36.0004         30.0004
 -27612089.53047 -21493947.34746  20376717.4384   20376711.3164
        47.0004         40.5004
 -10474817.10047  -8151242.87244  23806936.4064   23806926.8244
        42.5004         26.2504
 -18025090.35547 -14032759.84947  22071179.7584   22071173.8054
        45.0004         46.5004
  -1072384.19446  -1698145.43843  24669213.2344   24669207.0594
        38.7504         22.5004
 -16996215.37347 -13220298.21447  21699789.0554   21699784.1844
        46.2504         46.0004
  -5635690.67946  -4319883.80545  24484512.6174   24484505.7034
        41.2504         34.0004
 -16708092.52447 -13003605.47047  22004034.9924   22004029.7854
        45.7504         46.5004
 20  5  5  0 43  0.0000000  0  9G16G27G 4G22G 9G31G26G 7G 3
 -24594654.35047 -18938002.84946  20400274.8364   20400266.7194
        47.0004         39.5004
  -2950478.19846  -2277761.61244  24556696.3134   24556691.0084
        37.0004         29.0004
 -27636494.04847 -21512963.86846  20372073.6954   20372067.2074
        47.2504         40.5004
 -10372930.58146  -8071850.83244  23826324.9064   23826315.3754
        41.7504         26.2504
 -18104016.54647 -14094260.78147  22056160.2034   22056154.1564
        45.0004         46.2504
   -979030.28546  -1625402.26143  24686977.2274   24686972.1094
        38.2504         22.5004
 -16929944.61547 -13168658.67047  21712399.7734   21712395.3714
        46.5004         46.0004
  -5713887.97847  -4380816.78645  24469632.3914   24469625.3404
        42.2504         33.7504
 -16622387.62247 -12936822.44847  22020343.4534   22020339.1564
        46.0004         46.5004
 20  5  5  0 43 30.0000000  0  9G16G27G 4G22G 9G31G26G 7G 3
 -24600885.71947 -18942858.45646  20399089.2194   20399081.1994
        47.5004         39.0004
  -3046004.78746  -2352197.87446  24538518.3984   24538515.5474
        39.0004         36.2504
 -27660528.79147 -21531692.25746  20367499.9224   20367493.7234
        46.7504         41.0004
 -10270934.86546  -7992373.69044  23845733.3284   23845724.9964
        41.0004         25.7504
 -18182747.45547 -14155609.54547  22041178.0234   22041172.5274
        45.7504         46.0004
   -885703.57946  -1552680.20143  24704737.2584   24704732.0084
        39.0004         22.5004
 -16863228.81247 -13116672.35247  21725095.7504   21725090.8554
        46.0004         46.2504
  -5791987.99546  -4441673.96745  24454770.4384   24454762.7544
        40.0004         33.5004
 -16536321.65147 -12869758.08447  22036721.1884   22036716.4774
        45.5004         46.2504
 20  5  5  0 44  0.0000000  0  9G16G27G 4G22G 9G31G26G 7G 3
 -24606445.20747 -18947190.53246  20398031.3054   20398023.5784
        47.0004         39.2504
  -3141472.70946  -2426588.43345  24520351.7734   24520347.8284
        39.0004         34.2504
 -27684192.05947 -21550131.18246  20362997.0944   20362990.6454
        46.7504         40.5004
 -10168832.15246  -7912813.18244  23865163.0554   23865154.1414
        41.7504         26.2504
 -18261280.91347 -14216804.45547  22026233.9694   22026227.8554
        46.7504         46.5004
   -792404.32846  -1479979.55343  24722491.3054   24722485.6254
        39.7504         22.5004
 -16796070.07447 -13064340.88347  21737875.0394   21737870.8244
        45.5004         46.0004
  -5869990.58146  -4502455.20845  24439927.1564   24439919.5124
        41.2504         33.5004
 -16449897.10847 -12802414.30147  22053167.4774   22053162.6564
        46.2504         46.0004
 20  5  5  0 44 30.0000000  0  9G16G27G 4G22G 9G31G26G 7G 3
 -24611332.05947 -18950998.47046  20397101.4614   20397093.4924
        46.5004         39.0004
  -3236878.27046  -2500930.44145  24502196.0944   24502191.1484
        39.0004         33.7504
 -27707481.88047 -21568279.12146  20358564.6254   20358558.7274
        47.0004         40.5004
 -10066624.49947  -7833170.92344  23884612.8754   23884604.0044
        42.5004         27.2504
 -18339614.51347 -14277843.63347  22011327.2034   22011321.7194
        47.2504         46.7504
   -699132.59146  -1407300.33043  24740242.1564   24740234.0594
        40.5004         21.0004
 -16728470.25147 -13011665.71347  21750739.4064   21750735.0004
        46.2504         46.2504
  -5947894.49246  -4563159.57345  24425102.3524   24425094.9144
        39.7504         34.0004
 -16363116.08247 -12734792.75247  22069681.4774   22069676.7074
        45.2504         45.7504
 20  5  5  0 45  0.0000000  0  9G16G27G 4G22G 9G31G26G 7G 3
 -24615547.31247 -18954283.09046  20396299.4384   20396291.3714
        47.0004         39.5004
  -3332218.75146  -2575221.72645  24484053.8754   24484050.1134
        39.0004         35.2504
 -27730397.77548 -21586135.68046  20354204.0864   20354197.6134
        48.0004         40.7504
  -9964315.32747  -7753449.53444  23904081.9384   23904072.1374
        42.7504         26.5004
 -18417747.19247 -14338726.24447  21996459.4614   21996453.7234
        47.0004         47.0004
   -605889.90246  -1334643.71643  24757984.5784   24757976.5984
        38.7504         19.0004
 -16660432.54947 -12958649.34347  21763686.5944   21763682.0044
        46.2504         46.2504
  -6025700.46746  -4623787.61745  24410295.6414   24410288.9264
        40.5004         33.0004
 -16275982.15047 -12666896.21447  22086262.3444   22086257.4304
        45.0004         45.5004
 20  5  5  0 45 30.0000000  0  9G16G27G 4G22G 9G31G26G 7G 3
 -24619089.79747 -18957043.47946  20395625.1334   20395617.4534
        47.2504         38.5004
  -3427489.82246  -2649458.89045  24465923.6094   24465919.6764
        39.0004         35.2504
 -27752937.10147 -21603698.81046  20349915.1884   20349908.9264
        46.5004         40.5004
  -9861905.97746  -7673650.08444  23923569.1884   23923560.5594
        41.2504         26.5004
 -18495675.83647 -14399449.86447  21981630.2424   21981624.4104
        45.5004         47.0004
   -512675.87846  -1262009.45443  24775721.4614   24775715.9494
        37.5004         20.7504
 -16591958.19247 -12905292.71947  21776716.8754   21776712.5354
        46.0004         46.2504
  -6103407.82646  -4684338.79045  24395509.0314   24395501.2974
        41.5004         34.2504
 -16188496.82047 -12598725.84447  22102910.1174   22102905.2584
        45.2504         45.2504
 20  5  5  0 46  0.0000000  0  9G16G27G 4G22G 9G31G26G 7G 3
 -24621960.55847 -18959280.43246  20395078.6174   20395070.8484
        47.5004         39.0004
  -3522689.10846  -2723640.13045  24447807.7814   24447804.2114
        38.2504         35.5004
 -27775099.57847 -21620968.28546  20345697.8054   20345691.6254
        47.2504         40.7504
  -9759400.06746  -7593775.39744  23943075.9924   23943066.8054
        41.2504         25.5004
 -18573399.67647 -14460013.89847  21966839.2664   21966834.1024
        46.2504         47.2504
   -419492.22247  -1189398.94443  24793456.8524   24793448.2584
        42.0004         21.5004
 -16523050.68547 -12851598.57347  21789829.2664   21789825.0864
        45.5004         46.0004
  -6181017.11846  -4744813.59845  24380740.8054   24380732.6844
        41.2504         34.0004
 -16100663.86947 -12530284.60447  22119624.2194   22119619.2504
        45.0004         45.5004
 20  5  5  0 46 30.0000000  0  9G16G27G 4G22G 9G31G26G 7G 3
 -24624159.94847 -18960994.24746  20394660.2034   20394652.7074
        47.2504         39.2504
  -3617813.23946  -2797762.79245  24429705.5234   24429702.9964
        36.7504         33.5004
 -27796883.65847 -21637942.90846  20341552.6804   20341546.2304
        46.5004         40.5004
  -9656800.02646  -7513827.36244  23962600.0784   23962590.7664
        40.7504         24.2504
 -18650916.59847 -14520416.69547  21952088.5704   21952083.2544
        46.2504         47.2504
   -326339.14546  -1116812.12943  24811180.8364   24811174.4104
        38.2504         20.5004
 -16453712.29247 -12797568.68147  21803023.4064   21803019.5554
        45.2504         46.0004
  -6258527.29346  -4805211.14045  24365991.1954   24365983.4184
        41.7504         35.2504
 -16012485.91447 -12461574.54047  22136403.3054   22136399.2074
        45.0004         45.5004
 20  5  5  0 47  0.0000000  0  9G16G27G 4G22G 9G31G26G 7G 3
 -24625688.34147 -18962185.21946  20394369.3364   20394361.5314
        47.0004         39.0004
  -3712858.83946  -2871824.21345  24411619.2344   24411616.3554
        38.2504         33.5004
 -27818287.95647 -21654621.60246  20337479.4614   20337472.8444
        47.0004         40.7504
  -9554108.56446  -7433808.09844  23982141.5164   23982132.0514
        40.5004         25.5004
 -18728224.72847 -14580656.79747  21937377.2664   21937371.8484
        47.0004         47.0004
   -233217.66247  -1044250.01943  24828903.7734   24828895.8324
        42.7504         23.0004
 -16383945.39647 -12743204.88247  21816299.8594   21816296.0784
        45.2504         46.0004
  -6335938.74346  -4865531.75345  24351260.4064   24351252.5634
        40.5004         35.0004
 -15923965.62847 -12392597.72347  22153248.9924   22153243.9344
        45.5004         45.2504
 20  5  5  0 47 30.0000000  0  9G16G27G 4G22G 9G31G26G 7G 3
 -24626545.95847 -18962853.49346  20394206.1254   20394198.2544
        47.7504         39.5004
  -3807822.43746  -2945821.78945  24393549.0004   24393545.0124
        39.0004         33.0004
 -27839311.10847 -21671003.29446  20333478.9454   20333472.3754
        47.2504         40.5004
  -9451328.21346  -7353719.54743  24001700.8834   24001690.5004
        41.5004         22.7504
 -18805322.07947 -14640732.65547  21922705.7894   21922700.4454
        45.5004         47.2504
   -140128.24046   -971712.85343  24846615.5314   24846610.2074
        39.2504         21.2504
 -16313752.44647 -12688509.10247  21829657.1954   21829653.3284
        45.2504         46.0004
  -6413251.32046  -4925775.32645  24336547.5234   24336540.9924
        40.7504         35.7504
 -15835105.78847 -12323356.31447  22170157.9694   22170153.8984
        45.2504         45.2504
 20  5  5  0 48  0.0000000  0  9G16G27G 4G22G 9G31G26G 7G 3
 -24626732.98947 -18962999.23146  20394170.6024   20394163.1524
        47.5004         38.7504
  -3902700.78146  -3019753.02445  24375495.1414   24375489.0944
        41.0004         34.0004
 -27859951.68147 -21687086.87246  20329551.1644   20329544.4414
        47.2504         41.0004
  -9348461.48346  -7273563.68344  24021276.2034   24021265.3204
        41.2504         26.0004
 -18882206.71847 -14700642.77847  21908075.8754   21908070.0704
        46.7504         47.5004
    -47071.25146   -899200.94443  24864324.3754   24864317.8834
        39.5004         22.2504
 -16243135.85547 -12633483.21547  21843095.8444   21843091.0784
        45.2504         45.7504
  -6490464.74146  -4985941.62945  24321854.0784   24321847.7934
        39.7504         35.5004
 -15745909.07347 -12253852.40847  22187132.0474   22187127.3554
        45.0004         45.5004
 20  5  5  0 48 30.0000000  0  9G16G27G 4G22G 9G31G26G 7G 3
 -24626249.66247 -18962622.62146  20394262.5864   20394254.6994
        47.5004         39.0004
  -3997490.21846  -3093614.87345  24357456.8364   24357453.0124
        40.2504         34.5004
 -27880208.17047 -21702871.15746  20325696.6724   20325689.9734
        46.5004         41.0004
  -9245510.92446  -7193342.50744  24040865.9694   24040856.4494
        40.5004         24.0004
 -18958876.58247 -14760385.53447  21893485.5474   21893480.0354
        46.2504         47.2504
     45952.52346   -826715.01543  24882026.6484   24882020.1524
        39.0004         21.7504
 -16172097.86347 -12578128.94947  21856613.5084   21856609.4494
        45.5004         45.5004
  -6567578.74646  -5046030.45645  24307180.4304   24307173.1134
        41.5004         35.0004
 -15656378.11147 -12184088.04447  22204169.1804   22204164.5354
        45.2504         45.5004
 20  5  5  0 49  0.0000000  0  9G16G27G 4G22G 9G31G26G 7G 3
 -24625096.11247 -18961723.76146  20394482.1564   20394474.3754
        46.5004         39.2504
  -4092187.48847  -3167405.00346  24339436.9064   24339432.4224
        42.0004         36.7504
 -27900079.20347 -21718355.08746  20321915.0704   20321908.7664
        46.2504         40.7504
  -9142478.83546  -7113057.82044  24060472.1644   24060463.3054
        41.2504         25.5004
 -19035329.68747 -14819959.38847  21878937.4534   21878931.7344
        46.0004         47.5004
    138942.56146   -754255.38943  24899721.6564   24899715.8954
        38.0004         20.0004
 -16100640.91647 -12522448.23447  21870210.9614   21870207.5824
        44.7504         45.5004
  -6644593.22946  -5106041.74845  24292524.8284   24292518.1724
        40.7504         34.5004
 -15566515.59147 -12114065.33047  22221269.3594   22221264.5744
        45.5004         45.0004
 20  5  5  0 49 30.0000000  0  9G16G27G 4G22G 9G31G26G 7G 3
 -24623273.99447 -18960303.92846  20394828.8204   20394820.9454
        46.5004         39.2504
  -4186790.15246  -3241121.40445  24321433.4534   24321429.2344
        38.7504         34.7504
 -27919564.40647 -21733538.37646  20318207.0634   20318200.6374
        46.5004         41.2504
  -9039368.88947  -7032712.46144  24080095.1174   24080084.1724
        42.5004         26.0004
 -19111565.06247 -14879363.57947  21864430.0164   21864424.8554
        46.2504         47.5004
    231897.01946   -681823.30243  24917410.4304   24917403.9844
        39.7504         20.0004
 -16028768.50647 -12466443.77747  21883887.7734   21883883.8754
        44.5004         45.2504
  -6721508.16446  -5165975.48245  24277888.5234   24277881.3134
        40.5004         34.2504
 -15476325.31947 -12043787.22147  22238432.0634   22238427.5004
        44.7504         44.7504
 20  5  5  0 50  0.0000000  0  9G16G27G 4G22G 9G31G26G 7G 3
 -24620782.87847 -18958362.80446  20395302.7734   20395295.1094
        47.5004         39.5004
  -4281293.97446  -3314760.69145  24303450.4614   24303445.5044
        39.7504         34.5004
 -27938661.50947 -21748419.25346  20314573.3054   20314566.3674
        47.2504         40.7504
  -8936182.87947  -6952307.81643  24099731.6024   24099719.8204
        42.5004         23.7504
 -19187579.87047 -14938595.89747  21849964.7894   21849959.8834
        46.0004         47.5004
    324816.65846   -609418.48843  24935091.5474   24935086.7934
        37.0004         20.5004
 -15956482.10947 -12410116.73647  21897643.9454   21897639.4614
        45.5004         45.2504
  -6798322.99646  -5225831.21445  24263271.3984   24263263.4694
        41.5004         34.2504
 -15385809.10347 -11973255.13947  22255657.0234   22255652.2304
        45.0004         44.7504
 20  5  5  0 50 30.0000000  0  9G16G27G 4G22G 9G31G26G 7G 3
 -24617623.88247 -18955901.25346  20395904.0784   20395896.2854
        47.0004         39.2504
  -4375696.28146  -3388320.83545  24285485.7034   24285483.3134
        38.0004         35.0004
 -27957369.95347 -21762997.27046  20311012.8984   20311006.3954
        47.2504         41.0004
  -8832924.03046  -6871846.42544  24119378.6414   24119369.3364
        41.2504         25.2504
 -19263372.86947 -14997655.37847  21835542.2424   21835536.4614
        46.0004         47.5004
    417699.99546   -537041.96643  24952768.2344   24952761.4494
        40.5004         21.0004
 -15883784.99847 -12353469.65247  21911477.5784   21911473.0434
        45.2504         45.0004
  -6875038.37546  -5285609.45845  24248672.2504   24248665.1254
        41.2504         33.7504
 -15294970.47447 -11902471.82047  22272942.4224   22272938.1294
        44.2504         44.7504
 20  5  5  0 51  0.0000000  0  9G16G27G 4G22G 9G31G26G 7G 3
 -24613796.68847 -18952919.03046  20396632.3984   20396624.6334
        46.2504         39.2504
  -4469993.00446  -3461798.86045  24267542.6724   24267538.3634
        39.7504         35.7504
 -27975687.78147 -21777270.92046  20307527.2114   20307520.7664
        46.2504         41.2504
  -8729594.32346  -6791329.82743  24139042.4454   24139032.6334
        40.5004         23.0004
 -19338941.56247 -15056540.08247  21821161.5474   21821156.3014
        45.7504         47.7504
    510546.97846   -464693.62443  24970436.4844   24970429.0274
        40.7504         20.7504
 -15810679.07147 -12296504.00847  21925388.7894   21925384.5554
        45.0004         44.7504
  -6951653.79246  -5345309.82745  24234093.9924   24234085.7424
        40.2504         34.0004
 -15203811.69447 -11831439.03447  22290290.0084   22290285.3284
        44.7504         44.7504
 20  5  5  0 51 30.0000000  0  9G16G27G 4G22G 9G31G26G 7G 3
 -24609301.82247 -18949416.54046  20397487.4534   20397480.1684
        47.5004         39.5004
  -4564181.00546  -3535192.03645  24249618.0634   24249615.7114
        38.0004         35.7504
 -27993613.66047 -21791239.14846  20304116.2734   20304109.5984
        47.5004         40.7504
  -8626196.13746  -6710759.86543  24158718.2194   24158708.4574
        41.2504         23.0004
 -19414283.93947 -15115248.43148  21806824.9384   21806819.3244
        46.7504         48.0004
    603357.14846   -392374.14243  24988099.1174   24988091.2464
        41.0004         22.5004
 -15737166.72447 -12239221.68147  21939378.1024   21939374.0474
        45.2504         44.7504
  -7028168.69047  -5404931.84545  24219533.3594   24219525.0904
        43.0004         34.5004
 -15112335.41947 -11760158.84047  22307696.7814   22307692.5944
        45.0004         44.7504
 20  5  5  0 52  0.0000000  0  9G16G27G 4G22G 9G31G26G 7G 3
 -24604140.70747 -18945394.89346  20398469.8524   20398461.7034
        47.0004         38.7504
  -4658257.47646  -3608498.33345  24231716.0864   24231711.9924
        37.5004         32.2504
 -28011147.13347 -21804901.60146  20300779.5784   20300773.3054
        47.5004         41.0004
  -8522733.05046  -6630139.30643  24178406.0394   24178396.4264
        40.7504         22.2504
 -19489398.88347 -15173779.56448  21792531.1484   21792525.0394
        47.5004         48.0004
    696128.77746   -320084.55443  25005751.4844   25005745.9144
        38.5004         22.5004
 -15663251.36947 -12181625.31847  21953443.6884   21953439.4614
        45.2504         44.7504
  -7104583.69446  -5464476.01445  24204991.6094   24204984.5204
        41.5004         35.0004
 -15020545.43047 -11688634.20947  22325164.0084   22325159.5664
        44.7504         44.5004
 20  5  5  0 52 30.0000000  0  9G16G27G 4G22G 9G31G26G 7G 3
 -24598312.66147 -18940853.55746  20399578.8444   20399571.1604
        47.5004         39.0004
  -4752217.84246  -3681714.25546  24213836.5944   24213832.6994
        40.0004         36.7504
 -28028285.49347 -21818256.17546  20297518.4844   20297512.1334
        47.2504         41.2504
  -8419206.43246  -6549469.26143  24198106.4774   24198097.2234
        41.5004         22.5004
 -19564283.08547 -15232130.89648  21778280.9924   21778275.2584
        46.0004         48.0004
    788863.05845   -247824.29443  25023396.0474   25023392.4344
        34.2504         19.7504
 -15588934.11947 -12123715.80247  21967586.2424   21967581.9384
        45.0004         44.5004
  -7180897.20647  -5523941.10546  24190470.1334   24190462.9804
        42.5004         36.0004
 -14928443.10847 -11616866.18247  22342690.3364   22342686.2584
        44.5004         44.0004
 20  5  5  0 53  0.0000000  0  9G16G27G 4G22G 9G31G26G 7G 3
 -24591819.61048 -18935794.05046  20400814.5554   20400806.4534
        48.0004         39.7504
  -4846059.72346  -3754837.77945  24195978.9694   24195974.7664
        40.5004         35.7504
 -28045028.60647 -21831302.77346  20294332.2034   20294325.6684
        46.7504         40.7504
  -8315619.67746  -6468752.35843  24217819.2664   24217809.3874
        41.2504         22.7504
 -19638935.70947 -15290301.77947  21764074.9534   21764069.4574
        46.5004         47.7504
    881558.18746   -175594.32343  25041037.3834   25041032.0124
        38.2504         20.7504
 -15514218.61147 -12065495.94247  21981803.9304   21981799.8404
        44.5004         44.5004
  -7257110.51546  -5583328.13045  24175966.9454   24175959.5944
        41.2504         35.5004
 -14836032.42747 -11544857.89447  22360275.5164   22360271.1524
        44.5004         44.0004
 20  5  5  0 53 30.0000000  0  9G16G27G 4G22G 9G31G26G 7G 3
 -24584662.07947 -18930216.75546  20402176.6484   20402168.6374
        46.5004         39.5004
  -4939779.84746  -3827866.48545  24178144.0394   24178139.6884
        39.7504         33.7504
 -28061375.21247 -21844040.39946  20291221.5394   20291214.9064
        47.7504         41.0004
  -8211975.86846  -6387990.96543  24237539.9534   24237532.3164
        39.5004         23.0004
 -19713354.83347 -15348290.71147  21749913.2814   21749907.8014
        46.5004         47.7504
    974213.35046   -103395.58243  25058669.0314   25058663.1524
        40.0004         22.5004
 -15439107.47447 -12006967.81147  21996097.1644   21996092.7304
        44.5004         44.7504
  -7333223.32946  -5642636.80245  24161482.9384   24161475.7584
        40.5004         35.2504
 -14743316.26947 -11472611.57347  22377919.1884   22377914.8834
        44.5004         43.7504
 20  5  5  0 54  0.0000000  0  9G16G27G 4G22G 9G31G26G 7G 3
 -24576839.88548 -18924121.54546  20403665.0004   20403657.1134
        48.0004         39.2504
  -5033374.20046  -3900797.14345  24160334.6254   24160328.6134
        41.5004         35.5004
 -28077323.34347 -21856467.52146  20288187.0864   20288180.6644
        47.2504         41.5004
  -8108276.64846  -6307186.44343  24257274.3754   24257266.0164
        39.5004         23.0004
 -19787537.80347 -15406095.62248  21735796.7034   21735791.6334
        45.7504         48.0004
   1066828.70246    -31227.81043  25076293.8984   25076286.2344
        41.2504         20.0004
 -15363602.45747 -11948132.75347  22010465.5314   22010461.1054
        45.2504         44.5004
  -7409234.83746  -5701866.54846  24147018.3594   24147011.8634
        40.2504         36.0004
 -14650296.77447 -11400128.87747  22395619.7974   22395615.5474
        44.5004         43.7504
 20  5  5  0 54 30.0000000  0  9G16G27G 4G22G 9G31G26G 7G 3
 -24568354.79148 -18917509.79246  20405279.7344   20405271.6844
        48.0004         39.2504
  -5126840.14646  -3973627.75946  24142548.3444   24142544.7114
        40.2504         36.2504
 -28092872.58247 -21868583.83146  20285227.5314   20285221.3014
        47.2504         41.0004
  -8004525.22746  -6226341.25444  24277018.6724   24277009.3404
        40.5004         24.0004
 -19861483.49447 -15463715.64848  21721725.6174   21721720.0784
        47.0004         48.2504
   1159403.14446     40908.08443  25093909.0164   25093903.4184
        39.0004         21.5004
 -15287706.98547 -11888993.44147  22024907.4844   22024903.3204
        44.7504         44.5004
  -7485145.86746  -5761018.01246  24132573.0084   24132566.7894
        41.0004         36.2504
 -14556977.64547 -11327412.68847  22413378.2274   22413373.8054
        44.2504         44.0004
 20  5  5  0 55  0.0000000  0  9G16G27G 4G22G 9G31G26G 7G 3
 -24559206.85648 -18910381.54546  20407020.6024   20407012.8094
        48.7504         39.2504
  -5220173.65746  -4046355.15245  24124786.6724   24124783.4264
        39.7504         35.7504
 -28108020.99247 -21880387.80046  20282345.1024   20282338.8794
        46.5004         40.5004
  -7900723.63546  -6145456.97444  24296770.7584   24296761.8284
        40.0004         26.0004
 -19935189.22847 -15521148.68447  21707699.8754   21707693.9844
        46.2504         47.2504
   1251936.38346    113011.78944  25111518.5474   25111511.6644
        39.5004         25.0004
 -15211422.93447 -11829551.34447  22039423.8524   22039419.8554
        45.0004         43.5004
  -7560955.27946  -5820090.33245  24118146.3364   24118140.3094
        40.2504         35.0004
 -14463361.03147 -11254464.71747  22431192.6564   22431188.7774
        44.5004         44.2504
 20  5  5  0 55 30.0000000  0  9G16G27G 4G22G 9G31G26G 7G 3
 -24549396.73148 -18902737.27846  20408887.4924   20408879.5274
        48.2504         39.5004
  -5313371.53546  -4118976.80646  24107052.4844   24107049.1604
        40.5004         36.7504
 -28122767.55347 -21891878.64746  20279539.2274   20279532.5944
        46.7504         41.5004
  -7796874.58446  -6064535.67144  24316532.5394   24316523.8404
        39.7504         24.5004
 -20008653.27347 -15578393.41648  21693720.2424   21693714.7774
        46.2504         48.5004
   1344428.12446    185083.16743  25129119.3674   25129112.4884
        38.0004         21.7504
 -15134752.99947 -11769808.56647  22054014.0394   22054009.8874
        45.2504         44.5004
  -7636663.30446  -5879083.55845  24103740.6174   24103733.5944
        40.2504         35.7504
 -14369450.02147 -11181287.33647  22449063.6564   22449058.9614
        45.2504         43.7504
 20  5  5  0 56  0.0000000  0  9G16G27G 4G22G 9G31G26G 7G 3
 -24538925.76848 -18894578.08746  20410879.9304   20410871.9884
        48.0004         39.0004
  -5406430.60246  -4191490.36846  24089342.9064   24089340.6414
        39.0004         36.7504
 -28137111.13547 -21903055.47746  20276809.7814   20276803.2814
        47.0004         41.2504
  -7692981.41846  -5983580.01443  24336303.1174   24336293.4344
        40.0004         22.2504
 -20081873.88747 -15635448.43848  21679785.9844   21679781.3634
        47.0004         48.5004
   1436877.16346    257121.39843  25146710.7424   25146704.5594
        37.5004         21.0004
 -15057700.04247 -11709767.32947  22068676.5314   22068672.5044
        45.2504         44.5004
  -7712270.13946  -5937997.97446  24089352.8134   24089346.6764
        41.0004         36.0004
 -14275247.72347 -11107882.97347  22466990.1724   22466985.4694
        45.2504         43.7504
 20  5  5  0 56 30.0000000  0  9G16G27G 4G22G 9G31G26G 7G 3
 -24527794.26948 -18885904.19546  20412997.8754   20412990.2034
        48.2504         39.2504
  -5499346.96646  -4263892.67746  24071662.1644   24071658.6454
        39.7504         37.7504
 -28151050.08447 -21913917.01346  20274157.1414   20274150.5314
        46.7504         41.2504
  -7589045.57446  -5902591.05743  24356081.7194   24356072.1214
        40.5004         21.5004
 -20154848.52047 -15692311.79648  21665899.6954   21665894.7774
        47.2504         48.5004
   1529283.78346    329126.36043  25164294.6804   25164290.2894
        36.7504         21.2504
 -14980266.04247 -11649429.17847  22083411.7424   22083408.1174
        44.2504         44.2504
  -7787774.87346  -5996832.83546  24074984.6724   24074978.6254
        41.2504         36.7504
 -14180756.43847 -11034253.44047  22484970.7814   22484966.5864
        45.7504         43.7504
 20  5  5  0 57  0.0000000  0  9G16G27G 4G22G 9G31G26G 7G 3
 -24516003.82347 -18876716.83846  20415241.7894   20415233.6914
        47.7504         39.0004
  -5592117.83346  -4336181.61346  24054008.7504   24054005.3204
        41.2504         36.5004
 -28164583.81347 -21924462.79847  20271581.8444   20271575.6804
        46.7504         42.0004
  -7485070.26746  -5821571.40043  24375868.1414   24375857.9494
        39.7504         21.0004
 -20227575.89047 -15748982.48148  21652060.3134   21652054.8914
        45.7504         48.5004
   1621646.64646    401097.29443  25181872.4924   25181866.2704
        40.5004         22.0004
 -14902454.20547 -11588796.60347  22098218.3594   22098214.6884
        44.0004         44.0004
  -7863178.63046  -6055589.02345  24060635.7504   24060628.5904
        40.2504         35.5004
 -14085979.75747 -10960401.50947  22503006.2734   22503001.5664
        45.0004         43.2504
 20  5  5  0 57 30.0000000  0  9G16G27G 4G22G 9G31G26G 7G 3
 -24503555.26747 -18867016.67146  20417610.6094   20417602.8324
        47.7504         39.5004
  -5684739.69246  -4408354.49245  24036382.9144   24036379.7344
        39.7504         35.5004
 -28177710.92747 -21934691.73146  20269083.9774   20269077.2624
        47.0004         41.5004
  -7381057.93746  -5740522.90043  24395661.7664   24395650.8714
        40.0004         22.0004
 -20300053.84147 -15805458.81548  21638268.2344   21638262.8284
        46.2504         49.0004
   1713965.20846    473033.79543  25199439.1414   25199433.1414
        39.0004         18.5004
 -14824267.03147 -11527871.55347  22113097.3674   22113093.3014
        44.5004         44.0004
  -7938480.52746  -6114265.85645  24046306.7814   24046298.2304
        41.5004         35.5004
 -13990920.41847 -10886329.32847  22521095.6804   22521091.1484
        45.0004         43.0004
 20  5  5  0 58  0.0000000  0  9G16G27G 4G22G 9G31G26G 7G 3
 -24490449.20947 -18856804.15346  20420104.6484   20420096.5434
        47.7504         39.0004
  -5777209.18847  -4480408.63645  24018787.3754   24018783.4534
        42.0004         35.5004
 -28190430.27247 -21944602.93146  20266663.2734   20266656.8674
        46.7504         41.5004
  -7277011.23246  -5659447.58743  24415460.5634   24415451.3634
        40.5004         22.5004
 -20372280.42147 -15861739.27848  21624523.8674   21624518.5164
        46.7504         48.7504
   1806239.20046    544935.58442  25216997.1724   25216991.7734
        36.2504         17.2504
 -14745707.09547 -11466656.04147  22128046.5944   22128042.8834
        45.0004         44.0004
  -8013680.40546  -6172863.17045  24031996.6334   24031988.9694
        40.7504         34.7504
 -13895581.28747 -10812039.12047  22539237.6564   22539233.1094
        44.5004         42.7504
 20  5  5  0 58 30.0000000  0  9G16G27G 4G22G 9G31G26G 7G 3
 -24476686.33547 -18846079.84146  20422723.5944   20422715.8524
        47.5004         39.5004
  -5869522.41046  -4552340.98645  24001220.4224   24001215.6914
        40.2504         33.7504
 -28202740.05447 -21954194.97646  20264320.9224   20264314.5354
        47.5004         41.2504
  -7172932.44146  -5578347.27043  24435265.6954   24435256.2154
        41.0004         23.7504
 -20444253.07547 -15917821.87348  21610827.9304   21610822.5084
        47.2504         48.7504
   1898468.60546    616802.65442  25234548.4384   25234541.9884
        37.2504         17.2504
 -14666776.35847 -11405151.59547  22143066.7194   22143062.9734
        44.2504         44.0004
  -8088777.98546  -6231380.77745  24017705.6094   24017699.6334
        41.0004         35.7504
 -13799964.75747 -10737532.75947  22557433.6564   22557428.8014
        45.2504         43.0004
 20  5  5  0 59  0.0000000  0  9G16G27G 4G22G 9G31G26G 7G 3
 -24462267.75147 -18834844.58146  20425467.2114   20425459.4734
        47.5004         39.2504
  -5961676.10346  -4624149.06145  23983683.7734   23983679.7234
        39.5004         34.7504
 -28214639.34247 -21963467.17646  20262056.5554   20262050.4024
        46.7504         41.7504
  -7068824.27446  -5497224.06543  24455076.7894   24455067.3714
        41.2504         22.7504
 -20515970.03747 -15973705.22848  21597180.9694   21597175.6214
        46.5004         48.5004
   1990652.56345    688634.24243  25252090.8444   25252085.6094
        34.5004         18.5004
 -14587477.68547 -11343360.44447  22158156.8364   22158152.8284
        44.7504         43.7504
  -8163773.33446  -6289818.71745  24003434.3134   24003427.8634
        40.7504         35.2504
 -13704073.94147 -10662812.67347  22575680.7664   22575676.0394
        45.0004         43.0004
 20  5  5  0 59 30.0000000  0  9G16G27G 4G22G 9G31G26G 7G 3
 -24447194.69347 -18823099.34546  20428335.5944   20428327.8204
        47.0004         39.0004
  -6053667.19146  -4695830.41245  23966177.4844   23966173.9534
        38.5004         35.5004
 -28226127.33947 -21972418.87746  20259870.8444   20259864.2304
        47.0004         41.7504
  -6964689.73246  -5416080.32343  24474893.6884   24474883.5084
        41.7504         22.7504
 -20587429.70847 -16029388.09648  21583582.4774   21583576.7304
        47.2504         49.0004
   2082790.41245    760429.86342  25269624.0234   25269618.6484
        34.0004         17.2504
 -14507814.09847 -11281284.94347  22173316.9384   22173312.3364
        45.0004         43.5004
  -8238666.35046  -6348176.94445  23989182.4064   23989176.0744
        41.2504         35.2504
 -13607912.12347 -10587881.42947  22593980.1884   22593975.4964
        44.7504         43.0004
 20  5  5  1  0  0.0000000  0  9G16G27G 4G22G 9G31G26G 7G 3
 -24431468.20347 -18810844.94046  20431328.1644   20431320.2814
        47.2504         39.5004
  -6145492.31546  -4767382.39846  23948705.0234   23948699.8874
        40.0004         36.5004
 -28237202.61747 -21981048.98746  20257763.0394   20257756.6134
        46.7504         41.7504
  -6860530.85246  -5334917.61443  24494714.3524   24494704.4804
        40.5004         22.5004
 -20658629.87547 -16084868.76248  21570033.0314   21570028.3204
        46.7504         48.5004
   2174881.54446    832189.13243  25287149.2504   25287142.7114
        38.7504         20.2504
 -14427787.90147 -11218926.88347  22188545.0164   22188540.7774
        43.7504         43.0004
  -8313457.26847  -6406455.57446  23974951.1024   23974943.9024
        42.5004         37.0004
 -13511482.00747 -10512741.10647  22612329.6334   22612325.6884
        45.0004         43.5004
 20  5  5  1  0 30.0000000  0  9G16G27G 4G22G 9G31G26G 7G 3
 -24415089.23747 -18798082.11146  20434445.2114   20434437.2624
        46.7504         39.5004
  -6237148.04546  -4838802.38246  23931263.5634   23931259.2704
        40.5004         37.7504
 -28247864.20747 -21989356.72746  20255734.2894   20255727.7344
        47.5004         41.5004
  -6756350.69446  -5253738.32743  24514537.4144   24514529.3674
        39.7504         21.0004
 -20729568.72847 -16140145.78648  21556534.8674   21556528.9454
        46.5004         49.0004
   2266925.58846    903911.70643  25304665.2974   25304659.0864
        40.0004         22.7504
 -14347401.85347 -11156288.43147  22203841.9454   22203837.7774
        43.7504         42.7504
  -8388145.91346  -6464654.50146  23960737.2504   23960731.4344
        41.2504         36.5004
 -13414786.71947 -10437394.17047  22630730.4224   22630725.7424
        45.0004         43.5004
 20  5  5  1  1  0.0000000  0  9G16G27G 4G22G 9G31G26G 7G 3
 -24398058.35647 -18784811.29546  20437685.9144   20437678.1524
        47.0004         39.0004
  -6328630.26846  -4910087.20446  23913854.0634   23913851.2154
        40.5004         37.7504
 -28258110.28547 -21997340.70546  20253784.3594   20253777.9224
        47.0004         41.7504
  -6652150.83546  -5172543.67743  24534366.6564   24534357.8984
        39.5004         21.7504
 -20800243.54647 -16195217.08048  21543085.5234   21543079.7504
        47.2504         49.2504
   2358922.49446    975597.44243  25322172.1094   25322165.1214
        40.2504         22.0004
 -14266657.93447 -11093371.10847  22219207.2194   22219202.7854
        43.7504         43.0004
  -8462731.53347  -6522773.15146  23946545.6414   23946537.7544
        43.7504         37.5004
 -13317828.43147 -10361842.28947  22649181.1334   22649176.4304
        45.0004         42.7504
 20  5  5  1  1 30.0000000  0  9G16G27G 4G22G 9G31G26G 7G 3
 -24380377.31947 -18771033.86646  20441050.8444   20441042.8714
        46.5004         39.5004
  -6419936.47247  -4981234.83546  23896480.9844   23896475.9454
        42.5004         38.2504
 -28267940.44547 -22005000.59546  20251913.8914   20251907.5274
        46.7504         41.7504
  -6547934.71846  -5091336.41643  24554199.8754   24554189.1604
        40.7504         20.2504
 -20870653.10247 -16250081.67748  21529687.3054   21529681.7304
        46.5004         49.5004
   2450871.12546   1047245.61143  25339668.4224   25339663.1644
        37.0004         18.5004
 -14185559.46947 -11030177.51347  22234639.2344   22234635.3444
        43.5004         42.7504
  -8537214.23046  -6580811.61546  23932371.4844   23932364.0474
        41.2504         36.5004
 -13220610.88547 -10286088.39147  22667681.2274   22667676.2074
        44.5004         42.2504
 20  5  5  1  2  0.0000000  0  9G16G27G 4G22G 9G31G26G 7G 3
 -24362047.21447 -18756750.67646  20444538.2974   20444530.8134
        47.0004         39.2504
  -6511062.94146  -5052242.46446  23879137.9924   23879135.1884
        39.7504         38.0004
 -28277353.39347 -22012335.38046  20250122.4774   20250116.2934
        46.7504         41.5004
  -6443704.69746  -5010118.20743  24574033.6954   24574023.7234
        41.0004         20.2504
 -20940795.23947 -16304737.89148  21516339.5784   21516334.0744
        46.7504         49.5004
   2542771.13746   1118856.05642  25357156.6804   25357150.1294
        36.5004         16.7504
 -14104108.90147 -10966709.55947  22250139.2344   22250134.7854
        43.7504         43.0004
  -8611594.25947  -6638770.10046  23918217.4064   23918210.1334
        42.7504         37.0004
 -13123136.83847 -10210134.60647  22686229.8204   22686224.9964
        45.0004         42.0004
 20  5  5  1  2 30.0000000  0  9G16G27G 4G22G 9G31G26G 7G 3
 -24343068.96047 -18741962.43446  20448150.0474   20448142.4734
        46.7504         39.0004
  -6602005.87146  -5123107.03746  23861833.2584   23861829.2464
        40.7504         36.7504
 -28286347.42447 -22019343.73946  20248410.9454   20248404.5124
        46.7504         41.5004
  -6339462.74946  -4928890.74343  24593867.7194   24593859.7624
        38.2504         20.5004
 -21010667.37047 -16359183.71448  21503043.3204   21503037.9614
        46.5004         49.5004
   2634622.80345   1190428.70442  25374634.5084   25374629.2974
        34.7504         16.7504
 -14022308.34147 -10902968.88647  22265705.0784   22265701.1684
        43.7504         43.0004
  -8685870.93447  -6696648.01446  23904083.1484   23904076.1174
        43.0004         37.2504
 -13025408.64047 -10133982.79347  22704826.2814   22704822.1454
        45.2504         42.2504
 20  5  5  1  3  0.0000000  0  9G16G27G 4G22G 9G31G26G 7G 3
 -24323444.22947 -18726670.43946  20451884.8754   20451876.6684
        47.0004         39.7504
  -6692762.35346  -5193826.35846  23844562.1254   23844558.4344
        40.5004         37.0004
 -28294922.00947 -22026025.26247  20246779.6884   20246773.2544
        47.7504         42.0004
  -6235212.24247  -4847656.60143  24613708.4454   24613698.3674
        42.0004         20.7504
 -21080268.09047 -16413418.04348  21489798.4694   21489793.2974
        47.0004         49.5004
   2726424.64146   1261962.46042  25392105.4774   25392098.3364
        37.2504         17.7504
 -13940160.92647 -10838957.93647  22281337.3054   22281333.1374
        44.0004         42.7504
  -8760044.50347  -6754445.62146  23889968.3444   23889961.1804
        43.0004         36.5004
 -12927429.84047 -10057635.69647  22723470.5084   22723466.9224
        44.0004         42.0004
 20  5  5  1  3 30.0000000  0  9G16G27G 4G22G 9G31G26G 7G 3
 -24303174.60647 -18710875.93446  20455741.8754   20455733.8204
        47.0004         39.5004
  -6783329.21646  -5264397.84945  23827329.4534   23827324.0784
        40.5004         35.5004
 -28303076.28447 -22032379.26147  20245227.6094   20245221.2384
        47.0004         42.0004
  -6130955.68746  -4766417.80543  24633547.6484   24633538.4574
        41.5004         21.5004
 -21149595.60147 -16467439.49048  21476605.7894   21476600.3834
        47.0004         49.5004
   2818176.32446   1333457.31543  25409565.3524   25409557.6564
        41.2504         18.5004
 -13857669.51747 -10774678.94247  22297034.4384   22297030.5314
        43.5004         42.7504
  -8834115.78647  -6812163.50746  23875873.1254   23875865.4964
        42.5004         36.0004
 -12829203.57447  -9981095.77847  22742162.9144   22742159.1454
        44.7504         42.0004
 20  5  5  1  4  0.0000000  0 10G16G27G 4G22G 9G31G26G 8G 7G 3
 -24282259.94147 -18694578.79846  20459721.6024   20459714.1024
        47.0004         39.2504
  -6873702.15146  -5334818.35446  23810129.7034   23810126.6374
        38.7504         36.0004
 -28310808.20147 -22038404.15646  20243756.1884   20243749.9844
        47.5004         41.7504
  -6026694.79546  -4685175.59843  24653387.2734   24653378.5084
        39.2504         21.2504
 -21218646.97547 -16521245.76148  21463466.4534   21463460.5044
        47.0004         49.7504
   2909878.14146   1404913.27343  25427014.8834   25427008.8834
        40.0004         21.2504
 -13774835.82847 -10710133.23947  22312797.9304   22312794.0434
        43.5004         43.0004
    429593.80356    366171.44155  24991118.6484   24991115.0944
        37.5004         30.5004
  -8908083.36846  -6869800.58445  23861797.3134   23861789.4454
        41.7504         35.5004
 -12730731.90447  -9904364.65046  22760901.7974   22760897.6604
        44.5004         41.5004
 20  5  5  1  4 30.0000000  0 10G16G27G 4G22G 9G31G26G 8G 7G 3
 -24260702.27647 -18677780.62246  20463824.2894   20463816.5124
        47.2504         39.2504
  -6963878.27546  -5405085.45246  23792971.1024   23792967.0204
        41.5004         37.7504
 -28318117.29948 -22044099.56947  20242365.4694   20242359.2774
        48.0004         42.0004
  -5922432.74346  -4603932.42243  24673226.4614   24673219.2304
        39.0004         20.7504
 -21287420.82147 -16574835.78448  21450378.2664   21450373.3284
        47.7504         49.5004
   3001529.15546   1476329.53243  25444454.9534   25444449.9414
        37.5004         21.2504
 -13691663.06647 -10645323.32047  22328625.2894   22328621.2504
        43.7504         43.0004
    329345.90145    288056.19544  24972041.8054   24972038.4304
        35.7504         29.5004
  -8981947.12347  -6927356.76545  23847742.0704   23847733.7894
        43.0004         35.7504
 -12632018.39047  -9827445.07347  22779686.3754   22779682.1684
        44.2504         42.5004
 20  5  5  1  5  0.0000000  0 10G16G27G 4G22G 9G31G26G 8G 7G 3
 -24238502.43047 -18660482.04346  20468048.4534   20468040.6724
        47.0004         39.5004
  -7053853.83946  -5475196.26146  23775849.8054   23775845.5234
        41.5004         38.0004
 -28325002.03147 -22049464.31446  20241055.6414   20241049.2894
        47.2504         41.7504
  -5818171.57846  -4522690.07043  24693067.2194   24693059.4144
        38.2504         20.7504
 -21355914.59247 -16628207.55848  21437344.8674   21437339.3674
        47.0004         49.5004
   3093129.14446   1547706.03343  25461887.1564   25461881.5084
        39.0004         22.0004
 -13608153.38847 -10580250.86647  22344516.5864   22344512.4224
        43.7504         43.0004
    229017.76545    209878.49944  24952949.2584   24952946.8054
        35.0004         27.7504
  -9055706.94747  -6984831.95145  23833705.3054   23833697.7194
        42.7504         35.7504
 -12533065.50547  -9750338.95246  22798516.5234   22798511.8754
        44.5004         41.7504
 20  5  5  1  5 30.0000000  0 10G16G27G 4G22G 9G31G26G 8G 7G 3
 -24215662.21947 -18642684.48146  20472395.0784   20472387.3554
        47.0004         39.0004
  -7143625.58646  -5545148.27646  23758766.6484   23758762.5004
        41.7504         38.7504
 -28331461.52547 -22054497.70647  20239826.5164   20239820.0394
        47.5004         42.2504
  -5713913.81046  -4441450.33143  24712906.6724   24712899.7304
        37.5004         20.0004
 -21424126.58547 -16681359.76348  21424364.1094   21424358.9694
        46.7504         49.5004
   3184677.73045   1619042.51142  25479307.2974   25479301.8834
        34.7504         15.5004
 -13524309.63947 -10514918.09847  22360471.3524   22360467.4454
        44.0004         42.7504
    128611.74345    131639.96744  24933842.2814   24933838.8754
        33.7504         24.0004
  -9129363.08747  -7042226.36146  23819689.1954   23819682.0084
        43.0004         36.7504
 -12433876.41947  -9673048.79246  22817391.5554   22817387.0234
        45.0004         41.7504
 20  5  5  1  6  0.0000000  0 10G16G27G 4G22G 9G31G26G 8G 7G 3
 -24192183.18647 -18624389.12846  20476863.0084   20476855.3204
        46.7504         39.0004
  -7233190.41146  -5614939.00346  23741722.6954   23741720.2074
        41.2504         39.0004
 -28337495.02847 -22059199.15147  20238678.3054   20238671.5824
        46.5004         42.0004
  -5609662.66346  -4360215.74943  24732747.1254   24732737.5004
        39.7504         19.0004
 -21492055.01847 -16734291.01348  21411437.8134   21411432.7934
        46.5004         49.5004
   3276174.25045   1647144.44553  25496718.8134   25496712.8134
        35.2504         18.2504
 -13440134.73747 -10449327.28847  22376489.5704   22376485.0944
        43.5004         42.7504
     28130.43245     53342.85644  24914721.3914   24914719.6134
        34.2504         27.0004
  -9202915.84747  -7099540.19246  23805692.4304   23805685.2734
        43.7504         37.2504
 -12334454.42647  -9595577.12846  22836310.3364   22836306.3594
        44.7504         41.0004
 20  5  5  1  6 30.0000000  0 10G16G27G 4G22G 9G31G26G 8G 7G 3
 -24168066.41447 -18605596.84746  20481451.9224   20481443.8284
        47.5004         39.7504
  -7322544.59146  -5684565.64046  23724718.5944   23724714.2734
        40.5004         37.5004
 -28343101.12247 -22063567.55446  20237611.1254   20237605.1764
        47.0004         41.7504
  -5505420.12246  -4278987.85043  24752584.3444   24752573.9774
        40.2504         18.2504
 -21559697.50647 -16786999.45048  21398565.8914   21398560.6294
        46.7504         49.5004
   3367618.14145   1718399.36042  25514119.5394   25514115.3244
        35.0004         17.2504
 -13355631.01447 -10383480.26247  22392569.6954   22392565.9304
        43.5004         42.2504
    -72422.72845    -25010.23444  24895586.9304   24895584.4224
        35.5004         28.5004
  -9276365.06547  -7156773.35346  23791715.4844   23791708.8794
        42.5004         38.0004
 -12234802.07447  -9517925.98346  22855274.4064   22855269.5354
        44.5004         41.0004
 20  5  5  1  7  0.0000000  0 10G16G27G 4G22G 9G31G26G 8G 7G 3
 -24143314.00847 -18586309.26546  20486162.5784   20486154.6524
        47.5004         39.2504
  -7411685.26246  -5754025.88746  23707756.8834   23707752.6294
        41.0004         38.7504
 -28348279.37547 -22067602.57247  20236625.7504   20236619.5514
        47.2504         42.2504
  -5401189.49546  -4197769.22643  24772419.2584   24772408.0554
        41.2504         18.2504
 -21627052.59547 -16839483.93848  21385749.0864   21385743.3444
        47.0004         49.5004
   3459009.03646   1752433.10253  25531512.1564   25531503.3164
        41.5004         22.0004
 -13270801.59947 -10317379.45247  22408712.3984   22408708.4654
        43.0004         42.0004
   -173046.44545   -103418.35044  24876438.3444   24876436.0084
        33.7504         28.0004
  -9349710.46247  -7213925.61746  23777758.4224   23777751.6994
        43.2504         37.7504
 -12134922.95147  -9440098.10946  22874280.4064   22874275.7114
        44.0004         40.7504
 20  5  5  1  7 30.0000000  0 10G16G27G 4G22G 9G31G26G 8G 7G 3
 -24117927.23347 -18566527.36346  20490993.3914   20490985.7074
        47.0004         40.0004
  -7500608.86246  -5823316.96946  23690833.0634   23690830.6094
        40.0004         37.0004
 -28353028.52447 -22071303.22646  20235722.3284   20235716.1334
        46.5004         41.7504
  -5296972.80046  -4116561.42143  24792249.4534   24792240.3714
        40.0004         20.7504
 -21694118.11247 -16891742.79248  21372986.7974   21372981.0004
        47.0004         49.7504
   3550345.96347   1823604.75044  25548893.4844   25548887.2114
        42.0004         27.0004
 -13185648.98047 -10251026.78546  22424915.6724   22424912.3834
        43.2504         41.7504
   -273736.60046   -181878.19244  24857279.7974   24857275.9734
        37.5004         29.7504
  -9422951.99147  -7270996.95146  23763821.5474   23763814.3204
        44.2504         38.0004
 -12034819.80847  -9362095.68346  22893329.0944   22893324.9494
        43.7504         40.7504
 20  5  5  1  8  0.0000000  0 10G16G27G 4G22G 9G31G26G 8G 7G 3
 -24091905.84447 -18546250.96746  20495944.6094   20495937.3164
        47.0004         39.7504
  -7589310.73146  -5892435.32446  23673955.1564   23673950.4224
        41.0004         38.5004
 -28357346.40747 -22074667.82046  20234900.4614   20234894.2344
        46.7504         41.7504
  -5192771.55046  -4035365.64443  24812077.0634   24812069.4964
        40.2504         20.0004
 -21760890.84347 -16943773.51348  21360280.3594   21360274.7854
        47.2504         50.0004
   3641630.27445   1894735.07042  25566263.6414   25566258.0394
        32.5004         17.2504
 -13100174.73047 -10184423.49346  22441181.6564   22441178.0784
        43.0004         41.7504
   -374489.69946   -260387.13645  24838106.3594   24838103.2114
        36.2504         30.2504
  -9496088.62847  -7327986.53946  23749903.8524   23749896.8014
        43.0004         38.0004
 -11934494.42147  -9283920.10146  22912421.1254   22912416.6994
        44.5004         41.2504
 20  5  5  1  8 30.0000000  0 10G16G27G 4G22G 9G31G26G 8G 7G 3
 -24065253.11647 -18525482.61246  20501016.9924   20501009.1564
        47.0004         39.0004
  -7677789.03246  -5961379.45846  23657118.0234   23657114.7114
        41.5004         38.0004
 -28361233.51147 -22077696.75647  20234161.0704   20234154.4184
        47.2504         42.0004
  -5088589.57346  -3954184.95943  24831901.9774   24831894.8634
        37.2504         19.0004
 -21827370.22947 -16995575.63548  21347629.4534   21347623.8054
        47.2504         50.2504
   3732859.62846   1965823.06042  25583623.7424   25583617.1764
        39.0004         16.2504
 -13014382.71447 -10117572.59847  22457507.2974   22457503.1994
        42.5004         42.2504
   -475304.34446   -338943.96845  24818921.6334   24818918.7894
        37.0004         30.7504
  -9569121.64747  -7384895.38346  23736005.5314   23735998.7854
        42.7504         38.0004
 -11833951.29247  -9205574.84846  22931554.2814   22931549.4774
        44.7504         41.2504
 20  5  5  1  9  0.0000000  0 10G16G27G 4G22G 9G31G26G 8G 7G 3
 -24037969.34847 -18504222.53646  20506208.7504   20506200.9024
        47.2504         39.2504
  -7766038.97647  -6030145.68246  23640324.7664   23640319.8094
        42.0004         38.0004
 -28364687.37947 -22080388.10146  20233503.6804   20233497.2504
        47.0004         41.7504
  -4984428.12246  -3873020.31643  24851724.9924   24851715.9534
        38.7504         19.5004
 -21893552.84047 -17047146.51348  21335035.4384   21335030.2464
        47.2504         50.5004
   3824035.48345   2036869.04342  25600973.1334   25600968.7234
        31.5004         17.2504
 -12928274.27047 -10050475.13947  22473892.7734   22473889.0204
        43.0004         42.0004
   -576175.92246   -417545.17544  24799726.6414   24799723.3164
        37.0004         29.7504
  -9642049.55247  -7441722.33946  23722128.1644   23722121.2894
        43.0004         38.0004
 -11733191.99347  -9127061.15046  22950727.8134   22950723.4964
        44.5004         41.2504
 20  5  5  1  9 30.0000000  0 10G16G27G 4G22G 9G31G26G 8G 7G 3
 -24010057.83147 -18482473.30846  20511520.2424   20511512.3674
        47.0004         39.5004
  -7854058.59846  -6098732.38646  23623574.8914   23623571.6884
        41.0004         39.0004
 -28367708.60747 -22082742.32147  20232928.6884   20232922.2344
        46.7504         42.0004
  -4880291.23346  -3791874.72943  24871541.1884   24871533.2504
        38.7504         20.5004
 -21959438.19547 -17098485.75948  21322498.0084   21322492.8164
        47.2504         50.5004
   3915155.75746   2107871.75143  25618314.2344   25618308.1094
        41.5004         22.2504
 -12841853.57047  -9983134.35646  22490338.6644   22490334.4384
        43.0004         41.7504
   -677103.64846   -496190.16844  24780520.9774   24780517.3244
        37.5004         28.0004
  -9714873.54147  -7498468.29946  23708270.6804   23708263.5394
        43.7504         37.7504
 -11632221.02847  -9048382.50646  22969941.5234   22969937.3094
        44.2504         40.7504
 20  5  5  1 10  0.0000000  0 10G16G27G 4G22G 9G31G26G 8G 7G 3
 -23981518.60347 -18460234.95746  20516951.1884   20516943.1884
        47.0004         39.5004
  -7941843.66746  -6167136.29646  23606870.4924   23606866.1484
        41.2504         38.5004
 -28370295.22447 -22084757.87947  20232436.6254   20232430.1524
        46.7504         42.0004
  -4776180.26246  -3710749.29743  24891351.1564   24891345.0474
        38.2504         20.0004
 -22025023.25847 -17149591.00348  21310017.8984   21310012.5864
        47.0004         50.2504
   4006220.76446   2178831.64042  25635642.3594   25635636.2304
        36.5004         16.2504
 -12755122.30547  -9915551.57946  22506843.4304   22506839.3524
        43.0004         41.7504
   -778083.30046   -574875.59745  24761304.1644   24761302.9264
        37.7504         30.5004
  -9787592.90647  -7555132.73946  23694432.1174   23694424.7074
        43.5004         37.5004
 -11531040.37247  -8969540.45946  22989195.5634   22989191.6454
        44.2504         40.2504
 20  5  5  1 10 30.0000000  0 10G16G27G 4G22G 9G31G26G 8G 7G 3
 -23952352.89947 -18437508.44346  20522501.2974   20522493.2734
        47.0004         39.2504
  -8029389.97046  -6235354.20746  23590211.2504   23590207.0704
        40.7504         38.7504
 -28372445.55647 -22086433.48146  20232027.2814   20232021.1054
        47.0004         41.7504
  -4672097.05146  -3629645.62043  24911160.0314   24911151.2504
        38.2504         20.5004
 -22090305.36547 -17200460.17848  21297594.8674   21297589.4024
        47.0004         50.2504
   4097231.33345   2249748.79842  25652961.5704   25652956.0234
        34.5004         16.2504
 -12668082.39247  -9847728.29146  22523405.9384   22523402.3054
        43.2504         41.5004
   -879111.21146   -653598.69145  24742078.1024   24742078.2384
        36.0004         32.5004
  -9860207.29247  -7611715.38346  23680613.9144   23680606.2734
        43.5004         37.2504
 -11429652.31947  -8890536.81446  23008489.0314   23008485.0904
        43.2504         40.0004
 20  5  5  1 11  0.0000000  0 10G16G27G 4G22G 9G31G26G 8G 7G 3
 -23922563.51847 -18414295.94446  20528169.6564   20528161.9344
        47.0004         38.7504
  -8116695.48446  -6303384.45146  23573596.3054   23573593.7464
        40.7504         39.2504
 -28374159.99947 -22087769.42747  20231701.1954   20231694.8014
        46.5004         42.0004
  -4568045.86646  -3548566.82343  24930960.5164   24930951.0824
        40.0004         19.5004
 -22155283.73347 -17251092.67448  21285229.5944   21285224.7384
        46.7504         50.2504
   4188184.81646   2320621.56343  25670270.0944   25670264.0164
        41.0004         21.5004
 -12580737.82247  -9779667.61746  22540027.2734   22540023.7734
        43.0004         41.2504
   -980186.12646   -732358.29544  24722846.5944   24722841.4024
        37.7504         28.5004
  -9932716.98247  -7668216.45446  23666816.2734   23666808.8324
        43.2504         37.0004
 -11328061.17647  -8811374.92146  23027820.5784   23027816.9104
        44.2504         39.7504
 20  5  5  1 11 30.0000000  0 10G16G27G 4G22G 9G31G26G 8G 7G 3
 -23892151.77347 -18390598.48346  20533956.9534   20533949.0824
        47.0004         39.0004
  -8203756.25246  -6371223.99046  23557029.9064   23557025.5824
        41.2504         38.7504
 -28375437.01047 -22088764.52447  20231458.0234   20231451.8204
        46.5004         42.0004
  -4464028.30846  -3467514.27543  24950753.8444   24950745.6684
        41.0004         19.0004
 -22219955.81147 -17301486.50048  21272923.0704   21272917.7934
        47.0004         50.2504
   4279082.079 6                  25687566.336
        36.000
 -12493090.63147  -9711371.13046  22556706.4924   22556702.4144
        42.7504         41.2504
  -1081304.25746   -811151.66744  24703603.3594   24703600.3164
        38.5004         29.2504
 -10005122.09447  -7724636.04346  23653037.8444   23653030.1914
        43.0004         37.5004
 -11226269.37347  -8732056.66046  23047191.2344   23047187.7154
        44.2504         40.5004
 20  5  5  1 12  0.0000000  0 10G16G27G 4G22G 9G31G26G 8G 7G 3
 -23861115.19547 -18366414.14246  20539863.0784   20539855.3324
        47.0004         39.0004
  -8290565.00746  -6438867.17746  23540510.3054   23540506.3674
        40.7504         38.5004
 -28376271.81247 -22089415.03847  20231299.3364   20231293.3204
        46.7504         42.0004
  -4360042.88146  -3386486.63343  24970541.8754   24970532.3014
        40.2504         19.2504
 -22284315.72947 -17351637.09648  21260676.0394   21260670.2664
        47.5004         50.2504
   4369926.64045   2394131.77753  25704853.5554   25704848.3674
        33.0004         19.0004
 -12405139.60047  -9642837.88446  22573442.5944   22573438.8834
        42.5004         41.2504
  -1182459.29746   -889973.72645  24684356.3204   24684351.4264
        39.0004         30.7504
 -10077418.38247  -7780970.80346  23639280.6334   23639272.7704
        43.7504         38.0004
 -11124276.04947  -8652581.37846  23066600.6804   23066596.5314
        45.0004         40.7504
 20  5  5  1 12 30.0000000  0 10G16G27G 4G22G 9G31G26G 8G 7G 3
 -23829463.04947 -18341750.14546  20545886.0474   20545878.5164
        47.7504         39.2504
  -8377125.94646  -6506317.22146  23524038.9384   23524034.6844
        41.2504         39.0004
 -28376671.01647 -22089726.11647  20231223.2274   20231217.2664
        46.7504         42.0004
  -4256099.74446  -3305492.09843  24990321.5004   24990312.5984
        39.5004         19.7504
 -22348368.89647 -17401548.65348  21248486.7894   21248481.1134
        47.2504         50.2504
   4460710.61546   2464872.34743  25722129.6484   25722123.6484
        36.0004         22.5004
 -12316894.90047  -9574075.81546  22590235.0864   22590231.3364
        42.5004         41.2504
  -1283655.30346   -968827.86244  24665098.6954   24665094.5704
        38.5004         29.0004
 -10149613.17747  -7837226.49146  23625542.3984   23625535.2154
        44.0004         39.0004
 -11022091.67847  -8572957.22746  23086046.3754   23086041.5314
        44.5004         41.0004
 20  5  5  1 13  0.0000000  0 10G16G27G 4G22G 9G31G26G 8G 7G 3
 -23797189.51947 -18316601.94246  20552027.7584   20552019.9384
        47.2504         39.7504
  -8463427.72747  -6573565.38746  23507617.1644   23507611.1914
        42.2504         37.5004
 -28376625.85447 -22089690.94147  20231231.8524   20231225.6174
        47.0004         42.2504
  -4152193.45746  -3224526.20542  25010094.2664   25010085.7154
        40.2504         17.7504
 -22412105.54647 -17451213.58348  21236358.4144   21236352.5164
        47.7504         50.2504
                                  25739393.9694   25739389.7894
        28.2504         17.7504
 -12228351.34647  -9505080.86846  22607084.5634   22607080.6884
        42.2504         41.2504
  -1384882.28345  -1047705.91644  24645833.2344   24645832.5824
        34.0004         27.0004
 -10221698.91247  -7893397.19646  23611824.9384   23611818.0004
        44.0004         39.2504
 -10919711.46247  -8493180.47546  23105527.9844   23105523.9414
        44.5004         40.5004
 20  5  5  1 13 30.0000000  0 10G16G27G 4G22G 9G31G26G 8G 7G 3
 -23764307.49147 -18290979.58446  20558285.0164   20558277.1764
        47.2504         39.0004
  -8549478.54246  -6640618.00346  23491241.3754   23491236.7194
        41.2504         38.0004
 -28376146.88347 -22089317.73147  20231323.0314   20231317.2074
        47.0004         42.0004
  -4048337.81846  -3143599.77943  25029857.3364   25029849.3094
        39.2504         19.0004
 -22475535.05447 -17500639.18248  21224287.9844   21224282.7854
        47.5004         50.5004
  31424246.91456  23475419.85753  25756648.6334   25756642.5474
        40.0004         20.7504
 -12139523.04247  -9435864.03546  22623987.6484   22623984.1954
        42.5004         41.0004
  -1486148.13146  -1126614.34745  24626565.0004   24626562.4734
        38.0004         30.2504
 -10293686.97847  -7949491.78846  23598125.3134   23598119.1994
        43.7504         39.0004
 -10817149.80847  -8413262.31846  23125043.9774   23125040.5474
        42.2504         40.5004
 20  5  5  1 14  0.0000000  0 10G16G27G 4G22G 9G31G26G 8G 7G 3
 -23730807.79847 -18264875.93346  20564659.4224   20564651.8554
        47.0004         39.0004
  -8635263.92646  -6707463.76146  23474916.8134   23474912.8954
        41.2504         39.0004
 -28375222.20447 -22088597.21847  20231499.2504   20231492.8324
        47.0004         42.0004
  -3944524.40246  -3062706.29943  25049613.7894   25049604.2974
        40.5004         19.0004
 -22538644.34047 -17549815.25448  21212278.6884   21212273.3054
        47.7504         50.5004
  31514858.23847  23546026.22743  25773891.6954   25773884.6604
        42.2504         22.0004
 -12050401.53447  -9366418.73946  22640946.8524   22640943.2304
        42.5004         41.0004
  -1587439.29846  -1205542.45945  24607289.7114   24607286.8244
        38.0004         30.0004
 -10365565.87247  -8005501.31246  23584447.8204   23584440.4654
        44.0004         38.7504
 -10714398.66947  -8333196.54946  23144598.1334   23144593.7664
        44.0004         40.5004
 20  5  5  1 14 30.0000000  0 10G16G27G 4G22G 9G31G26G 8G 7G 3
 -23696696.01447 -18238295.31846  20571150.8594   20571143.3634
        47.2504         39.0004
  -8720784.11946  -6774102.84546  23458642.5554   23458638.1334
        40.7504         37.5004
 -28373854.52147 -22087531.50647  20231759.4694   20231753.2154
        47.0004         42.2504
  -3840759.14646  -2981850.26343  25069355.7424   25069350.7704
        36.0004         19.2504
 -22601434.99547 -17598743.03948  21200330.1024   21200324.5044
        47.2504         50.5004
  31605411.34746  23616587.01043  25791122.0944   25791116.5234
        37.5004         22.5004
 -11960993.10847  -9296749.86546  22657960.9304   22657957.4414
        42.5004         41.2504
  -1688756.33746  -1284490.94845  24588009.3754   24588005.7274
        36.7504         30.5004
 -10437339.11047  -8061428.50246  23570789.4614   23570782.3364
        44.0004         38.2504
 -10611464.64747  -8252988.25446  23164185.1954   23164180.8714
        43.5004         39.7504
 20  5  5  1 15  0.0000000  0 10G16G27G 4G22G 9G31G26G 8G 7G 3
 -23661973.29747 -18211238.66746  20577758.4614   20577750.6454
        47.0004         39.5004
  -8806035.44246  -6840532.47446  23442419.3364   23442416.8054
        40.5004         39.5004
 -28372042.64647 -22086119.66847  20232103.9924   20232097.9574
        46.7504         42.2504
  -3737044.48247  -2901033.77643  25089096.2974   25089086.1684
        42.0004         19.7504
 -22663904.65247 -17647420.70148  21188442.2974   21188436.9304
        47.2504         50.5004
  31695906.44745  23687102.58242  25808342.8594   25808337.9144
        33.5004         16.2504
 -11871299.99947  -9226859.15546  22675028.9144   22675024.9184
        42.5004         40.5004
  -1790095.75246  -1363456.61545  24568725.9924   24568721.7154
        38.7504         31.2504
 -10509006.63547  -8117273.32246  23557151.5164   23557144.5124
        43.2504         38.5004
 -10508350.35247  -8172639.48546  23183807.1414   23183803.3874
        43.7504         39.2504
 20  5  5  1 15 30.0000000  0 10G16G27G 4G22G 9G31G26G 8G 7G 3
 -23626641.57847 -18183707.45946  20584481.8594   20584474.0514
        47.7504         38.5004
  -8891014.52246  -6906749.84846  23426249.1094   23426245.7034
        41.2504         41.0004
 -28369785.76347 -22084361.07047  20232533.7814   20232527.7274
        47.0004         42.0004
  -3633382.69246  -2820258.40143  25108820.2424   25108812.4734
        38.7504         19.0004
 -22726051.33147 -17695846.68548  21176615.9224   21176611.2424
        47.0004         50.5004
  31786342.992 5                  25825554.227
        30.500
 -11781324.90547  -9156748.71746  22692151.0944   22692146.6214
        42.5004         40.2504
  -1891454.66346  -1442437.59145  24549437.4694   24549432.8554
        39.0004         31.5004
 -10580568.41247  -8173035.74446  23543533.5474   23543527.2894
        44.2504         39.0004
 -10405058.90147  -8092152.66846  23203462.6484   23203458.9884
        43.0004         39.0004
 20  5  5  1 16  0.0000000  0  9G16G27G 4G22G 9G26G 8G 7G 3
 -23590699.53747 -18155700.67146  20591321.5554   20591313.8094
        47.7504         39.0004
  -8975714.51347  -6972749.84246  23410131.8524   23410126.8714
        43.0004         40.7504
 -28367079.61947 -22082252.39847  20233048.5394   20233042.4304
        47.0004         42.0004
  -3529772.86946  -2739523.58943  25128538.5394   25128528.8324
        41.0004         19.2504
 -22787869.60147 -17744016.77148  21164852.6804   21164847.4654
        47.0004         50.7504
 -11691067.09347  -9086417.98146  22709326.9924   22709322.2814
        42.5004         40.0004
  -1992826.59546  -1521428.67545  24530146.9694   24530144.2304
        38.2504         32.0004
 -10652021.12947  -8228713.17646  23529937.4454   23529929.8834
        44.5004         39.2504
 -10301589.82647  -8011527.44946  23223152.5234   23223148.1134
        44.0004         39.2504
 20  5  5  1 16 30.0000000  0 10G16G27G 4G22G 9G31G26G 8G 7G 3
 -23554159.61248 -18127228.01046  20598274.6564   20598267.1334
        48.0004         38.2504
  -9060143.13847  -7038538.43546  23394064.8984   23394061.9654
        42.0004         41.0004
 -28363934.39047 -22079801.59747  20233647.1094   20233641.0514
        46.7504         42.0004
  -3426228.58646  -2658839.64643  25148239.7344   25148233.5634
        37.5004         19.0004
 -22849368.36747 -17791937.89348  21153149.9454   21153144.6254
        47.5004         51.0004
   -320765.54756  23679031.41153  25859937.4144   25859932.0824
        37.7504         22.5004
 -11600540.21247  -9015877.57146  22726552.7504   22726548.6524
        42.0004         40.5004
  -2094219.85646  -1600436.42145  24510852.1174   24510849.5394
        37.2504         33.0004
 -10723374.92847  -8284313.53346  23516358.9304   23516351.6334
        44.0004         39.5004
 -10197957.13947  -7930774.73846  23242873.6334   23242868.8484
        44.5004         38.7504
 20  5  5  1 17  0.0000000  0 10G16G27G 4G22G 9G31G26G 8G 7G 3
 -23517013.09447 -18098282.67346  20605343.4064   20605335.7074
        47.7504         38.7504
  -9144285.93546  -7104104.15046  23378052.8594   23378049.6374
        41.5004         41.0004
 -28360338.04047 -22076999.25947  20234331.5164   20234325.4734
        47.0004         42.0004
  -3322740.74646  -2578199.90343  25167934.9064   25167925.8914
        41.0004         18.2504
 -22910534.45947 -17839599.78548  21141510.5164   21141505.1484
        47.5004         51.2504
   -230507.72946  23749362.11044  25877113.9144   25877107.3524
        40.2504         26.5004
 -11509735.57047  -8945120.74046  22743832.8674   22743828.8754
        42.0004         40.0004
  -2195620.11546  -1679449.52345  24491556.9534   24491552.9454
        37.7504         30.2504
 -10794619.03447  -8339828.42546  23502801.3364   23502794.4774
        44.5004         39.0004
 -10094152.63647  -7849888.13846  23262626.5634   23262622.1954
        43.0004         39.0004
 20  5  5  1 17 30.0000000  0 10G16G27G 4G22G 9G31G26G 8G 7G 3
 -23479265.04348 -18068868.61146  20612526.6094   20612518.8324
        48.5004         38.5004
  -9228142.77446  -7169447.19846  23362095.4694   23362090.3954
        40.0004         36.2504
 -28356293.28247 -22073847.51847  20235100.8984   20235095.1214
        47.0004         42.0004
  -3219315.49046  -2497608.90843  25187614.6094   25187609.1054
        37.0004         19.7504
 -22971369.30347 -17887003.57348  21129934.0784   21129928.4844
        47.7504         51.5004
   -140309.67146  23819646.21943  25894277.4614   25894271.4694
        39.0004         21.5004
 -11418659.37147  -8874152.30846  22761163.1954   22761159.6484
        42.0004         40.7504
  -2297028.22446  -1758468.87345  24472258.9224   24472255.4964
        38.0004         31.5004
 -10865756.81447  -8395260.46646  23489264.3364   23489257.1454
        43.5004         39.0004
  -9990182.79247  -7768872.71546  23282411.7974   23282407.4024
        43.2504         39.0004
 20  5  5  1 18  0.0000000  0 10G16G27G 4G22G 9G31G26G 8G 7G 3
 -23440917.12248 -18038987.12046  20619824.1414   20619816.1374
        48.0004         38.5004
  -9311710.14946  -7234564.60346  23346193.9844   23346189.8014
        41.7504         39.2504
 -28351798.86947 -22070345.39247  20235956.4304   20235950.7344
        46.5004         42.2504
  -3115954.88246  -2417068.18043  25207285.5944   25207276.4884
        40.2504         18.5004
 -23031870.47747 -17934147.34748  21118421.1884   21118415.5664
        47.7504         51.5004
    -50171.33546  23889883.81443  25911429.5944   25911424.3834
        37.7504         21.2504
 -11327313.82747  -8802973.98746  22778545.7664   22778542.6054
        42.0004         40.7504
  -2398440.16346  -1837491.06944  24452960.9304   24452958.2114
        37.0004         29.5004
 -10936788.63947  -8450609.93646  23475747.2584   23475739.8674
        44.5004         39.0004
  -9886050.16947  -7687730.44246  23302227.4144   23302223.1524
        43.2504         38.7504
 20  5  5  1 18 30.0000000  0  9G16G27G 4G22G 9G26G 8G 7G 3
 -23401969.71548 -18008638.49046  20627235.8754   20627227.7544
        48.5004         38.5004
  -9394983.09446  -7299452.61146  23330346.3054   23330341.9264
        39.7504         36.5004
 -28346852.59547 -22066491.16747  20236897.7114   20236891.8554
        47.2504         42.2504
  -3012660.10546  -2336578.80343  25226940.6094   25226932.0864
        39.5004         18.2504
 -23092034.49647 -17981028.41148  21106972.3984   21106967.1684
        47.7504         51.5004
 -11235700.05546  -8731586.67246  22795979.6174   22795976.0004
        41.7504         40.7504
  -2499852.13746  -1916513.37245  24433664.0164   24433658.8524
        38.5004         30.0004
 -11007712.06447  -8505874.95446  23462251.4844   23462243.6254
        43.7504         39.2504
  -9781756.28747  -7606462.52346  23322073.6094   23322069.8204
        43.0004         39.7504
 20  5  5  1 19  0.0000000  0  9G16G27G 4G22G 9G26G 8G 7G 3
 -23362429.61048 -17977828.01946  20634760.2344   20634751.8284
        48.0004         39.0004
  -9477963.18447  -7364112.42146  23314557.3754   23314551.8794
        42.5004         39.0004
 -28341458.46347 -22062287.96047  20237924.3364   20237918.3524
        46.5004         42.2504
  -2909437.90845  -2256145.89842  25246581.9844   25246574.7704
        35.0004         16.7504
 -23151864.08047 -18027648.87448  21095587.0704   21095581.2274
        47.7504         51.5004
 -11143825.50446  -8659996.14646  22813462.3914   22813458.9264
        41.5004         39.7504
  -2601265.66346  -1995536.87145  24414364.8364   24414361.5474
        39.5004         32.2504
 -11078531.46847  -8561058.91046  23448774.8914   23448767.4104
        44.5004         39.5004
  -9677308.93047  -7525075.01446  23341949.0474   23341945.3364
        42.7504         39.0004
 20  5  5  1 19 30.0000000  0  9G16G27G 4G22G 9G26G 8G 7G 3
 -23322296.03448 -17946555.11346  20642396.8834   20642389.1804
        48.2504         38.7504
  -9560644.05047  -7428539.03247  23298823.4384   23298820.0164
        43.0004         42.0004
 -28335612.90848 -22057732.99047  20239036.5554   20239030.9494
        48.0004         42.0004
  -2806288.06646  -2175769.42142  25266213.0864   25266203.9534
        39.2504         15.5004
 -23211354.44847 -18074005.01048  21084266.6954   21084260.6564
        47.7504         51.2504
 -11051689.93546  -8588202.25046  22830995.6804   22830992.1954
        41.5004         40.2504
  -2702674.71946  -2074556.88345  24395067.6024   24395063.5984
        40.0004         31.5004
 -11149244.34747  -8616159.85646  23435318.3364   23435311.1564
        43.7504         39.0004
  -9572708.34547  -7443568.09646  23361854.2424   23361850.5904
        43.5004         38.5004
 20  5  5  1 20  0.0000000  0  9G16G27G 4G22G 9G26G 8G 7G 3
 -23281570.72048 -17914821.10646  20650146.9064   20650138.6524
        48.7504         38.0004
  -9643022.29647  -7492729.82646  23283146.4844   23283141.2854
        42.0004         39.0004
 -28329314.84947 -22052825.42447  20240235.0634   20240229.3324
        47.2504         42.0004
  -2703212.67046  -2115743.06552  25285827.0944   25285817.3364
        37.0004         16.2504
 -23270503.22648 -18120094.97348  21073010.8364   21073005.3014
        48.2504         51.2504
 -10959295.68047  -8516206.74846  22848577.6884   22848574.3094
        42.0004         40.2504
  -2804076.14446  -2153570.95345  24375771.2424   24375767.5984
        39.7504         33.0004
 -11219850.63047  -8671177.72346  23421882.8674   23421875.7154
        44.5004         40.2504
  -9467957.10947  -7361943.79146  23381787.6024   23381783.4614
        43.5004         39.5004
 20  5  5  1 20 30.0000000  0  9G16G27G 4G22G 9G26G 8G 7G 3
 -23240256.28048 -17882628.04146  20658008.7274   20658000.7774
        48.0004         37.7504
  -9725094.80347  -7556682.45947  23267529.4844   23267526.5044
        43.5004         43.5004
 -28322564.06348 -22047565.08446  20241519.9614   20241513.7344
        48.0004         41.7504
  -2600214.66946  -2035484.83743  25305426.3594   25305417.5594
        38.0004         19.0004
 -23329308.91848 -18165917.59248  21061820.6884   21061814.7974
        48.0004         51.0004
 -10866645.79947  -8444012.07446  22866208.5784   22866204.7624
        42.0004         39.2504
  -2905467.49946  -2232577.15245  24356477.2664   24356473.2894
        39.2504         32.0004
 -11290350.65047  -8726112.80546  23408466.5864   23408459.9224
        44.2504         40.0004
  -9363058.73747  -7280204.83346  23401749.0944   23401745.4344
        42.5004         39.0004
 20  5  5  1 21  0.0000000  0  9G16G27G 4G22G 9G26G 8G 7G 3
 -23198353.96848 -17849976.89346  20665982.3134   20665974.7504
        48.5004         38.2504
  -9806857.99446  -7620393.89246  23251969.4454   23251966.2154
        41.2504         39.7504
 -28315359.26448 -22041950.96646  20242890.6094   20242884.4224
        48.0004         41.7504
  -2497295.88746  -1955288.46943  25325012.2274   25325003.8164
        39.7504         18.2504
 -23387768.87147 -18211470.80848  21050695.4304   21050690.0234
        47.5004         51.0004
 -10773742.44146  -8371619.87246  22883887.6724   22883883.7934
        41.7504         39.2504
  -3006845.21346  -2311572.72245  24337184.9924   24337181.4654
        38.7504         32.2504
 -11360743.42947  -8780964.31646  23395070.9384   23395064.5984
        44.5004         40.2504
  -9258015.69247  -7198353.15246  23421739.0164   23421734.1954
        42.0004         38.7504
 20  5  5  1 21 30.0000000  0  9G16G27G 4G22G 9G26G 8G 7G 3
 -23155866.32348 -17816869.65346  20674067.2894   20674059.5124
        48.0004         39.5004
  -9888308.64446  -7683862.04346  23236469.7814   23236466.0164
        41.5004         39.0004
 -28307700.12547 -22035982.81946  20244348.1414   20244341.9694
        47.5004         41.7504
  -2394458.93346  -1875155.68243  25344582.8984   25344573.0044
        40.5004         18.2504
 -23445881.44448 -18256753.34248  21039637.3914   21039632.2894
        48.7504         51.2504
 -10680588.45446  -8299032.39546  22901614.2974   22901610.4654
        41.5004         39.2504
  -3108206.66046  -2390555.65445  24317896.4064   24317893.3364
        37.0004         32.0004
 -11431029.90547  -8835732.99346  23381695.9304   23381689.5824
        44.2504         40.2504
  -9152831.27946  -7116391.31846  23441754.4774   23441750.5164
        41.5004         37.5004
 20  5  5  1 22  0.0000000  0  9G16G27G 4G22G 9G26G 8G 7G 3
 -23112794.62948 -17783307.29546  20682264.0004   20682256.0904
        48.7504         38.7504
  -9969443.02647  -7747083.47846  23221030.8204   23221027.2974
        43.0004         39.5004
 -28299585.23448 -22029659.53546  20245892.2034   20245886.2114
        48.0004         41.7504
  -2291705.87046  -1795088.53043  25364134.3204   25364126.2154
        38.7504         18.5004
 -23503644.01748 -18301763.15248  21028645.3524   21028639.8524
        48.0004         51.5004
 -10587185.83747  -8226251.16646  22919388.8754   22919384.2734
        42.0004         39.7504
  -3209547.90146  -2469522.77245  24298611.0704   24298608.4454
        36.2504         31.7504
 -11501208.77047  -8890417.81746  23368341.7114   23368334.8594
        45.0004         40.5004
  -9047507.79247  -7034321.10246  23461797.8524   23461793.0234
        42.5004         37.5004
 20  5  5  1 22 30.0000000  0  9G16G27G 4G22G 9G26G 8G 7G 3
 -23069142.35048 -17749292.54346  20690570.6334   20690562.8284
        48.7504         38.7504
 -10050258.41047  -7810056.54446  23205652.4774   23205646.4494
        43.0004         38.5004
 -28291014.74248 -22022981.24047  20247523.1564   20247516.9694
        48.5004         42.0004
  -2189039.403 5                  25383670.242
        35.250
 -23561055.32048 -18346499.24348  21017720.7114   21017715.0004
        48.2504         51.5004
 -10493537.97546  -8153278.85646  22937209.0004   22937205.3754
        41.2504         39.5004
  -3310866.86146  -2548472.55345  24279331.3204   24279328.8714
        37.0004         33.0004
 -11571280.79847  -8945019.39646  23355007.7274   23355000.6524
        44.5004         40.5004
  -8942049.12647  -6952145.56146  23481864.7584   23481860.8634
        42.2504         37.7504
 20  5  5  1 23  0.0000000  0  9G16G27G 4G22G 9G26G 8G 7G 3
 -23024910.81548 -17714826.40746  20698987.5554   20698979.1524
        49.0004         38.0004
 -10130751.10047  -7872778.09046  23190334.6174   23190330.5084
        43.5004         39.7504
 -28281987.49448 -22015947.03846  20249241.3594   20249234.8754
        48.5004         41.5004
  -2086461.52746  -1655383.91153  25403191.0234   25403184.0124
        37.2504         19.2504
 -23618112.85648 -18390959.66248  21006863.0164   21006857.6454
        49.0004         51.7504
 -10399646.97547  -8080117.06546  22955076.0004   22955072.0904
        42.0004         39.2504
  -3412160.05246  -2627402.25345  24260056.3054   24260052.7194
        37.5004         32.7504
 -11641245.47747  -8999537.32446  23341694.3284   23341686.9734
        44.7504         40.7504
  -8836457.61947  -6869866.49746  23501958.1024   23501953.9064
        42.2504         37.2504
 20  5  5  1 23 30.0000000  0  9G16G27G 4G22G 9G26G 8G 7G 3
 -22980102.30048 -17679910.68946  20707514.2504   20707506.4224
        49.0004         38.5004
 -10210917.83747  -7935245.67146  23175080.2814   23175075.4734
        44.0004         40.5004
 -28272502.87548 -22008556.43447  20251046.0704   20251039.7934
        48.2504         42.0004
  -1983975.05646  -1596456.33952  25422692.5314   25422686.4224
        36.0004         17.2504
 -23674814.67048 -18435142.90148  20996072.7814   20996067.7074
        48.7504         52.0004
 -10305515.49946  -8006767.90446  22972988.6174   22972984.3524
        41.7504         39.2504
  -3513424.37946  -2706309.49145  24240786.6724   24240782.3914
        38.0004         32.2504
 -11711102.84047  -9053971.63546  23328400.0704   23328393.2814
        44.5004         40.0004
  -8730736.43047  -6787486.39046  23522076.4144   23522072.6174
        42.5004         37.2504
 20  5  5  1 24  0.0000000  0  9G16G27G 4G22G 9G26G 8G 7G 3
 -22934718.86948 -17644546.98846  20716150.7114   20716142.9024
        48.7504         37.7504
 -10290755.37147  -7997456.72146  23159885.8984   23159882.0434
        43.2504         40.5004
 -28262560.30248 -22000808.98747  20252938.1804   20252932.0124
        48.0004         42.0004
  -1881581.99845  -1516669.63942  25442178.3984   25442170.6844
        35.0004         16.2504
 -23731158.79948 -18479047.41848  20985350.8754   20985345.6724
        48.5004         52.0004
 -10211146.15446  -7933233.38446  22990946.4614   22990942.6994
        41.7504         39.5004
  -3614656.82046  -2785191.90745  24221522.7894   24221519.1954
        39.7504         33.2504
 -11780852.79647  -9108322.26346  23315127.6954   23315120.1414
        44.7504         40.0004
  -8624888.54447  -6705007.56146  23542219.0234   23542214.7974
        42.5004         37.2504
 20  5  5  1 24 30.0000000  0  9G16G27G 4G22G 9G26G 8G 7G 3
 -22888762.62448 -17608736.92846  20724895.5084   20724887.9924
        49.0004         38.2504
 -10370260.27047  -8059408.56246  23144757.7734   23144753.8404
        43.5004         41.7504
 -28252158.93148 -21992704.02946  20254917.6644   20254910.9184
        48.2504         41.7504
  -1779284.59146  -1457136.39452  25461644.0474   25461638.0514
        36.5004         17.7504
 -23787143.04448 -18522671.50748  20974697.8054   20974692.2934
        49.0004         52.0004
 -10116541.31346  -7859515.36645  23008949.0944   23008945.5784
        41.5004         32.5004
  -3715854.31046  -2864047.07945  24202265.8444   24202261.1804
        38.7504         33.0004
 -11850495.36947  -9162589.20946  23301874.3594   23301867.4384
        43.7504         40.0004
  -8518916.71547  -6622432.13746  23562383.7114   23562380.8834
        42.2504         37.7504
 20  5  5  1 25  0.0000000  0  9G16G27G 4G22G 9G26G 8G 7G 3
 -22842235.60648 -17572482.12446  20733749.4844   20733741.7464
        49.2504         38.5004
 -10449428.81947  -8121098.30146  23129692.2814   23129687.9414
        43.0004         41.0004
 -28241297.81848 -21984240.84046  20256984.5234   20256978.0044
        49.2504         41.7504
  -1677084.99246  -1377500.44242  25481096.4304   25481085.6374
        39.5004         16.7504
 -23842765.03648 -18566013.33048  20964112.8054   20964107.6604
        49.2504         52.0004
 -10021703.27347  -7785615.64045  23026996.7194   23026992.6994
        42.7504         33.5004
  -3817013.31046  -2942872.27345  24183014.9144   24183011.2774
        38.5004         32.0004
 -11920030.05647  -9216772.07746  23288642.2504   23288635.8014
        43.7504         39.7504
  -8412823.63147  -6539762.25446  23582573.5234   23582569.6804
        42.2504         38.0004
 20  5  5  1 25 30.0000000  0  9G16G27G 4G22G 9G26G 8G 7G 3
 -22795140.07048 -17535784.30946  20742711.3984   20742703.5084
        49.0004         38.7504
 -10528258.06247  -8182523.64546  23114692.3594   23114687.4534
        44.5004         41.2504
 -28229976.62548 -21975419.13946  20259138.7424   20259132.3484
        48.7504         41.5004
  -1574985.94946  -1333928.94353  25500522.2194   25500519.5594
        40.5004         18.5004
 -23898023.08148 -18609071.55148  20953597.6024   20953592.3914
        49.0004         52.0004
  -9926634.87747  -7711536.41444  23045086.9144   23045083.2464
        42.5004         28.5004
  -3918131.16146  -3021665.40645  24163772.5164   24163769.8484
        37.0004         32.2504
 -11989457.18447  -9270871.12446  23275431.8834   23275424.3834
        43.5004         40.2504
  -8306612.46347  -6457000.36446  23602784.7424   23602780.7544
        42.0004         38.0004
 20  5  5  1 26  0.0000000  0  9G16G27G 4G22G 9G26G 8G 7G 3
 -22747478.30448 -17498645.28146  20751781.3284   20751773.6844
        48.7504         38.7504
 -10606744.75347  -8243682.06246  23099756.3834   23099752.5394
        44.2504         41.0004
 -28218194.77648 -21966238.49147  20261380.4844   20261374.3984
        48.0004         42.0004
  -1472989.29446  -1276029.73653  25519929.9534   25519923.2234
        36.7504         18.2504
 -23952915.14548 -18651844.59848  20943151.9614   20943147.1094
        49.0004         52.0004
  -9831338.67947  -7637279.67144  23063221.4774   23063217.9454
        42.0004         28.7504
  -4019204.37846  -3100423.74445  24144539.6174   24144536.5984
        38.5004         32.0004
 -12058776.27247  -9324885.99546  23262240.7114   23262233.1414
        43.7504         40.2504
  -8200286.29446  -6374148.84846  23623017.3674   23623013.9774
        41.0004         37.0004
 20  5  5  1 26 30.0000000  0  9G16G27G 4G22G 9G26G 8G 7G 3
 -22699252.68548 -17461066.88046  20760958.2424   20760950.4264
        48.5004         38.7504
 -10684885.75747  -8304571.15046  23084886.6644   23084882.0354
        44.5004         40.2504
 -28205951.74248 -21956698.47446  20263710.2274   20263704.2544
        48.2504         41.7504
  -1371097.28446  -1217474.46253  25539320.1024   25539312.8094
        39.0004         19.2504
 -24007439.37348 -18694331.01248  20932776.5634   20932771.4844
        50.0004         52.2504
  -9735817.36147  -7562847.52044  23081397.8984   23081394.5634
        43.0004         27.7504
  -4120230.22146  -3179145.15245  24125315.6644   24125311.3634
        38.5004         32.2504
 -12127987.44647  -9378816.78646  23249069.7664   23249062.6564
        43.5004         40.5004
  -8093848.11546  -6291210.06246  23643272.7734   23643268.5354
        41.0004         36.2504
 20  5  5  1 27  0.0000000  0  9G16G27G 4G22G 9G26G 8G 7G 3
 -22650465.29148 -17423050.74046  20770241.9064   20770234.4964
        48.2504         38.7504
 -10762677.49547  -8365188.07646  23070082.4064   23070078.0744
        43.5004         39.5004
 -28193246.72347 -21946798.47246  20266127.9844   20266121.7034
        47.5004         41.2504
  -1269312.87946  -1138161.94243  25558689.3284   25558680.6564
        37.7504         18.5004
 -24061593.40948 -18736528.97148  20922471.0944   20922465.8794
        49.2504         52.2504
  -9640073.17447  -7488241.68944  23099618.1564   23099614.4494
        42.5004         28.7504
  -4221205.42746  -3257827.11445  24106100.0084   24106096.5514
        38.2504         33.7504
 -12197090.30447  -9432663.15946  23235919.2274   23235913.1254
        43.5004         40.5004
  -7987300.57146  -6208186.04446  23663547.7274   23663543.6844
        40.7504         36.2504
 20  5  5  1 27 30.0000000  0  9G16G27G 4G22G 9G26G 8G 7G 3
 -22601118.71848 -17384598.87246  20779632.6884   20779624.9774
        48.5004         38.0004
 -10840116.85347  -8425530.42146  23055346.9454   23055342.3554
        44.5004         40.7504
 -28180079.35348 -21936538.19646  20268634.0784   20268627.3954
        48.0004         41.2504
  -1167637.86945  -1058934.69542  25578037.3134   25578029.1414
        33.7504         16.2504
 -24115375.48448 -18778437.08648  20912236.9614   20912231.3674
        49.2504         52.0004
  -9544108.83646  -7413464.32744  23117878.7274   23117875.7344
        41.7504         28.5004
  -4322126.63346  -3336466.99445  24086895.6484   24086892.5124
        38.5004         34.7504
 -12266085.06847  -9486425.31346  23222790.6174   23222783.8054
        44.0004         41.5004
  -7880646.86846  -6125079.29146  23683844.2344   23683838.9924
        41.5004         37.2504
 20  5  5  1 28  0.0000000  0  8G16G27G 4G 9G26G 8G 7G 3
 -22551208.44148 -17345707.75846  20789130.2194   20789122.2934
        49.0004         39.0004
 -10917193.89947  -8485590.47946  23040679.0314   23040674.8284
        43.0004         40.2504
 -28166442.28347 -21925911.91946  20271228.7034   20271222.5704
        47.5004         41.0004
 -24168776.96948 -18820048.63848  20902074.8204   20902069.3674
        50.0004         52.0004
  -9447920.24347  -7338512.21444  23136183.1174   23136179.9804
        42.2504         28.0004
  -4422984.46946  -3415057.52545  24067703.0394   24067699.0004
        39.5004         35.5004
 -12334964.93447  -9540097.92746  23209683.5474   23209676.4804
        44.0004         41.2504
  -7773883.19346  -6041886.83245  23704159.0314   23704155.5704
        40.0004         35.7504
 20  5  5  1 28 30.0000000  0  8G16G27G 4G 9G26G 8G 7G 3
 -22500749.77948 -17306389.33846  20798731.9694   20798724.3364
        48.7504         38.7504
 -10993918.32247  -8545375.72046  23026079.0864   23026074.8054
        44.0004         40.5004
 -28152347.93347 -21914929.31746  20273910.9384   20273904.8714
        47.5004         41.2504
 -24221808.57348 -18861371.97448  20891983.7034   20891978.0904
        49.2504         52.0004
  -9351522.76647  -7263397.34744  23154527.5234   23154524.4534
        42.5004         28.0004
  -4523788.68646  -3493606.28745  24048519.9614   24048516.6214
        38.7504         34.5004
 -12403742.81447  -9593691.07746  23196595.1564   23196588.6174
        44.5004         41.5004
  -7667025.48846  -5958621.12946  23724494.0084   23724490.3444
        40.2504         36.7504
 20  5  5  1 29  0.0000000  0  8G16G27G 4G 9G26G 8G 7G 3
 -22449738.28948 -17266640.12846  20808439.2814   20808431.1484
        48.5004         38.0004
 -11070280.55447  -8604878.75046  23011547.7814   23011543.9184
        43.0004         40.7504
 -28137789.52247 -21903585.11746  20276681.4304   20276675.4104
        47.7504         41.7504
 -24274462.09548 -18902400.69748  20881963.6724   20881958.3554
        49.7504         52.2504
  -9254912.68047  -7188116.80344  23172911.8444   23172907.8834
        42.0004         28.5004
  -4624529.80246  -3572105.84245  24029349.4144   24029345.5474
        37.7504         33.0004
 -12472412.31247  -9647199.78046  23183527.8054   23183520.7344
        45.0004         41.5004
  -7560070.30846  -5875279.48246  23744847.6954   23744843.2424
        40.5004         36.5004
 20  5  5  1 29 30.0000000  0  8G16G27G 4G 9G26G 8G 7G 3
 -22398176.87448 -17226462.41146  20818250.9384   20818243.3284
        48.0004         37.7504
 -11146277.26047  -8664096.94546  22997086.0394   22997082.1134
        44.0004         41.0004
 -28122766.34248 -21891878.74346  20279540.1024   20279533.9534
        48.5004         41.0004
 -24326735.43548 -18943133.17548  20872016.6564   20872011.3134
        49.5004         52.0004
  -9158092.35446  -7112672.43444  23191335.6414   23191332.8594
        41.5004         27.2504
  -4725204.09646  -3650553.35645  24010192.1884   24010188.7344
        38.2504         34.0004
 -12540973.08247  -9700623.74046  23170481.6334   23170474.1174
        44.0004         40.7504
  -7453020.49346  -5791864.09046  23765218.3134   23765214.0984
        40.7504         36.5004
 20  5  5  1 30  0.0000000  0  8G16G27G 4G 9G26G 8G 7G 3
 -22346067.53547 -17185857.74546  20828167.0474   20828159.4654
        47.7504         37.7504
 -11221905.17147  -8723027.76146  22982694.8754   22982690.9144
        43.5004         41.5004
 -28107277.90647 -21879809.84046  20282487.4614   20282481.5164
        47.7504         41.0004
 -24378626.55948 -18983567.82848  20862142.1024   20862136.5784
        49.5004         52.2504
  -9061064.39746  -7037066.27044  23209799.7274   23209796.6214
        41.0004         27.5004
  -4825808.91646  -3728946.75245  23991047.2344   23991044.2934
        37.7504         33.5004
 -12609424.92447  -9753962.84046  23157455.2664   23157448.1724
        44.5004         41.0004
  -7345878.96146  -5708377.22846  23785606.4384   23785602.5704
        40.7504         37.0004
 20  5  5  1 30 30.0000000  0  8G16G27G 4G 9G26G 8G 7G 3
 -22293412.37548 -17144827.76046  20838187.1724   20838179.5704
        48.0004         38.5004
 -11297160.70347  -8781668.43446  22968373.7734   22968370.3134
        43.5004         41.2504
 -28091323.32047 -21867377.70946  20285523.4384   20285517.0634
        47.2504         41.2504
 -24430133.06848 -19023702.76948  20852340.4844   20852335.4384
        49.5004         52.2504
  -8963830.75346  -6961299.84744  23228303.0864   23228300.2274
        41.2504         28.5004
  -4926340.70146  -3807283.16345  23971917.2584   23971913.3914
        37.7504         33.2504
 -12677767.59847  -9807216.87546  23144449.6254   23144443.1174
        44.0004         40.7504
  -7238648.21946  -5624820.86246  23806012.0944   23806008.0514
        40.2504         36.0004
 20  5  5  1 31  0.0000000  0  8G16G27G 4G 9G26G 8G 7G 3
 -22240214.22348 -17103374.67046  20848310.4844   20848303.0004
        48.0004         37.5004
 -11372041.21647  -8840016.85546  22954125.3204   22954121.1374
        44.0004         41.5004
 -28074902.70847 -21854582.44246  20288648.3364   20288642.2384
        47.0004         41.0004
 -24481253.60648 -19063536.96148  20842612.6724   20842607.2304
        49.2504         52.2504
  -8866394.67546  -6885375.68444  23246844.3364   23246840.7344
        41.0004         27.0004
  -5026796.80346  -3885560.63745  23952800.9694   23952797.2464
        38.5004         33.7504
 -12746001.25747  -9860385.96046  23131465.2114   23131458.6764
        44.0004         40.7504
  -7131331.84046  -5541197.75845  23826434.1094   23826429.6334
        41.0004         35.2504
 20  5  5  1 31 30.0000000  0  8G16G27G 4G 9G26G 8G 7G 3
 -22186475.58747 -17061500.42246  20858536.5314   20858528.3874
        47.5004         37.5004
 -11446543.53847  -8898070.61746  22939946.6564   22939943.2704
        42.5004         41.5004
 -28058015.58947 -21841423.64546  20291861.9144   20291855.7974
        47.5004         41.0004
 -24531986.21048 -19103068.86848  20832958.3914   20832953.2234
        49.5004         52.2504
  -8768758.58746  -6809295.65444  23265423.6254   23265420.7114
        40.2504         26.7504
  -5127174.19146  -3963776.77446  23933700.4534   23933697.3634
        38.7504         36.0004
 -12814126.02347  -9913470.19846  23118501.9694   23118494.9454
        44.7504         41.0004
  -7023932.71347  -5457510.16145  23846871.3594   23846866.9414
        42.0004         35.2504
 20  5  5  1 32  0.0000000  0  8G16G27G 4G 9G26G 8G 7G 3
 -22132198.46348 -17019206.57146  20868865.2584   20868857.3954
        48.0004         37.2504
 -11520663.87247  -8955826.72246  22925842.7814   22925838.1804
        43.5004         41.0004
 -28040661.00947 -21827900.61346  20295163.9224   20295158.5204
        47.2504         41.0004
 -24582328.28848 -19142296.46648  20823378.6724   20823373.5594
        49.5004         52.5004
  -8670924.45646  -6733061.31244  23284041.9304   23284037.4224
        41.5004         27.2504
  -5227469.13146  -4041928.63246  23914614.4774   23914611.8714
        39.5004         36.2504
 -12882141.47747  -9966469.25246  23105559.3364   23105551.7384
        43.7504         41.2504
  -6916453.24346  -5373759.95746  23867323.2194   23867319.6604
        40.7504         36.0004
 20  5  5  1 32 30.0000000  0  8G16G27G 4G 9G26G 8G 7G 3
 -22077385.99547 -16976495.56646  20879295.4694   20879287.6764
        47.5004         37.7504
 -11594399.95247  -9013283.39946  22911811.6334   22911807.1094
        43.2504         41.2504
 -28022839.36247 -21814013.62646  20298555.5004   20298549.9104
        47.7504         41.2504
 -24632278.78748 -19181218.93848  20813873.6564   20813868.3404
        49.7504         52.7504
  -8572895.66246  -6656675.28544  23302695.4454   23302692.0664
        41.0004         26.0004
  -5327679.09546  -4120014.31046  23895544.9454   23895541.6844
        39.7504         36.0004
 -12950047.83847 -10019383.30946  23092637.6334   23092629.4454
        44.2504         41.2504
  -6808897.15246  -5289950.05346  23887790.2274   23887787.0824
        40.0004         36.0004
 20  5  5  1 33  0.0000000  0  8G16G27G 4G 9G26G 8G 7G 3
 -22022039.69847 -16933368.60046  20889827.5234   20889819.8054
        47.2504         37.2504
 -11667747.85947  -9070437.61346  22897853.9384   22897849.4804
        43.0004         41.0004
 -28004549.47247 -21799761.77746  20302035.9614   20302030.4384
        46.5004         41.7504
 -24681834.88348 -19219834.08748  20804443.3204   20804437.9774
        49.7504         52.7504
  -8474673.85546  -6580138.84944  23321386.1484   23321382.9414
        40.7504         26.5004
  -5427800.13246  -4198030.64146  23876492.1414   23876489.8914
        39.7504         36.0004
 -13017844.47147 -10072211.85146  23079735.6564   23079728.7624
        44.2504         41.5004
  -6701266.62346  -5206082.16246  23908273.2424   23908268.6414
        41.5004         36.0004
 20  5  5  1 33 30.0000000  0  8G16G27G 4G 9G26G 8G 7G 3
 -21966162.00547 -16889827.54646  20900460.9694   20900452.7734
        47.5004         37.7504
 -11740704.10347  -9127286.62546  22883970.4224   22883966.9384
        43.5004         41.5004
 -27985790.68847 -21785144.56246  20305605.8914   20305599.3874
        46.7504         41.0004
 -24730994.48748 -19258140.28448  20795088.6414   20795083.5704
        49.5004         52.7504
  -8376261.34946  -6503453.82844  23340113.8134   23340110.5904
        41.0004         25.7504
  -5527828.92046  -4275975.11545  23857457.5234   23857454.0044
        38.0004         33.7504
 -13085531.16847 -10124954.72747  23066855.4774   23066848.6804
        44.5004         42.2504
  -6593564.33746  -5122158.31945  23928767.4454   23928764.1804
        40.5004         35.7504
 20  5  5  1 34  0.0000000  0  9G16G30G27G 4G 9G26G 8G 7G 3
 -21909755.59947 -16845874.51246  20911194.7894   20911186.6484
        47.5004         37.5004
   -138554.27655    -96977.51654  25667059.5864   25667055.3794
        32.5004         24.5004
 -11813265.88247  -9183828.25747  22870162.5474   22870158.5634
        43.7504         42.2504
 -27966562.95847 -21770161.92846  20309264.7584   20309258.4024
        47.0004         41.0004
 -24779755.87648 -19296136.17948  20785809.9144   20785804.5044
        50.0004         52.7504
  -8277660.86846  -6426622.31944  23358876.7814   23358873.6994
        41.2504         26.2504
  -5627762.87746  -4353845.71845  23838440.5944   23838438.2304
        38.5004         34.5004
 -13153107.91247 -10177611.91647  23053995.7974   23053988.9734
        44.0004         42.0004
  -6485793.44646  -5038181.09545  23949275.9304   23949272.2384
        40.7504         35.5004
 20  5  5  1 34 30.0000000  0  9G16G30G27G 4G 9G26G 8G 7G 3
 -21852828.99348 -16801516.12646  20922027.5474   20922019.7074
        48.2504         37.5004
   -224919.86445   -164275.41244  25650624.5944   25650621.3714
        35.5004         24.7504
 -11885436.10647  -9240064.78147  22856429.2424   22856424.7854
        44.0004         42.0004
 -27946871.91247 -21754818.26446  20313011.6884   20313005.4694
        47.5004         41.2504
 -24828123.15248 -19333824.96248  20776605.8444   20776600.6094
        50.0004         52.7504
  -8178880.98446  -6349651.04244  23377674.0554   23377671.4884
        40.7504         26.0004
  -5727604.66246  -4431644.45845  23819441.6254   23819436.9264
        38.0004         33.2504
 -13220580.77847 -10230188.16847  23041156.2734   23041149.4224
        44.2504         42.0004
  -6377962.97846  -4954157.38645  23969794.5234   23969791.8324
        39.7504         35.2504
 20  5  5  1 35  0.0000000  0  9G16G30G27G 4G 9G26G 8G 7G 3
 -21795373.13747 -16756745.33946  20932960.6254   20932953.0864
        47.0004         37.2504
   -311255.60645   -231550.14744  25634196.5784   25634191.8404
        35.0004         27.5004
 -11957199.63947  -9295984.39746  22842772.7424   22842768.7894
        43.7504         41.5004
 -27926705.19547 -21739103.94146  20316849.2504   20316843.3834
        47.0004         41.0004
 -24876082.33948 -19371195.76748  20767479.3754   20767474.1174
        50.2504         52.7504
  -8079912.07546  -6272532.45044  23396507.3134   23396504.1094
        40.7504         27.5004
  -5827338.81246  -4509359.38445  23800462.7114   23800458.3524
        39.5004         34.2504
 -13287937.89247 -10282674.20047  23028338.3754   23028331.6844
        44.2504         42.0004
  -6270063.73446  -4870080.13345  23990327.5704   23990324.0664
        40.5004         35.2504
 20  5  5  1 35 30.0000000  0  9G16G30G27G 4G 9G26G 8G 7G 3
 -21737396.01247 -16711568.37246  20943993.7664   20943985.6254
        47.2504         37.7504
   -397567.18745   -298806.06144  25617771.8444   25617767.7304
        34.7504         27.0004
 -12028559.03247  -9351589.11746  22829193.2274   22829189.1054
        43.5004         41.7504
 -27906068.20047 -21723023.17346  20320775.9454   20320771.0084
        46.7504         41.0004
 -24923637.24548 -19408251.54748  20758430.0164   20758424.6174
        49.7504         52.7504
  -7980762.41146  -6195273.02244  23415375.0314   23415372.0864
        40.5004         26.7504
  -5926968.02946  -4586992.47845  23781503.1094   23781501.0434
        38.5004         34.0004
 -13355184.44647 -10335074.11046  23015542.0864   23015534.8324
        44.5004         41.7504
  -6162104.44346  -4785956.05245  24010871.8984   24010867.5744
        39.7504         34.5004
 20  5  5  1 36  0.0000000  0  9G16G30G27G 4G 9G26G 8G 7G 3
 -21678900.59547 -16665987.53846  20955124.6174   20955116.9774
        47.7504         37.7504
   -483854.92345   -366043.24144  25601351.8204   25601348.2274
        34.0004         27.2504
 -12099511.84847  -9406877.00647  22815691.6644   22815687.6724
        43.5004         42.0004
 -27884961.17647 -21706576.15046  20324793.2034   20324787.0824
        47.0004         40.7504
 -24970786.54748 -19444991.26948  20749457.6484   20749452.3914
        50.0004         52.7504
  -7881434.94546  -6117875.03244  23434275.4304   23434273.4454
        40.2504         26.2504
  -6026490.06446  -4664542.13146  23762564.9774   23762562.5124
        39.5004         36.0004
 -13422321.03847 -10387388.33347  23002766.3754   23002758.8954
        44.7504         42.0004
  -6054088.43946  -4701787.77545  24031426.0864   24031422.3634
        39.7504         34.2504
 20  5  5  1 36 30.0000000  0  9G16G30G27G 4G 9G26G 8G 7G 3
 -21619888.96147 -16620004.46046  20966354.5474   20966347.3204
        47.7504         38.0004
   -570118.07646   -433261.36244  25584937.1884   25584932.8554
        36.5004         28.5004
 -12170054.37347  -9461845.19747  22802267.7814   22802263.8014
        43.2504         42.0004
 -27863383.28547 -21689762.22446  20328899.0864   20328893.2304
        46.2504         40.7504
 -25017527.72548 -19481412.97048  20740563.2504   20740557.7974
        50.5004         52.5004
  -7781931.65346  -6040340.06444  23453211.2424   23453208.2814
        41.2504         26.0004
  -6125900.64446  -4742004.88046  23743648.1724   23743645.9804
        39.5004         37.5004
 -13489346.92647 -10439616.28647  22990011.6564   22990004.7894
        44.0004         42.0004
  -5946018.29446  -4617577.32645  24051991.8984   24051987.4924
        41.0004         33.7504
 20  5  5  1 37  0.0000000  0  9G16G30G27G 4G 9G26G 8G 7G 3
 -21560363.46448 -16573620.97246  20977681.9694   20977674.1884
        48.0004         37.5004
   -656356.22645   -500460.00843  25568525.9534   25568521.5044
        35.2504         23.0004
 -12240183.28647  -9516491.09747  22788922.5234   22788918.5824
        42.7504         42.0004
 -27841333.91247 -21672580.91646  20333095.0704   20333089.4694
        47.5004         41.0004
 -25063858.62348 -19517514.97648  20731746.6024   20731741.2344
        50.0004         52.5004
  -7682254.72546  -5962669.78544  23472179.2504   23472175.9884
        41.0004         24.0004
  -6225196.96446  -4819378.61645  23724752.3754   23724748.5744
        39.5004         35.5004
 -13556261.88147 -10491757.79947  22977277.9534   22977271.2304
        43.7504         42.2504
  -5837896.44646  -4533326.56245  24072565.8834   24072562.1564
        39.7504         34.2504
 20  5  5  1 37 30.0000000  0  9G16G30G27G 4G 9G26G 8G 7G 3
 -21500327.19648 -16526839.47946  20989106.7274   20989098.6414
        48.0004         37.7504
   -742569.41145   -567639.22344  25552120.4304   25552115.5044
        35.0004         24.2504
 -12309895.87247  -9570812.58147  22775656.6884   22775652.2194
        43.0004         42.0004
 -27818813.10747 -21655032.25046  20337380.7424   20337374.2704
        46.7504         41.2504
 -25109777.64548 -19553296.04348  20723008.5314   20723003.2664
        49.0004         52.5004
  -7582406.85546  -5884866.30144  23491179.1954   23491176.5124
        41.0004         24.5004
  -6324376.00146  -4896660.93145  23705878.6254   23705875.8094
        38.7504         35.5004
 -13623066.55447 -10543813.37647  22964565.4844   22964558.7074
        44.2504         42.2504
  -5729726.13346  -4449038.04745  24093149.4384   24093146.8754
        38.7504         33.5004
 20  5  5  1 38  0.0000000  0  9G16G30G27G 4G 9G26G 8G 7G 3
 -21439781.95648 -16479661.38946  21000627.7894   21000620.0864
        48.0004         37.7504
   -828757.38946   -634798.71244  25535719.0784   25535715.4224
        36.0004         26.5004
 -12379188.79547  -9624807.05347  22762470.6094   22762466.7734
        43.2504         42.0004
 -27795820.45447 -21637115.91746  20341755.4534   20341750.5044
        46.5004         41.0004
 -25155282.62748 -19588754.47448  20714348.9924   20714343.8634
        49.0004         52.5004
  -7482390.31746  -5806931.39644  23510212.2504   23510208.6844
        41.0004         24.2504
  -6423433.87146  -4973848.84245  23687029.4064   23687024.8874
        38.7504         34.2504
 -13689759.57547 -10595781.95147  22951874.0474   22951867.1294
        44.5004         42.0004
  -5621510.10246  -4364713.93145  24113743.3594   24113740.4654
        38.2504         34.2504
 20  5  5  1 38 30.0000000  0  9G16G30G27G 4G 9G26G 8G 7G 3
 -21378731.29447 -16432089.46746  21012245.3134   21012237.4454
        47.5004         37.0004
   -914920.47846   -701938.92544  25519323.3444   25519318.6454
        37.2504         28.5004
 -12448059.73447  -9678472.71046  22749365.0314   22749360.8484
        43.5004         41.7504
 -27772356.34147 -21618832.21346  20346220.8754   20346215.0514
        46.7504         40.5004
 -25200372.44348 -19623889.41048  20705768.9774   20705763.6024
        49.7504         52.7504
  -7382208.22646  -5728867.46944  23529275.5164   23529272.6954
        41.0004         24.7504
  -6522368.48946  -5050940.67946  23668202.4844   23668200.9964
        39.2504         36.0004
 -13756341.91047 -10647664.28047  22939204.5084   22939196.7154
        45.2504         42.2504
  -5513251.80346  -4280356.88645  24134344.2034   24134341.1374
        38.2504         34.0004
 20  5  5  1 39  0.0000000  0  9G16G30G27G 4G 9G26G 8G 7G 3
 -21317177.53947 -16384125.51146  21023958.5004   21023950.7894
        47.7504         37.2504
  -1001057.89346   -769059.05344  25502931.5314   25502927.8244
        37.0004         28.5004
 -12516504.88947  -9731806.56747  22736340.1804   22736336.4384
        43.5004         42.0004
 -27748419.83147 -21600180.39646  20350776.3284   20350770.3364
        46.5004         40.7504
 -25245044.39248 -19658698.72548  20697268.5554   20697263.0744
        50.0004         52.7504
  -7281862.26546  -5650675.85144  23548371.1564   23548367.6644
        41.5004         24.5004
  -6621175.57646  -5127933.22846  23649400.3914   23649398.4574
        39.5004         37.0004
 -13822812.95347 -10699459.89647  22926555.7034   22926547.9774
        45.2504         42.5004
  -5404953.53646  -4195968.65145  24154953.3674   24154949.0984
        39.2504         33.7504
 20  5  5  1 39 30.0000000  0  9G16G30G27G 4G 9G26G 8G 7G 3
 -21255122.97647 -16335771.31046  21035767.3444   21035759.3874
        47.2504         37.2504
  -1087169.61645   -836159.16444  25486545.0784   25486540.9774
        34.5004         26.0004
 -12584521.54447  -9784806.54247  22723396.7894   22723393.6764
        43.7504         42.5004
 -27724010.86747 -21581160.44546  20355420.9614   20355414.7424
        46.2504         40.5004
 -25289296.82248 -19693181.15148  20688847.1094   20688841.9224
        50.0004         53.0004
  -7181355.11447  -5572358.64244  23567497.9384   23567493.5594
        42.2504         26.0004
  -6719852.28946  -5204824.17445  23630623.6484   23630618.2814
        39.5004         35.2504
 -13889172.62947 -10751168.72947  22913927.2424   22913919.7894
        45.0004         42.5004
  -5296618.18146  -4111551.57145  24175568.6564   24175565.3444
        39.2504         34.2504
 20  5  5  1 40  0.0000000  0  9G16G30G27G 4G 9G26G 8G 7G 3
 -21192569.98047 -16287028.72546  21047670.6564   21047662.9454
        47.7504         37.0004
  -1173255.01846   -903238.73144  25470164.1254   25470160.1374
        37.0004         27.7504
 -12652106.14947  -9837469.85347  22710536.4064   22710531.9694
        43.2504         42.7504
 -27699128.84647 -21561771.86846  20360155.8054   20360150.0274
        46.2504         41.0004
 -25333127.44448 -19727334.88548  20680506.5164   20680501.2854
        49.7504         53.0004
  -7080688.63546  -5493917.28444  23586653.6174   23586650.0784
        40.7504         25.2504
  -6818394.93746  -5281610.65846  23611871.0944   23611866.7814
        40.5004         36.2504
 -13955420.77247 -10802790.64747  22901320.9144   22901313.3914
        44.0004         42.2504
  -5188248.35046  -4027107.59245  24196191.4454   24196186.8324
        39.5004         34.2504
 20  5  5  1 40 30.0000000  0  9G16G30G27G 4G 9G26G 8G 7G 3
 -21129521.58647 -16237900.11846  21059668.2894   21059661.0234
        47.7504         36.5004
  -1259314.10745   -970297.90145  25453787.0864   25453783.5744
        35.5004         30.0004
 -12719255.94947  -9889794.35947  22697758.0554   22697753.9574
        44.0004         42.2504
 -27673773.83247 -21542014.72446  20364980.7274   20364974.8014
        46.5004         40.2504
 -25376534.57748 -19761158.62348  20672246.6644   20672241.0984
        48.7504         53.2504
  -6979865.53246  -5415353.85544  23605838.9144   23605836.0784
        41.0004         24.2504
  -6916800.73446  -5358290.48245  23593144.7424   23593139.9614
        40.5004         34.7504
 -14021556.89247 -10854325.27347  22888735.1804   22888728.2034
        44.5004         42.2504
  -5079847.06346  -3942639.10245  24216819.8134   24216815.3914
        39.5004         33.7504
 20  5  5  1 41  0.0000000  0  9G16G30G27G 4G 9G26G 8G 7G 3
 -21065980.78348 -16188387.82046  21071759.3524   21071751.7664
        48.0004         37.5004
  -1345347.43745  -1037336.87844  25437414.2814   25437411.8404
        31.0004         24.5004
 -12785968.52947  -9941778.17247  22685063.4304   22685059.0044
        44.0004         42.7504
 -27647946.12147 -21521889.25446  20369895.2034   20369889.6134
        46.2504         40.5004
 -25419516.91248 -19794651.35548  20664067.1484   20664062.0394
        48.5004         53.2504
  -6878888.65447  -5336670.64144  23625055.4224   23625051.0864
        42.5004         25.2504
  -7015066.89246  -5434861.46546  23574445.0474   23574443.1094
        39.5004         37.0004
 -14087581.65847 -10905773.13547  22876171.1724   22876164.5234
        44.0004         42.5004
  -4971417.72346  -3858148.75545  24237452.1484   24237448.7934
        39.0004         33.7504
 20  5  5  1 41 30.0000000  0  9G16G30G27G 4G 9G26G 8G 7G 3
 -21001949.32148 -16138493.19446  21083944.5084   21083936.8134
        48.0004         37.2504
  -1431353.60146  -1104354.67944  25421050.2504   25421045.3054
        37.5004         27.0004
 -12852239.94247  -9993418.21847  22672451.9064   22672447.9964
        43.5004         42.7504
 -27621644.64147 -21501394.61246  20374900.5164   20374894.8094
        46.2504         41.0004
 -25462071.64348 -19827810.89248  20655969.2034   20655964.1604
        49.0004         53.2504
  -6777759.54747  -5257868.80144  23644300.4774   23644296.1524
        42.5004         25.7504
  -7113189.48646  -5511320.64146  23555773.5554   23555770.4614
        40.2504         37.7504
 -14153494.09547 -10957133.46647  22863628.1724   22863621.6024
        44.0004         42.5004
  -4862962.21846  -3773638.00245  24258090.6884   24258087.2704
        39.0004         33.0004
 20  5  5  1 42  0.0000000  0  9G16G30G27G 4G 9G26G 8G 7G 3
 -20937430.52048 -16088218.81546  21096222.1954   21096214.4884
        48.5004         37.0004
  -1517333.09546  -1171351.78345  25404688.7664   25404684.6994
        37.0004         30.0004
 -12918067.83247 -10044712.65247  22659925.7424   22659921.5984
        43.5004         43.5004
 -27594869.83947 -21480531.14746  20379995.6804   20379989.8554
        46.0004         40.5004
 -25504197.47248 -19860636.22648  20647952.9844   20647947.6524
        50.2504         53.2504
  -6676481.11746  -5178950.57144  23663571.5234   23663569.0554
        41.7504         26.5004
  -7211165.64746  -5587665.69846  23537129.6334   23537125.4534
        40.0004         36.7504
 -14219294.51047 -11008406.50647  22851106.8444   22851100.0274
        44.5004         43.0004
  -4754483.94146  -3689109.55045  24278734.1564   24278729.8444
        40.0004         33.0004
 20  5  5  1 42 30.0000000  0  9G16G30G27G 4G 9G26G 8G 7G 3
 -20872426.35748 -16037566.24146  21108592.2424   21108584.2114
        48.5004         37.0004
  -1603285.24345  -1238327.46844  25388332.2114   25388327.7194
        34.5004         28.0004
 -12983448.63347 -10095658.72347  22647484.1254   22647480.1564
        43.5004         42.7504
 -27567620.92847 -21459298.23646  20385180.9924   20385175.1844
        45.7504         40.2504
 -25545891.97048 -19893125.45448  20640018.9774   20640013.6884
        50.0004         53.5004
  -6575055.11946  -5099917.37444  23682871.7274   23682869.2114
        41.2504         24.7504
  -7308991.33846  -5663893.46046  23518513.1884   23518509.1334
        39.7504         36.0004
 -14284981.98847 -11059591.54147  22838607.3594   22838600.0004
        44.5004         43.0004
  -4645985.21346  -3604565.09745  24299379.3284   24299376.2424
        38.2504         33.0004
 20  5  5  1 43  0.0000000  0  9G16G30G27G 4G 9G26G 8G 7G 3
 -20806940.07448 -15986537.98246  21121053.6564   21121045.9804
        48.0004         36.5004
  -1689210.30346  -1305282.09544  25371981.5164   25371978.2384
        36.0004         29.7504
 -13048380.10747 -10146254.64947  22635128.0164   22635123.9924
        43.2504         42.5004
 -27539898.52647 -21437696.37946  20390456.4384   20390450.2624
        46.0004         40.5004
 -25587153.98148 -19925277.67548  20632167.1174   20632162.0084
        50.0004         53.5004
  -6473484.65046  -5020771.62144  23702200.2114   23702197.9414
        39.7504         24.7504
  -7406664.18646  -5740002.13146  23499927.1174   23499924.2194
        40.0004         37.2504
 -14350557.17247 -11110689.08547  22826128.8984   22826121.5634
        45.0004         43.0004
  -4537469.56246  -3520007.51045  24320030.5164   24320026.1954
        40.2504         33.2504
 20  5  5  1 43 30.0000000  0  9G16G30G27G 4G 9G26G 8G 7G 3
 -20740974.18048 -15935136.00646  21133606.2894   21133598.8284
        48.7504         36.5004
  -1775107.85845  -1372215.35244  25355635.4614   25355631.8404
        35.0004         28.2504
 -13112858.88047 -10196497.84047  22622857.9064   22622854.0784
        43.2504         42.7504
 -27511702.09347 -21415725.15246  20395822.2734   20395816.0864
        46.2504         40.5004
 -25627981.27448 -19957091.14948  20624397.9534   20624392.9024
        50.0004         53.5004
  -6371771.62746  -4941514.77143  23721557.1804   23721553.3014
        41.0004         22.0004
  -7504180.57446  -5815988.91446  23481370.5554   23481367.1604
        41.2504         38.0004
 -14416019.86147 -11161698.97347  22813671.5554   22813664.3794
        44.5004         43.0004
  -4428939.30246  -3435438.49345  24340681.7894   24340679.6294
        37.5004         32.2504
 20  5  5  1 44  0.0000000  0  9G16G30G27G 4G 9G26G 8G 7G 3
 -20674531.22248 -15883362.29246  21146250.0944   21146242.6804
        48.2504         37.0004
  -1860977.42146  -1439126.75644  25339294.7814   25339291.0864
        36.5004         29.5004
 -13176881.94047 -10246385.92347  22610674.5864   22610670.1484
        44.0004         42.5004
 -27483031.39547 -21393384.35946  20401277.7664   20401271.8204
        46.0004         40.5004
 -25668371.83548 -19988564.32748  20616711.9144   20616706.7584
        48.5004         53.2504
  -6269918.23447  -4862148.53243  23740938.4924   23740934.9654
        42.0004         23.7504
  -7601536.78446  -5891850.90846  23462843.7034   23462840.9804
        40.7504         37.5004
 -14481369.79247 -11212620.98747  22801236.1484   22801228.7734
        44.5004         42.7504
  -4320397.16046  -3350860.28745  24361339.5234   24361333.9494
        40.5004         32.7504
 20  5  5  1 44 30.0000000  0  9G16G30G27G 4G 9G26G 8G 7G 3
 -20607614.40748 -15831219.33346  21158984.2814   21158976.5824
        48.2504         36.5004
  -1946819.19746  -1506016.44944  25322960.1174   25322955.7664
        37.0004         28.0004
 -13240446.67847 -10295916.86547  22598578.4384   22598574.3984
        44.0004         43.0004
 -27453886.69847 -21370674.21546  20406823.9694   20406817.6414
        46.5004         40.0004
 -25708324.19948 -20019696.04148  20609109.2584   20609103.9694
        49.2504         53.2504
  -6167927.15947  -4782675.02044  23760347.2034   23760343.5354
        42.0004         26.2504
  -7698730.56346  -5967586.29346  23444347.9534   23444343.5864
        39.0004         36.5004
 -14546606.53447 -11263454.80147  22788821.8914   22788814.5824
        45.0004         42.5004
  -4211846.31746  -3266275.23845  24381993.7974   24381991.3714
        38.5004         33.7504
 20  5  5  1 45  0.0000000  0  9G16G30G27G 4G 9G26G 8G 7G 3
 -20540225.76648 -15778708.71446  21171807.9144   21171800.4024
        48.5004         37.2504
  -2032632.52046  -1572884.05044  25306630.3054   25306625.9414
        37.0004         27.5004
 -13303549.75547 -10345088.08647  22586570.4614   22586566.8164
        43.7504         43.2504
 -27424267.48147 -21347594.32246  20412460.3834   20412454.1374
        45.7504         40.0004
 -25747836.07848 -20050484.53248  20601589.9304   20601584.6684
        48.7504         53.0004
  -6065800.28846  -4703095.68544  23779780.1414   23779777.1484
        41.2504         24.5004
  -7795757.87746  -6043191.98846  23425885.2734   23425880.4024
        40.5004         36.2504
 -14611729.83047 -11314200.23447  22776429.2504   22776422.1914
        44.0004         42.7504
  -4103289.08346  -3181685.22245  24402651.6254   24402648.7624
        38.0004         33.0004
 20  5  5  1 45 30.0000000  0  9G16G30G27G 4G 9G26G 8G 7G 3
 -20472368.27548 -15725832.75946  21184720.5004   21184713.4844
        48.2504         36.5004
  -2118417.51246  -1639729.57744  25290305.3834   25290301.6254
        36.7504         27.5004
 -13366188.74447 -10393897.67047  22574650.8444   22574646.7774
        43.5004         42.5004
 -27394174.08247 -21324144.94046  20418186.5944   20418181.0084
        46.2504         40.2504
 -25786906.07248 -20080928.68448  20594155.3284   20594150.0004
        48.2504         53.0004
  -5963540.32546  -4623412.63943  23799240.5634   23799237.3834
        40.7504         23.2504
  -7892615.67346  -6118665.54746  23407452.9774   23407450.6254
        40.0004         37.2504
 -14676739.91047 -11364857.41047  22764058.2814   22764051.2114
        44.5004         43.0004
  -3994728.59046  -3097092.68345  24423309.5634   24423306.7424
        38.0004         32.7504
 20  5  5  1 46  0.0000000  0  9G16G30G27G 4G 9G26G 8G 7G 3
 -20404044.78748 -15672593.69846  21197722.1414   21197714.4064
        48.0004         36.5004
  -2204174.10245  -1706552.94444  25273986.5474   25273982.8554
        35.7504         27.5004
 -13428360.78247 -10442343.39947  22562819.9144   22562815.2234
        43.5004         42.5004
 -27363606.53347 -21300326.09046  20424003.2734   20423997.8634
        46.0004         39.7504
 -25825532.41248 -20111027.13748  20586805.0234   20586799.7774
        49.0004         53.2504
  -5861149.60746  -4543627.69144  23818724.1564   23818721.5394
        39.7504         25.5004
  -7989300.79346  -6194004.57446  23389054.8054   23389050.8484
        40.7504         37.7504
 -14741636.97747 -11415426.54347  22751708.7114   22751701.6524
        44.5004         43.2504
  -3886167.81546  -3012499.91045  24443969.1724   24443965.2464
        38.0004         31.7504
 20  5  5  1 46 30.0000000  0  9G16G30G27G 4G 9G26G 8G 7G 3
 -20335257.64748 -15618993.34246  21210811.8524   21210804.5904
        48.0004         36.7504
  -2289901.41546  -1773353.49744  25257673.8914   25257669.0984
        36.0004         26.2504
 -13490062.37547 -10490422.53547  22551078.5784   22551074.1684
        43.5004         43.0004
 -27332564.16847 -21276137.25646  20429910.6884   20429905.1294
        45.7504         39.7504
 -25863712.67448 -20140777.99748  20579539.2194   20579534.6374
        48.7504         53.2504
  -5758629.83946  -4463742.23343  23838233.5474   23838230.3794
        41.0004         22.5004
  -8085810.14346  -6269206.64346  23370690.0864   23370686.4534
        39.7504         38.2504
 -14806419.66247 -11465906.54547  22739380.8594   22739373.8714
        44.5004         43.5004
  -3777608.82646  -2927908.54945  24464627.7504   24464623.5004
        38.0004         32.7504
 20  5  5  1 47  0.0000000  0  9G16G30G27G 4G 9G26G 8G 7G 3
 -20266010.28948 -15565034.37446  21223988.9144   21223981.3874
        48.5004         36.5004
  -2375599.81345  -1840131.49044  25241365.1414   25241361.7894
        35.5004         26.7504
 -13551291.28647 -10538133.35447  22539427.0704   22539423.0354
        44.0004         43.0004
 -27301047.47747 -21251578.82046  20435908.3984   20435902.6054
        45.5004         40.0004
 -25901445.61748 -20170180.28148  20572359.1954   20572354.0354
        48.2504         53.2504
  -5655983.83146  -4383758.37243  23857765.5784   23857762.9734
        38.5004         22.5004
  -8182139.90346  -6344268.77346  23352358.1884   23352355.3324
        40.5004         38.2504
 -14871088.40847 -11516297.76147  22727074.8364   22727067.9884
        44.5004         43.5004
  -3669054.93746  -2843321.14045  24485284.2114   24485280.1764
        38.2504         31.0004
 20  5  5  1 47 30.0000000  0  9G16G30G27G 4G 9G26G 8G 7G 3
 -20196304.79948 -15510718.42046  21237253.8914   21237246.0314
        48.2504         36.2504
  -2461268.71146  -1906886.53944  25225063.0314   25225059.5824
        36.0004         28.0004
 -13612044.35047 -10585473.38747  22527865.7344   22527861.6094
        43.7504         43.0004
 -27269056.20747 -21226650.57146  20441996.0944   20441990.1374
        45.5004         40.0004
 -25938729.19048 -20199232.42248  20565264.2194   20565259.1524
        49.0004         53.2504
  -5553213.56146  -4303677.70743  23877323.9844   23877320.0394
        40.2504         22.7504
  -8278286.87746  -6419188.44646  23334062.6484   23334058.9454
        41.0004         37.7504
 -14935642.79047 -11566599.87247  22714790.6484   22714783.6724
        45.2504         43.7504
  -3560508.68146  -2758739.68945  24505941.7194   24505936.1954
        39.5004         31.0004
 20  5  5  1 48  0.0000000  0  9G16G30G27G 4G 9G26G 8G 7G 3
 -20126144.27548 -15456047.89846  21250604.6644   21250597.1844
        49.0004         36.5004
  -2546908.04646  -1973618.49544  25208767.1024   25208762.6724
        37.0004         29.0004
 -13672318.93147 -10632440.57347  22516396.4384   22516391.0944
        43.7504         42.2504
 -27236590.52547 -21201352.65046  20448173.9144   20448168.4264
        46.2504         39.7504
 -25975561.70948 -20227933.08548  20558255.4224   20558250.0164
        49.5004         53.2504
  -5450321.45446  -4223502.09743  23896902.2194   23896900.2544
        40.2504         22.2504
  -8374248.08846  -6493963.42146  23315801.5394   23315798.3204
        40.7504         38.0004
 -15000082.87547 -11616812.91347  22702528.1094   22702521.3524
        44.7504         44.0004
  -3451972.88146  -2674166.36845  24526594.2814   24526589.6454
        39.5004         32.2504
 20  5  5  1 48 30.0000000  0  9G16G30G27G 4G 9G26G 8G 7G 3
 -20055531.49548 -15401024.96246  21264042.1954   21264034.4574
        48.5004         36.2504
  -2632517.71545  -2040327.34544  25192476.3054   25192471.8914
        35.0004         28.2504
 -13732112.27947 -10679032.77547  22505018.0234   22505013.0904
        44.0004         43.0004
 -27203650.44647 -21175685.08546  20454442.5394   20454436.6844
        46.0004         40.0004
 -26011941.48948 -20256280.97648  20551332.4844   20551327.4574
        50.0004         53.2504
  -5347309.83446  -4143233.33143  23916505.2664   23916502.3554
        41.0004         23.5004
  -8470020.46646  -6568591.22846  23297576.9534   23297572.7304
        40.7504         38.5004
 -15064408.48147 -11666936.75547  22690287.5234   22690280.2774
        45.0004         43.5004
  -3343450.43146  -2589603.42945  24547245.1094   24547240.6214
        39.7504         31.7504
 20  5  5  1 49  0.0000000  0  9G16G30G27G 4G 9G26G 8G 7G 3
 -19984468.94748 -15345651.56846  21277564.9924   21277557.2114
        48.0004         36.0004
  -2718097.43245  -2107012.86644  25176189.8054   25176186.8874
        34.7504         28.7504
 -13791421.62847 -10725247.84147  22493731.4144   22493727.1134
        43.7504         43.0004
 -27170236.17747 -21149648.01046  20460801.0784   20460794.8524
        46.2504         39.7504
 -26047866.82048 -20284274.74748  20544496.0474   20544490.9264
        48.5004         53.2504
  -5244180.92346  -4062873.20843  23936129.9144   23936126.8204
        40.2504         22.7504
  -8565600.79446  -6643069.38546  23279387.8054   23279385.7034
        41.0004         38.0004
 -15128619.54247 -11716971.34647  22678068.2664   22678061.4844
        44.7504         43.5004
  -3234944.12446  -2505053.10345  24567892.9304   24567889.3914
        39.0004         32.2504
 20  5  5  1 49 30.0000000  0  9G16G30G27G 4G 9G26G 8G 7G 3
 -19912959.15948 -15289929.66245  21291172.9304   21291165.2154
        48.5004         35.5004
  -2803646.70446  -2173674.61945  25159912.5704   25159908.1914
        37.2504         30.0004
 -13850243.93447 -10771083.38547  22482538.2584   22482533.7664
        44.2504         43.0004
 -27136347.36047 -21123241.15846  20467249.6484   20467243.8134
        46.5004         39.5004
 -26083335.60748 -20311912.76948  20537747.1484   20537741.5314
        49.2504         53.2504
  -5140936.77246  -3982423.27743  23955777.1884   23955773.7974
        40.7504         22.5004
  -8660985.23446  -6717394.89446  23261237.3914   23261233.6524
        41.0004         38.5004
 -15192715.44747 -11766916.18847  22665871.2664   22665864.0634
        44.5004         43.0004
  -3126456.31246  -2420517.19645  24588538.9064   24588534.1564
        41.2504         33.0004
 20  5  5  1 50  0.0000000  0  9G16G30G27G 4G 9G26G 8G 7G 3
 -19841005.43048 -15233861.84046  21304865.1564   21304857.2854
        48.5004         36.0004
  -2889165.57846  -2240312.72944  25143637.7194   25143633.9964
        36.2504         28.7504
 -13908576.69247 -10816537.47047  22471437.5234   22471433.0594
        43.7504         43.2504
 -27101984.37147 -21096464.81646  20473788.7734   20473783.1414
        46.5004         39.5004
 -26118346.37848 -20339193.89048  20531084.1954   20531079.3634
        48.7504         53.2504
  -5037579.78646  -3901885.42343  23975445.1174   23975442.1094
        40.7504         22.7504
  -8756170.56646  -6791565.26246  23243123.7664   23243121.3714
        41.2504         38.5004
 -15256696.35147 -11816771.42747  22653696.3984   22653689.0204
        44.2504         43.2504
  -3017990.01246  -2335998.02945  24609177.8204   24609174.8554
        39.0004         33.0004
 20  5  5  1 50 30.0000000  0  9G16G30G27G 4G 9G26G 8G 7G 3
 -19768610.27048 -15177450.04145  21318641.5004   21318633.8094
        48.2504         35.5004
  -2974653.66746  -2306926.91844  25127369.7664   25127366.4774
        36.7504         29.2504
 -13966417.09047 -10861607.88247  22460431.0234   22460426.6334
        43.5004         43.5004
 -27067147.19847 -21069318.98946  20480417.9774   20480412.0824
        46.0004         39.5004
 -26152897.30148 -20366116.68748  20524509.5164   20524504.3754
        49.0004         53.5004
  -4934112.11246  -3821261.28843  23995133.7584   23995131.0744
        39.5004         22.5004
  -8851153.58946  -6865577.98846  23225048.4144   23225046.1414
        40.5004         38.7504
 -15320561.74447 -11866536.66147  22641542.5554   22641535.7814
        44.2504         42.7504
  -2909547.81546  -2251497.66045  24629813.9694   24629810.6764
        39.0004         32.5004
 20  5  5  1 51  0.0000000  0  9G16G30G27G 4G 9G26G 8G 7G 3
 -19695776.53948 -15120696.49846  21332501.2894   21332493.5274
        49.0004         36.2504
  -3060110.77846  -2373516.87545  25111108.8594   25111103.7114
        38.2504         32.0004
 -14023762.31547 -10906292.45747  22449518.3054   22449514.5164
        44.0004         43.5004
 -27031835.86247 -21041803.68046  20487137.6254   20487131.9344
        47.0004         39.2504
 -26186986.58648 -20392679.76748  20518022.6254   20518017.4144
        48.5004         53.7504
  -4830535.92246  -3740552.63243  24014844.7814   24014840.9344
        40.7504         22.5004
  -8945931.51746  -6939430.88546  23207013.7814   23207010.4964
        41.2504         38.7504
 -15384311.56247 -11916211.84447  22629411.8524   22629405.1294
        44.5004         43.2504
  -2801132.44446  -2167018.17245  24650444.9534   24650441.3244
        40.0004         32.7504
 20  5  5  1 51 30.0000000  0  9G16G30G27G 4G 9G26G 8G 7G 3
 -19622507.16448 -15063603.49446  21346443.8674   21346436.3164
        48.5004         36.0004
  -3145536.68446  -2440082.54745  25094851.6254   25094848.3834
        37.2504         30.7504
 -14080609.80247 -10950589.17647  22438700.8594   22438696.3954
        44.7504         43.5004
 -26996050.61847 -21013919.08946  20493947.3204   20493941.7304
        47.0004         40.2504
 -26220612.61348 -20418881.86648  20511623.5554   20511618.5084
        49.2504         53.7504
  -4726853.47546  -3659761.18643  24034574.5704   24034571.3054
        39.2504         22.0004
  -9040500.53646  -7013120.99346  23189017.6094   23189014.1764
        40.7504         38.2504
 -15447945.55647 -11965796.75747  22617302.6954   22617295.4574
        45.0004         43.7504
  -2692746.69646  -2082561.75145  24671068.2584   24671066.3444
        36.7504         30.5004
 20  5  5  1 52  0.0000000  0  9G16G30G27G 4G 9G26G 8G 7G 3
 -19548804.22048 -15006172.64345  21360468.9614   21360461.8054
        48.2504         35.2504
  -3230930.69646  -2506623.32945  25078602.0084   25078598.6024
        37.5004         31.5004
 -14136956.34147 -10994495.56347  22427978.5234   22427973.9264
        45.0004         43.5004
 -26959791.06647 -20985664.91746  20500847.5704   20500841.5084
        47.0004         39.5004
 -26253773.21648 -20444721.29848  20505313.6254   20505308.4184
        48.5004         53.5004
  -4623066.52646  -3578888.29643  24054324.8834   24054321.8594
        41.2504         22.5004
  -9134857.21246  -7086645.66346  23171062.6094   23171058.7894
        40.7504         38.2504
 -15511462.91647 -12015290.80747  22605215.5554   22605208.5864
        45.7504         44.0004
  -2584392.78646  -1998130.20145  24691688.5394   24691684.8594
        37.2504         30.7504
 20  5  5  1 52 30.0000000  0  9G16G30G27G 4G 9G26G 8G 7G 3
 -19474671.42148 -14948406.85046  21374576.3594   21374568.4654
        48.0004         36.0004
  -3316293.43445  -2573139.80745  25062356.3524   25062353.9804
        35.7504         30.0004
 -14192800.13947 -11038010.19247  22417352.0864   22417347.2304
        44.5004         43.5004
 -26923058.24247 -20957041.95146  20507837.3134   20507831.4694
        47.2504         39.5004
 -26286467.54448 -20470197.40948  20499092.0234   20499086.6764
        48.5004         53.5004
  -4519178.05946  -3497936.30943  24074093.9614   24074090.7854
        40.7504         22.7504
  -9228999.02346  -7160002.90546  23153147.3134   23153144.2934
        40.7504         38.0004
 -15574864.91847 -12064694.95247  22593150.9534   22593143.7194
        45.2504         44.0004
  -2476074.31546  -1913726.21945  24712300.0164   24712297.8364
        36.5004         30.5004
 20  5  5  1 53  0.0000000  0  9G16G30G27G 4G 9G26G 8G 7G 3
 -19400111.12948 -14890307.93246  21388764.7344   21388757.1764
        48.7504         36.0004
  -3401624.44045  -2639631.52044  25046119.1564   25046116.4694
        35.5004         28.7504
 -14248138.33347 -11081130.85247  22406821.6644   22406816.6564
        45.0004         43.2504
 -26885852.05647 -20928050.13446  20514917.5634   20514911.4654
        46.7504         39.0004
 -26318693.66548 -20495308.66948  20492959.7274   20492954.6024
        48.2504         53.2504
  -4415190.13046  -3416906.79144  24093882.6414   24093879.5634
        41.7504         25.0004
  -9322922.20046  -7233189.76446  23135274.0704   23135270.2584
        39.7504         37.2504
 -15638150.30947 -12114008.23347  22581107.6334   22581100.8164
        45.2504         44.0004
  -2367793.66446  -1829351.71445  24732905.1644   24732902.0594
        38.2504         31.0004
 20  5  5  1 53 30.0000000  0  9G16G30G27G 4G 9G26G 8G 7G 3
 -19325126.35547 -14831878.25846  21403033.5314   21403026.3714
        47.7504         36.0004
  -3486922.90746  -2706097.88344  25029887.2424   25029884.1804
        36.7504         29.2504
 -14302967.77747 -11123855.08047  22396387.8594   22396383.0904
        44.5004         43.5004
 -26848172.25347 -20898689.25946  20522088.0704   20522081.9924
        47.0004         39.0004
 -26350449.46748 -20520053.46148  20486916.5784   20486911.2624
        48.7504         53.7504
  -4311104.32646  -3335801.04843  24113688.7034   24113685.9384
        39.7504         23.0004
  -9416623.48646  -7306203.73346  23117443.8284   23117439.5904
        41.0004         38.0004
 -15701318.87347 -12163230.48947  22569087.4694   22569080.4304
        45.5004         44.2504
  -2259553.14246  -1745008.49645  24753504.6254   24753499.7274
        39.0004         30.2504
 20  5  5  1 54  0.0000000  0  9G16G30G27G 4G 9G26G 8G 7G 3
 -19249720.02947 -14773120.10245  21417382.9844   21417376.0514
        47.5004         35.5004
  -3572189.28646  -2772539.20344  25013662.6644   25013658.4454
        37.5004         28.7504
 -14357286.50847 -11166181.35847  22386051.1174   22386046.9184
        44.2504         43.0004
 -26810019.61647 -20868959.95146  20529348.0554   20529341.9144
        46.7504         39.5004
 -26381733.84048 -20544430.89748  20480963.6254   20480957.8754
        48.7504         53.7504
  -4206923.55646  -3254621.24343  24133513.6254   24133511.7504
        39.2504         23.7504
  -9510099.95846  -7379042.53546  23099656.1174   23099651.3834
        41.5004         38.7504
 -15764370.36047 -12212361.50747  22557089.0394   22557082.1024
        45.2504         44.5004
  -2151355.99346  -1660699.02845  24774092.8984   24774089.7974
        37.5004         30.5004
 20  5  5  1 54 30.0000000  0  9G16G30G27G 4G 9G26G 8G 7G 3
 -19173894.35948 -14714035.17646  21431812.3984   21431804.9224
        48.0004         36.0004
  -3657422.85046  -2838954.98345  24997444.0314   24997439.6094
        38.2504         30.0004
 -14411091.35247 -11208107.20547  22375812.1254   22375807.6254
        45.0004         43.2504
 -26771393.83447 -20838861.95346  20536698.2584   20536692.4024
        46.5004         39.0004
 -26412544.65548 -20568439.32448  20475100.3984   20475095.0314
        48.7504         53.7504
  -4102649.23246  -3173368.61643  24153355.7504   24153354.3634
        38.0004         22.5004
  -9603347.63846  -7451703.04646  23081911.6174   23081907.0784
        41.7504         39.2504
 -15827304.51247 -12261401.09047  22545112.9844   22545105.6764
        44.7504         44.2504
  -2043204.29146  -1576425.04045  24794675.0704   24794670.3874
        39.2504         30.0004
 20  5  5  1 55  0.0000000  0  9G16G30G27G 4G 9G26G 8G 7G 3
 -19097652.59947 -14654626.03945  21446320.6024   21446313.1054
        47.7504         35.7504
  -3742623.50845  -2905345.14644  24981229.1954   24981226.2274
        35.5004         28.0004
 -14464380.02047 -11249630.84147  22365671.9224   22365667.1094
        44.5004         43.5004
 -26732295.34147 -20808395.61146  20544138.3364   20544132.7074
        46.7504         39.7504
 -26442880.47648 -20592077.63348  20469327.8444   20469322.5004
        48.5004         53.7504
  -3998283.96246  -3092045.07543  24173216.0314   24173214.5664
        37.7504         22.5004
  -9696363.77446  -7524183.12046  23064211.6884   23064207.7424
        40.7504         39.5004
 -15890121.41447 -12310349.31747  22533158.9224   22533152.0164
        45.0004         44.0004
  -1935101.02246  -1492188.73945  24815245.6094   24815241.5744
        38.7504         30.2504
 20  5  5  1 55 30.0000000  0  9G16G30G27G 4G 9G26G 8G 7G 3
 -19020997.29248 -14594894.63945  21460907.4614   21460899.8164
        48.0004         34.7504
  -3827790.88146  -2971709.31644  24965024.2424   24965019.2464
        37.5004         29.7504
 -14517149.71947 -11290750.07747  22355629.5944   22355625.4614
        45.0004         44.0004
 -26692724.18747 -20777560.96846  20551668.3364   20551662.6564
        46.7504         39.2504
 -26472739.49048 -20615344.38748  20463645.7274   20463640.3984
        49.7504         53.7504
  -3893829.53646  -3010652.12043  24193093.3834   24193090.8954
        38.0004         21.5004
  -9789144.60546  -7596479.83046  23046555.1884   23046552.6374
        40.7504         40.0004
 -15952820.91447 -12359206.04947  22521227.7504   22521220.7974
        44.7504         44.0004
  -1827048.65346  -1407992.09845  24835806.9924   24835804.1914
        39.0004         31.0004
 20  5  5  1 56  0.0000000  0  9G16G30G27G 4G 9G26G 8G 7G 3
 -18943931.94248 -14534843.74545  21475572.8444   21475564.9844
        48.0004         35.2504
  -3912925.21546  -3038047.79744  24948822.6804   24948818.0744
        37.2504         28.5004
 -14569398.52247 -11331463.42447  22345687.0164   22345683.0044
        44.2504         44.0004
 -26652681.27547 -20746358.71746  20559288.5634   20559282.8754
        46.7504         39.0004
 -26502120.67048 -20638238.81448  20458054.4774   20458049.4964
        49.2504         53.5004
  -3789288.75246  -2929191.80443  24212988.0784   24212984.4304
        40.5004         22.0004
  -9881687.82046  -7668591.40546  23028945.1804   23028942.1134
        40.7504         39.5004
 -16015402.27447 -12407970.73147  22509318.9064   22509311.6914
        45.0004         44.0004
  -1719050.38246  -1323837.63945  24856357.7664   24856355.6484
        38.2504         32.0004
 20  5  5  1 56 30.0000000  0  9G16G30G27G 4G 9G26G 8G 7G 3
 -18866458.56147 -14474474.89145  21490315.1884   21490307.5274
        47.7504         34.2504
  -3998025.77346  -3104359.92145  24932629.2584   24932624.8244
        38.5004         31.2504
 -14621123.33447 -11371768.45347  22335844.5554   22335840.4924
        45.2504         44.0004
 -26612166.27447 -20714788.60046  20566998.2274   20566992.4144
        47.2504         39.0004
 -26531021.84048 -20660759.22048  20452554.9454   20452549.8594
        49.0004         53.5004
  -3684663.14446  -2847665.45443  24232897.1954   24232894.2624
        39.0004         21.5004
  -9973989.74646  -7740514.95146  23011380.8834   23011377.9884
        41.0004         39.5004
 -16077865.23647 -12456643.16547  22497432.5314   22497425.5204
        45.2504         44.0004
  -1611108.31146  -1239727.00745  24876899.7194   24876896.5554
        38.5004         32.0004
 20  5  5  1 57  0.0000000  0  9G16G30G27G 4G 9G26G 8G 7G 3
 -18788580.48648 -14413790.70045  21505134.8134   21505127.5084
        48.0004         35.0004
  -4083092.50146  -3170645.69645  24916440.1804   24916437.6684
        38.0004         31.2504
 -14672321.88647 -11411663.40847  22326101.3984   22326096.7154
        45.0004         44.0004
 -26571179.71247 -20682851.03646  20574797.8444   20574792.2344
        46.7504         39.7504
 -26559441.67148 -20682904.54948  20447146.8594   20447141.5314
        49.2504         53.7504
  -3579955.02246  -2766074.78743  24252824.8284   24252819.6174
        41.2504         22.5004
 -10066046.67746  -7812247.61146  22993862.2814   22993858.5634
        41.0004         39.2504
 -16140209.98947 -12505223.48547  22485568.9774   22485561.5314
        45.5004         44.5004
  -1503225.34046  -1155662.38145  24897428.1804   24897425.0314
        38.5004         31.0004
 20  5  5  1 57 30.0000000  0  9G16G30G27G 4G 9G26G 8G 7G 3
 -18710300.34047 -14352793.20845  21520031.2504   21520023.5004
        47.7504         34.7504
  -4168125.47546  -3236905.16745  24900259.1414   24900256.1254
        36.5004         31.5004
 -14722991.90947 -11451146.53747  22316459.1094   22316455.0704
        45.0004         44.5004
 -26529722.10247 -20650546.42646  20582686.5864   20582681.3094
        46.5004         39.5004
 -26587378.73148 -20704673.69548  20441830.3984   20441825.1914
        49.2504         53.7504
  -3475166.76846  -2684421.61343  24272762.8674   24272760.8094
        38.5004         22.5004
 -10157855.78146  -7883787.16046  22976391.8134   22976387.6804
        41.5004         38.5004
 -16202436.21547 -12553711.45047  22473727.8134   22473720.3674
        45.5004         44.5004
  -1395404.27546  -1071645.97545  24917946.2584   24917942.4694
        38.0004         30.2504
 20  5  5  1 58  0.0000000  0  9G16G30G27G 4G 9G26G 8G 7G 3
 -18631621.17447 -14291484.78545  21535003.3054   21534995.6454
        47.2504         34.2504
  -4253123.72346  -3303137.59045  24884085.5084   24884081.3554
        38.2504         30.7504
 -14773130.38147 -11490215.46047  22306918.5634   22306914.2734
        45.7504         44.5004
 -26487793.20247 -20617874.56846  20590665.5164   20590660.0204
        47.5004         38.5004
 -26614830.92848 -20726065.01548  20436606.7734   20436601.0434
        48.5004         53.7504
  -3370299.89645  -2602707.20743  24292716.3594   24292716.3444
        35.0004         21.5004
 -10249413.45847  -7955130.79746  22958969.1174   22958964.5634
        42.2504         39.0004
 -16264543.29647 -12602106.56647  22461909.1884   22461901.8874
        45.2504         44.7504
  -1287647.27746   -987679.57645  24938452.6564   24938447.9804
        40.2504         30.0004
 20  5  5  1 58 30.0000000  0  9G16G30G27G 4G 9G26G 8G 7G 3
 -18552545.96848 -14229867.76745  21550050.9224   21550043.5204
        48.0004         34.5004
  -4338087.64946  -3369343.22345  24867917.0004   24867913.1454
        37.2504         31.5004
 -14822735.40947 -11528868.71747  22297478.6094   22297474.1484
        45.7504         44.2504
 -26445393.90247 -20584836.16046  20598734.2034   20598728.4844
        47.0004         39.0004
 -26641797.25648 -20747077.75148  20431475.2194   20431469.9534
        49.5004         53.7504
  -3265357.08247  -2520933.72543  24312691.2974   24312686.3244
        42.2504         22.7504
 -10340716.90747  -8026276.33946  22941594.7344   22941590.4494
        42.0004         39.0004
 -16326531.87247 -12650409.34847  22450113.4224   22450105.9774
        46.0004         45.0004
  -1179957.39946   -903765.44945  24958946.0234   24958940.8754
        39.5004         30.0004
 20  5  5  1 59  0.0000000  0  9G16G30G27G 4G 9G26G 8G 7G 3
 -18473076.80247 -14167943.76745  21565173.4064   21565165.8914
        47.5004         35.5004
  -4423016.38946  -3435521.48845  24851755.3834   24851752.3244
        37.5004         32.0004
 -14871803.98547 -11567103.97047  22288141.7584   22288137.0824
        45.7504         44.2504
 -26402523.98647 -20551431.05446  20606892.1484   20606886.1134
        46.7504         38.5004
 -26668275.60848 -20767710.23348  20426436.7584   20426431.6414
        49.5004         53.7504
  -3160339.65646  -2439102.03643  24332671.7424   24332670.6454
        37.0004         21.7504
 -10431762.28346  -8097220.77846  22924268.3834   22924265.0904
        41.2504         39.0004
 -16388400.28547 -12698618.49447  22438340.2274   22438332.8014
        45.5004         45.0004
  -1072336.73846   -819905.18944  24979423.8284   24979420.0204
        38.5004         28.0004
 20  5  5  1 59 30.0000000  0  9G16G30G27G 4G 9G26G 8G 7G 3
 -18393217.07247 -14105715.42345  21580370.6414   21580362.8874
        47.5004         34.5004
  -4507910.14146  -3501672.49145  24835600.8754   24835596.7664
        36.5004         30.0004
 -14920334.14647 -11604919.67147  22278906.7734   22278901.9964
        45.0004         44.2504
 -26359184.26147 -20517659.85246  20615139.2814   20615133.3524
        47.2504         38.5004
 -26694264.83848 -20787961.59248  20421490.8284   20421485.7274
        48.5004         53.7504
  -3055250.24646  -2357214.26543  24352671.1174   24352668.7034
        38.5004         20.2504
 -10522546.65546  -8167961.81146  22906993.1804   22906989.7544
        41.2504         39.7504
 -16450149.01447 -12746734.38147  22426589.6564   22426582.5204
        45.5004         45.0004
   -964788.31146   -736101.23844  24999890.0394   24999885.5204
        38.2504         27.5004
 20  5  5  2  0  0.0000000  0  9G16G30G27G 4G 9G26G 8G 7G 3
 -18312969.58248 -14043184.93045  21595640.8984   21595633.2464
        48.0004         35.2504
  -4592768.54246  -3567795.91245  24819453.0704   24819449.7074
        36.7504         30.7504
 -14968323.50347 -11642313.96447  22269774.2194   22269770.1954
        45.0004         44.2504
 -26315375.11047 -20483522.86446  20623475.7584   20623470.0744
        46.5004         38.5004
 -26719763.43648 -20807830.64248  20416638.8204   20416633.2854
        48.5004         53.7504
  -2950090.98146  -2275272.04843  24372684.1954   24372680.1484
        41.7504         22.7504
 -10613066.91046  -8238497.05046  22889767.9384   22889764.9534
        41.5004         40.2504
 -16511777.74147 -12794756.76047  22414861.5634   22414855.0004
        45.5004         45.0004
   -857314.75346   -652355.60644  25020341.7194   25020337.6644
        37.7504         28.5004
 20  5  5  2  0 30.0000000  0  9G16G30G27G 4G 9G26G 8G 7G 3
 -18232337.36147 -13980354.65045  21610985.0084   21610977.3714
        47.7504         34.2504
  -4677591.58546  -3633891.81245  24803311.2034   24803308.2034
        36.7504         30.0004
 -15015769.87947 -11679285.15147  22260745.7274   22260741.4144
        45.0004         44.2504
 -26271097.04947 -20449020.49246  20631901.6334   20631895.6644
        47.0004         38.5004
 -26744770.08848 -20827316.35049  20411880.0784   20411874.8014
        49.7504         54.0004
  -2844863.97946  -2193277.01943  24392704.7114   24392704.0704
        38.0004         22.0004
 -10703320.20547  -8308824.27946  22872593.7584   22872590.8634
        42.5004         40.7504
 -16573286.62047 -12842685.75147  22403157.0234   22403149.9574
        45.2504         45.0004
   -749918.72745   -568670.38844  25040775.4224   25040774.9654
        32.7504         28.5004
 20  5  5  2  1  0.0000000  0  9G16G30G27G 4G 9G26G 8G 7G 3
 -18151322.70047 -13917226.36645  21626401.1334   21626393.7774
        47.5004         34.5004
  -4762378.31446  -3699959.36544  24787177.5554   24787173.7664
        38.2504         29.7504
 -15062670.22647 -11715830.86047  22251821.3754   22251816.3134
        45.2504         44.0004
 -26226349.84647 -20414152.55446  20640416.6804   20640410.7234
        47.2504         38.2504
 -26769282.58248 -20846417.00449  20407215.6414   20407210.1294
        50.7504         54.0004
  -2739570.48746  -2111230.27343  24412744.1094   24412740.6094
        40.7504         22.7504
 -10793302.02147  -8378939.95546  22855470.4454   22855467.1454
        42.0004         40.2504
 -16634674.39347 -12890520.36747  22391475.3524   22391468.5514
        45.7504         45.0004
   -642602.24746   -485047.27244  25061199.6954   25061197.1484
        36.7504         29.2504
 20  5  5  2  1 30.0000000  0  9G16G30G27G 4G 9G26G 8G 7G 3
 -18069929.07247 -13853802.78445  21641890.0314   21641882.6294
        46.7504         34.0004
  -4847129.16546  -3765998.98045  24771049.9694   24771046.2704
        37.7504         30.0004
 -15109022.92847 -11751949.83447  22243000.1414   22242995.6374
        45.5004         44.2504
 -26181134.67747 -20378919.97746  20649020.7814   20649014.6174
        46.2504         38.5004
 -26793300.17048 -20865132.02449  20402645.1254   20402640.0784
        50.0004         54.0004
  -2634213.45246  -2029133.87443  24432791.7504   24432789.0084
        40.5004         22.5004
 -10883010.11147  -8448842.36346  22838399.4924   22838395.8094
        42.5004         40.0004
 -16695941.99047 -12938261.33847  22379816.5704   22379809.6684
        45.0004         44.7504
   -535368.29146   -401488.39345  25081605.8594   25081603.2584
        37.2504         31.2504
 20  5  5  2  2  0.0000000  0  9G16G30G27G 4G 9G26G 8G 7G 3
 -17988159.29747 -13790086.10145  21657449.9924   21657443.0044
        46.7504         34.2504
  -4931843.66746  -3832010.31045  24754929.8674   24754925.1374
        39.5004         30.5004
 -15154825.51147 -11787640.14847  22234283.8914   22234279.8874
        45.5004         44.5004
 -26135451.74147 -20343322.90546  20657714.0864   20657707.9844
        46.7504         38.2504
 -26816821.14348 -20883460.06749  20398169.1024   20398164.1254
        50.0004         54.0004
  -2528794.58846  -1946989.44543  24452852.5084   24452849.9384
        40.0004         22.5004
 -10972441.10647  -8518528.83946  22821381.1484   22821376.9384
        42.0004         40.0004
 -16757088.50047 -12985907.97047  22368181.0234   22368173.6804
        45.7504         45.2504
   -428219.77946   -317996.00444  25101994.0944   25101991.5514
        36.2504         29.2504
 20  5  5  2  2 30.0000000  0  9G16G30G27G 4G 9G26G 8G 7G 3
 -17906015.59247 -13726078.05145  21673081.5314   21673074.2154
        47.0004         34.2504
  -5016521.17346  -3897992.78145  24738815.5234   24738811.0434
        38.0004         30.2504
 -15200075.32147 -11822899.73147  22225673.7194   22225669.4224
        45.5004         44.5004
 -26089301.18147 -20307361.44646  20666496.7194   20666490.4734
        46.5004         38.2504
 -26839843.71748 -20901399.74749  20393788.3134   20393782.6024
        50.2504         54.0004
  -2423315.53446  -1864798.06043  24472924.0234   24472922.4774
        37.0004         22.0004
 -11061591.27746  -8587996.50646  22804415.9844   22804412.4264
        41.2504         39.2504
 -16818112.85847 -13033459.41847  22356568.3754   22356560.9534
        46.2504         45.2504
   -321158.53846   -234571.78745  25122367.7344   25122366.6804
        37.0004         31.5004
 20  5  5  2  3  0.0000000  0  9G16G30G27G 4G 9G26G 8G 7G 3
 -17823501.31847 -13661781.23945  21688784.1564   21688776.1094
        47.0004         33.5004
  -5101162.08446  -3963946.79245  24722708.5314   24722705.4414
        38.5004         31.5004
 -15244770.75647 -11857727.33047  22217168.1884   22217163.6604
        46.0004         44.5004
 -26042684.05947 -20271036.43646  20675367.3754   20675361.9064
        46.2504         38.7504
 -26862367.12848 -20918950.46549  20389502.3054   20389496.6214
        50.2504         54.0004
  -2317779.02046  -1782561.89043  24493008.1094   24493004.9144
        40.2504         22.0004
 -11150458.15246  -8657243.40346  22787506.4454   22787501.6294
        41.5004         39.5004
 -16879015.87447 -13080916.31247  22344979.1024   22344971.4804
        45.5004         45.0004
   -214187.88146   -151218.10645  25142725.5704   25142721.1954
        39.7504         31.2504
 20  5  5  2  3 30.0000000  0  9G16G30G27G 4G 9G26G 8G 7G 3
 -17740619.13047 -13597197.73345  21704555.5234   21704548.2664
        47.0004         33.5004
  -5185765.51746  -4029871.53845  24706608.7504   24706605.6684
        37.5004         31.7504
 -15288908.95947 -11892120.71747  22208768.7194   22208764.3244
        45.7504         44.5004
 -25995600.27947 -20234347.79746  20684327.2734   20684321.2274
        47.5004         38.5004
 -26884389.26448 -20936110.57449  20385311.7584   20385306.1954
        49.5004         54.0004
  -2212186.33846  -1700281.95143  24513102.0704   24513098.5704
        39.5004         22.5004
 -11239037.72947  -8726266.43446  22770649.6094   22770645.9804
        42.0004         40.0004
 -16939796.48747 -13128277.82447  22333412.7504   22333405.0274
        45.7504         45.0004
   -107309.73146    -67936.38345  25163062.1414   25163059.2814
        38.5004         30.5004
 20  5  5  2  4  0.0000000  0  9G16G30G27G 4G 9G26G 8G 7G 3
 -17657372.14547 -13532329.97445  21720396.9454   21720389.3714
        47.0004         33.5004
  -5270331.53046  -4095767.13045  24690516.6564   24690513.8914
        38.2504         31.7504
 -15332488.09347 -11926078.46747  22200476.7734   22200471.4144
        46.0004         44.7504
 -25948050.76947 -20197296.24746  20693375.7114   20693370.1914
        46.5004         38.5004
 -26905909.13248 -20952879.31549  20381216.4614   20381211.2974
        50.0004         54.0004
  -2106539.95846  -1617960.16843  24533203.6414   24533202.2624
        37.0004         21.2504
 -11327327.27346  -8795063.46346  22753847.8134   22753845.3364
        41.5004         41.5004
 -17000454.62147 -13175543.90147  22321869.6254   22321862.2894
        45.5004         45.0004
      -526.99346     15270.91144  25183382.6564   25183379.3134
        37.7504         27.5004
 20  5  5  2  4 30.0000000  0  9G16G30G27G 4G 9G26G 8G 7G 3
 -17573762.36447 -13467179.51745  21736307.4384   21736299.7504
        47.0004         33.7504
  -5354859.36446  -4161632.98945  24674430.0554   24674428.3204
        36.5004         32.0004
 -15375505.43047 -11959598.46547  22192290.5084   22192285.6414
        45.7504         44.7504
 -25900035.46047 -20159881.74346  20702512.3914   20702506.9064
        47.0004         39.2504
 -26926924.76548 -20969255.14549  20377217.2894   20377212.0004
        48.7504         54.0004
  -2000841.15846  -1535597.57243  24553319.1564   24553316.5744
        39.0004         21.2504
 -11415322.67247  -8863631.28146  22737104.2344   22737100.6334
        42.5004         41.5004
 -17060989.87347 -13222714.22447  22310350.2974   22310343.0474
        46.2504         45.0004
    106158.42745     98402.26444  25203683.6484   25203682.5664
        34.5004         27.2504
 20  5  5  2  5  0.0000000  0  9G16G30G27G 4G 9G26G 8G 7G 3
 -17489793.84147 -13401749.51545  21752286.2664   21752278.9494
        46.2504         34.0004
  -5439349.54746  -4227469.46345  24658352.6564   24658349.9184
        36.0004         31.7504
 -15417959.64247 -11992679.66647  22184211.3594   22184206.8634
        46.0004         44.5004
 -25851555.74647 -20122105.35646  20711737.9534   20711732.3914
        46.2504         38.7504
 -26947435.62948 -20985237.64549  20373314.0234   20373308.7274
        49.5004         54.0004
  -1895092.81646  -1453196.33043  24573443.2584   24573439.7624
        38.7504         22.5004
 -11503021.95847  -8931968.35747  22720415.1644   22720411.9024
        42.7504         42.0004
 -17121402.72747 -13269789.16547  22298854.7034   22298847.3364
        45.2504         45.2504
    212743.16045    160650.33653  25223966.9144   25223963.0634
        35.0004         22.5004
 20  5  5  2  5 30.0000000  0  9G16G30G27G 4G 9G26G 8G 7G 3
 -17405468.67847 -13336041.61845  21768332.9304   21768325.3204
        46.5004         34.0004
  -5523801.24046  -4293275.93345  24642282.5704   24642279.6994
        36.7504         31.5004
 -15459848.04047 -12025319.95747  22176240.3674   22176236.0234
        46.0004         45.0004
 -25802611.59247 -20083967.07246  20721051.9064   20721045.8634
        46.5004         38.7504
 -26967439.78748 -21000825.30949  20369507.2894   20369502.3324
        50.7504         54.0004
  -1789296.39846  -1370757.62043  24593575.2114   24593572.0634
        39.5004         22.0004
 -11590421.41447  -9000071.81746  22703784.1334   22703779.8054
        42.2504         41.5004
 -17181691.98447 -13316767.80547  22287381.8754   22287374.4654
        45.7504         45.2504
    319225.10946    243623.20943  25244231.3984   25244227.3484
        37.2504         22.5004
 20  5  5  2  6  0.0000000  0  9G16G30G27G 4G 9G26G 8G 7G 3
 -17320787.85547 -13270056.59345  21784447.1884   21784439.4534
        47.0004         33.7504
  -5608212.37046  -4359050.83745  24626219.8674   24626216.8714
        36.7504         32.2504
 -15501166.62647 -12057516.24847  22168378.0314   22168373.1054
        46.0004         44.7504
 -25753201.82947 -20045465.97546  20730454.4144   20730448.0514
        46.7504         38.7504
 -26986934.09848 -21016015.69149  20365797.9224   20365792.4494
        50.0004         54.0004
  -1683451.91746  -1288281.45343  24613716.0004   24613714.0004
        38.5004         22.0004
 -11677515.58647  -9067937.39446  22687210.3524   22687206.5514
        43.0004         41.2504
 -17241855.36747 -13363648.35647  22275932.9064   22275925.2974
        45.7504         45.5004
                                  25264478.109
        41.250
 20  5  5  2  6 30.0000000  0  9G16G30G27G 4G 9G26G 8G 7G 3
 -17235762.09847 -13203802.78245  21800626.9924   21800619.7074
        46.0004         33.5004
  -5692590.53246  -4424800.01545  24610162.9384   24610160.2934
        36.5004         33.0004
 -15541921.27047 -12089273.11347  22160622.2034   22160617.5594
        45.5004         44.5004
 -25703334.83547 -20006608.59646  20739943.3754   20739937.3714
        46.5004         38.0004
 -27005925.06348 -21030813.85849  20362184.3444   20362178.9694
        48.5004         54.0004
  -1577569.27946  -1205775.64543  24633865.2114   24633862.5354
        39.0004         21.2504
 -11764309.75447  -9135569.19746  22670693.9924   22670690.4924
        42.5004         41.5004
 -17301900.58147 -13410436.83247  22264506.5394   22264499.1564
        45.5004         45.5004
    815466.50956  20016810.30954  25284695.3674   25284691.0634
        39.5004         27.5004
 20  5  5  2  7  0.0000000  0  9G16G30G27G 4G 9G26G 8G 7G 3
 -17150384.93347 -13137275.14745  21816873.7114   21816866.3874
        46.2504         33.7504
  -5776925.70446  -4490515.68245  24594116.2734   24594111.8244
        39.2504         33.0004
 -15582100.11147 -12120581.28247  22152976.5314   22152971.8754
        45.7504         44.7504
 -25653001.58147 -19967387.89446  20749521.3914   20749515.8094
        46.0004         38.5004
 -27024401.64848 -21045211.21049  20358667.9534   20358662.8404
        50.7504         54.0004
  -1471640.61046  -1123233.90943  24654022.9144   24654019.7034
        38.2504         19.5004
 -11850790.47447  -9202956.77046  22654236.8204   22654233.1414
        42.7504         41.2504
 -17361817.99847 -13457125.71247  22253104.3834   22253097.5704
        46.7504         46.0004
    921624.75546  20099530.93445  25304897.8754   25304894.8134
        39.2504         31.5004
 20  5  5  2  7 30.0000000  0  9G16G30G27G 4G 9G26G 8G 7G 3
 -17064663.45247 -13070479.21845  21833186.1334   21833178.4104
        45.5004         33.0004
  -5861222.00346  -4556201.13045  24578074.0474   24578070.7584
        39.5004         33.2504
 -15621705.58147 -12151442.68947  22145439.9924   22145435.4774
        46.0004         45.0004
 -25602207.07147 -19927807.76946  20759187.3594   20759181.5784
        46.7504         38.0004
 -27042366.98048 -21059210.18149  20355249.3754   20355244.1094
        49.0004         54.0004
  -1365672.35646  -1040661.31743  24674189.2424   24674184.8554
        39.2504         18.5004
 -11936959.12647  -9270101.16346  22637839.5084   22637835.6644
        43.0004         41.5004
 -17421611.33747 -13503717.91647  22241726.1094   22241718.7274
        46.5004         45.7504
   1027669.62445  20182163.54744  25325073.1174   25325071.9064
        33.0004         29.5004
 20  5  5  2  8  0.0000000  0  9G16G30G27G 4G 9G26G 8G 7G 3
 -16978599.63047 -13003416.53145  21849563.5864   21849556.2074
        46.0004         34.2504
  -5945478.57846  -4621855.58145  24562041.4454   24562037.1334
        39.7504         32.2504
 -15660735.02247 -12181855.22847  22138012.5234   22138008.4144
        45.5004         45.0004
 -25550951.37147 -19887868.28746  20768940.9694   20768935.5704
        47.0004         37.5004
 -27059819.17848 -21072809.30849  20351928.2504   20351922.7304
        51.0004         54.0004
  -1259665.83946   -958058.92743  24694360.9224   24694357.7464
        38.2504         20.0004
 -12022811.77247  -9336999.31446  22621501.8984   22621498.4454
        43.5004         41.5004
 -17481279.66447 -13550212.70947  22230371.8834   22230364.5234
        46.0004         46.0004
   1133599.15146  20264705.63345  25345234.4454   25345232.0354
        38.2504         30.0004
 20  5  5  2  8 30.0000000  0  9G16G30G27G 4G 9G26G 8G 7G 3
 -16892196.48847 -12936089.42745  21866005.1564   21865998.2464
        45.7504         33.7504
  -6029695.01746  -4687478.76845  24546014.9534   24546010.4574
        39.7504         32.7504
 -15699186.27247 -12211817.23647  22130695.9534   22130691.1524
        45.7504         45.2504
 -25499234.95947 -19847569.80346  20778782.2504   20778776.3554
        46.2504         37.7504
 -27076756.81248 -21086007.48249  20348705.0554   20348700.0474
        50.0004         54.0004
  -1153622.72946   -875428.00443  24714541.3054   24714536.6094
        38.5004         19.7504
 -12108345.29747  -9403648.79347  22605226.4694   22605222.2934
        43.7504         42.0004
 -17540822.56147 -13596609.76047  22219041.5784   22219034.1134
        46.7504         45.7504
   1239410.91946  20347156.39743  25365369.1804   25365365.6764
        37.2504         23.5004
 20  5  5  2  9  0.0000000  0  9G16G30G27G 4G 9G26G 8G 7G 3
 -16805452.11147 -12868496.43545  21882512.2034   21882505.0164
        45.2504         33.2504
  -6113866.38146  -4753066.87645  24529996.8284   24529993.5124
        39.0004         32.5004
 -15737052.73147 -12241323.55847  22123489.8134   22123485.7274
        45.7504         45.0004
 -25447053.89547 -19806909.24646  20788711.3984   20788706.5594
        46.2504         38.0004
 -27093173.95848 -21098800.06849  20345581.3204   20345575.8484
        51.0004         54.0004
  -1047540.34946   -792766.41943  24734725.7194   24734724.0124
        36.0004         18.5004
 -12193552.12247  -9470043.70846  22589011.5394   22589007.8164
        44.0004         41.5004
 -17600234.78347 -13642904.99947  22207735.4924   22207728.0554
        46.0004         46.0004
                                  25385488.273
        41.750
 20  5  5  2  9 30.0000000  0  9G16G30G27G 4G 9G26G 8G 7G 3
 -16718390.48347 -12800656.24145  21899079.5164   21899072.2034
        45.2504         33.7504
  -6198013.44946  -4818636.01745  24513984.5234   24513980.7114
        40.2504         32.5004
 -15774353.58147 -12270389.14547  22116392.3444   22116387.5314
        45.5004         45.0004
 -25394429.95247 -19765903.59046  20798726.4064   20798720.3204
        46.5004         38.0004
 -27109090.50948 -21111202.59549  20342552.1484   20342547.5594
        50.5004         54.0004
   -941441.71646   -710092.19243  24754917.1884   24754914.5984
        39.7504         21.5004
 -12278449.52647  -9536197.52147  22572856.0004   22572852.6604
        43.7504         42.0004
 -17659537.43447 -13689114.85647  22196450.5004   22196442.5984
        46.2504         45.7504
   1450671.41156  20430614.85553  25405573.9844   25405577.7704
        40.7504         22.7504
 20  5  5  2 10  0.0000000  0  9G16G30G27G 4G 9G26G 8G 7G 3
 -16630982.77047 -12732546.36645  21915712.8284   21915704.9884
        45.5004         33.0004
  -6282104.35446  -4884161.41545  24497983.0394   24497978.6174
        39.5004         32.2504
 -15811055.28747 -12298987.88147  22109407.0864   22109402.8014
        44.7504         45.0004
 -25341332.25947 -19724528.77946  20808830.7974   20808824.7074
        45.7504         37.7504
 -27124473.65448 -21123189.48149  20339625.1564   20339619.9104
        50.2504         54.0004
   -835297.06846   -627382.13243  24775114.9224   24775112.3674
        37.2504         20.7504
 -12363003.24647  -9602083.51847  22556766.0394   22556762.2344
        45.0004         42.5004
 -17718698.22347 -13735214.17347  22185192.4924   22185185.0864
        46.0004         45.5004
   1556115.74316                  25425637.648
        36.750
 20  5  5  2 10 30.0000000  0  9G16G30G27G 4G 9G26G 8G 7G 3
 -16543250.21147 -12664183.36045  21932407.7344   21932400.0944
        45.2504         32.7504
  -6366157.05046  -4949657.02245  24481987.2194   24481984.4384
        38.2504         32.5004
 -15847174.19247 -12327132.46347  22102534.5554   22102529.9414
        45.2504         45.0004
 -25287779.75447 -19682799.57246  20819021.3524   20819015.1684
        46.2504         37.7504
 -27139340.39048 -21134773.96049  20336795.9224   20336791.0434
        51.2504         54.0004
   -729126.45646   -544651.86343  24795319.5554   24795316.3914
        39.0004         21.2504
 -12447228.22547  -9667713.36247  22540738.0234   22540734.8524
        44.2504         42.5004
 -17777735.26747 -13781217.07047  22173958.2344   22173950.8404
        46.0004         45.5004
   1661432.57455  20535919.11154  25445675.5314   25445677.4774
        35.2504         29.2504
 20  5  5  2 11  0.0000000  0  9G16G30G27G 4G 9G26G 8G 7G 3
 -16455192.95347 -12595567.33745  21949164.7274   21949156.7854
        45.0004         32.2504
  -6450168.55546  -5015120.50745  24466000.6024   24465997.2464
        38.2504         32.2504
 -15882705.71947 -12354819.36447  22095772.8444   22095768.4924
        45.2504         45.0004
 -25233770.52047 -19640714.47746  20829298.9224   20829292.9774
        46.2504         37.5004
 -27153686.87348 -21145953.05549  20334065.8134   20334060.9184
        50.0004         54.2504
   -622929.12446   -461900.84043  24815526.7504   24815525.0514
        36.2504         19.2504
 -12531118.74147  -9733082.57147  22524774.2734   22524770.3714
        44.0004         42.2504
 -17836645.68047 -13827121.27947  22162748.1024   22162740.4734
        46.5004         45.7504
   1766618.99355  20617881.37453  25465692.2974   25465695.0634
        34.5004         22.2504
 20  5  5  2 11 30.0000000  0  9G16G30G27G 4G 9G26G 8G 7G 3
 -16366813.58147 -12526700.31345  21965982.8364   21965975.0664
        45.7504         32.2504
  -6534138.49346  -5080551.60445  24450021.3914   24450018.3364
        37.5004         32.0004
 -15917647.96647 -12382047.07547  22089123.9454   22089118.9264
        45.0004         45.2504
 -25179305.22547 -19598274.00546  20839662.9924   20839657.4454
        45.7504         37.5004
 -27167511.81548 -21156725.74249  20331434.9144   20331429.9144
        50.2504         54.0004
   -516706.85346   -379130.24143  24835741.0084   24835739.6914
        36.7504         20.5004
 -12614671.36447  -9798188.46747  22508875.1884   22508871.2194
        43.7504         42.0004
 -17895428.54447 -13872926.10447  22151561.7424   22151554.6914
        46.0004         45.7504
   1871672.86246  20678429.85253  25485684.9454   25485679.5664
        38.5004         22.7504
 20  5  5  2 12  0.0000000  0  9G16G30G27G 4G 9G26G 8G 7G 3
 -16278115.36247 -12457584.83845  21982861.1954   21982853.6724
        45.2504         32.5004
  -6618067.09046  -5145950.49345  24434049.7274   24434047.5824
        37.2504         32.0004
 -15951999.60247 -12408814.58947  22082586.4844   22082582.3634
        45.2504         45.5004
 -25124385.18647 -19555479.18746  20850113.7504   20850108.3134
        46.7504         37.7504
 -27180814.59048 -21167091.55949  20328903.3444   20328898.5904
        49.0004         54.0004
   -410462.06045   -296342.21043  24855957.7114   24855956.0594
        33.2504         19.5004
 -12697883.48547  -9863029.04846  22493041.0164   22493036.0984
        44.5004         41.7504
 -17954084.29347 -13918631.87747  22140400.0864   22140393.0704
        46.0004         46.0004
   1976590.97556  20760184.12454  25505650.3594   25505645.5554
        36.2504         24.5004
 20  5  5  2 12 30.0000000  0  9G16G30G27G 4G 9G26G 8G 7G 3
 -16189100.62447 -12388222.72745  21999800.3524   21999792.6094
        45.2504         32.7504
  -6701953.31646  -5211316.33745  24418089.6954   24418083.9574
        40.5004         32.5004
 -15985758.10147 -12435119.90047  22076162.8914   22076158.8674
        44.7504         45.7504
 -25069010.34647 -19512329.98046  20860651.3054   20860645.9304
        45.2504         37.5004
 -27193593.31148 -21177049.01449  20326472.0314   20326466.9104
        49.7504         54.0004
   -304195.82046   -213537.35043  24876179.5084   24876178.3364
        37.0004         19.7504
 -12780751.30647  -9927601.36847  22477271.5554   22477266.9884
        45.2504         42.0004
 -18012611.70447 -13964237.63547  22129262.8054   22129255.8554
        46.2504         46.2504
   2081371.96546  20841831.70344  25525587.7504   25525584.8674
        36.2504         28.7504
 20  5  5  2 13  0.0000000  0  9G16G30G27G 4G 9G26G 8G 7G 3
 -16099772.92647 -12318616.74245  22016798.4224   22016791.2584
        43.2504         30.2504
  -6785797.33646  -5276649.34245  24402133.0314   24402129.4574
        36.7504         32.2504
 -16018922.23347 -12460962.06947  22069851.6484   22069847.6884
        43.5004         44.7504
 -25013182.15047 -19468827.51246  20871275.1804   20871269.6954
        45.5004         37.0004
 -27205847.44248 -21186597.70849  20324139.9384   20324134.8754
        49.0004         54.0004
   -197910.54545   -130717.63543  24896406.0234   24896404.0274
        35.0004         22.0004
 -12863272.14647  -9991903.31946  22461567.7894   22461563.7274
        44.5004         41.5004
 -18071010.95847 -14009743.55147  22118149.7504   22118142.5124
        45.7504         46.5004
   2186012.77146  20923369.94444  25545500.8134   25545496.5274
        37.5004         27.2504
 20  5  5  2 13 30.0000000  0  8G16G30G27G 4G 9G26G 8G 7
 -16010127.29247 -12248763.03945  22033857.6804   22033850.2154
        45.0004         32.5004
  -6869591.52246  -5341943.47645  24386187.8524   24386184.1374
        39.7504         33.0004
 -16051482.82747 -12486333.95547  22063656.1484   22063651.4844
        45.2504         46.0004
 -24956893.92647 -19424966.58346  20881986.5164   20881981.3284
        45.5004         37.5004
 -27217568.34848 -21195730.88349  20321909.7504   20321904.8324
        50.5004         54.0004
    -91600.26846    -47878.51442  24916637.2974   24916634.4924
        38.0004         17.7504
 -12945435.49347 -10055926.69547  22445932.6724   22445929.3204
        44.5004         42.0004
 -18129274.30947 -14055143.55747  22107062.2194   22107055.2894
        46.5004         46.5004
 20  5  5  2 14  0.0000000  0  8G16G30G27G 4G 9G26G 8G 7
 -15920180.32047 -12178674.52945  22050973.8524   22050966.8954
        45.0004         32.2504
  -6953349.16846  -5407209.16445  24370249.4064   24370245.2274
        40.2504         33.5004
 -16083451.82947 -12511244.86347  22057572.0394   22057568.0474
        44.5004         45.7504
 -24900160.21047 -19380758.50846  20892782.6724   20892777.1844
        45.5004         37.2504
 -27228768.67748 -21204458.42349  20319778.4774   20319773.3914
        48.5004         54.0004
     14719.10046     34967.65842  24936869.2194   24936866.0784
        38.5004         17.2504
 -13027251.97747 -10119679.79347  22430363.5634   22430359.8524
        44.2504         42.0004
 -18187415.18947 -14100448.12447  22095998.4454   22095991.3054
        46.2504         46.5004
 20  5  5  2 14 30.0000000  0  9G16G30G27G 4G 5G 9G26G 8G 7
 -15829927.91747 -12108348.01745  22068148.4924   22068141.1564
        45.0004         32.5004
  -7037062.66446  -5472440.45945  24354317.9534   24354315.1454
        39.0004         33.7504
 -16114820.16947 -12535687.72147  22051603.3134   22051598.8444
        45.0004         45.5004
 -24842974.49347 -19336198.22746  20903664.8204   20903659.1054
        45.5004         37.2504
     63642.44315                  25108079.055
        34.000
 -27239439.97448 -21212773.72649  20317747.6954   20317742.6214
        48.5004         54.2504
    121053.37145    117825.50843  24957101.5634   24957100.5704
        34.7504         18.2504
 -13108711.18847 -10183154.48247  22414862.7034   22414858.6884
        44.5004         42.5004
 -18245425.91147 -14145651.28347  22084959.4774   22084952.3054
        46.5004         46.2504
 20  5  5  2 15  0.0000000  0  9G16G30G27G 4G 5G 9G26G 8G 7
 -15739374.44347 -12037786.89945  22085380.5314   22085373.0704
        44.7504         31.5004
  -7120733.50646  -5537638.50045  24338397.2424   24338393.0124
        40.5004         34.0004
 -16145588.08947 -12559662.71947  22045747.9534   22045744.2464
        44.7504         45.5004
 -24785339.48947 -19291287.85246  20914632.4454   20914626.6024
        45.5004         38.0004
      2047.96446     17852.56953  25096358.0004   25096351.9694
        37.7504         20.7504
 -27249583.09348 -21220677.48149  20315817.5394   20315812.7734
        50.7504         54.2504
    227398.60146    200691.86643  24977340.4844   24977337.5554
        37.0004         19.0004
 -13189811.85347 -10246349.79947  22399429.0704   22399425.9574
        44.0004         43.0004
 -18303307.53947 -14190753.84447  22073945.0394   22073937.7894
        46.0004         46.0004
 20  5  5  2 15 30.0000000  0  9G16G30G27G 4G 5G 9G26G 8G 7
 -15648520.26247 -11966991.47045  22102668.9924   22102661.9694
        44.7504         32.0004
  -7204359.04646  -5602801.24245  24322484.2734   24322479.0864
        41.0004         33.7504
 -16175751.55647 -12583166.71547  22040008.3134   22040004.4144
        44.7504         46.0004
 -24727253.77547 -19246026.27846  20925685.8594   20925679.8874
        45.5004         37.0004
    -59099.03146    -29794.42943  25084722.3914   25084715.8754
        36.2504         19.2504
 -27259194.61548 -21228166.99149  20313988.6644   20313983.0704
        50.0004         54.0004
    333755.56746    283567.44143  24997579.6884   24997577.2074
        38.7504         21.2504
 -13270548.65247 -10309261.57147  22384065.7274   22384062.3284
        44.0004         43.0004
 -18361057.44547 -14235753.78547  22062955.4694   22062948.3054
        45.7504         46.0004
 20  5  5  2 16  0.0000000  0  9G16G30G27G 4G 5G 9G26G 8G 7
 -15557369.69947 -11895965.09145  22120014.8054   22120007.3754
        45.0004         32.0004
  -7287940.38346  -5667929.55445  24306578.3524   24306574.6254
        39.7504         33.7504
 -16205310.35247 -12606199.53747  22034383.3914   22034379.4454
        45.0004         46.0004
 -24668719.58147 -19200415.24746  20936824.3364   20936818.7464
        45.5004         37.0004
   -119797.81546    -77092.18443  25073171.0004   25073165.9654
        38.0004         20.7504
 -27268274.89048 -21235242.54049  20312260.6254   20312255.5824
        48.2504         54.0004
    440121.16546    366449.72843  25017820.9844   25017817.7424
        39.0004         21.0004
 -13350919.82347 -10371888.45147  22368771.2194   22368768.2504
        45.0004         43.7504
 -18418676.62647 -14280651.83547  22051990.9064   22051983.7034
        46.0004         46.0004
 20  5  5  2 16 30.0000000  0  9G16G30G27G 4G 5G 9G26G 8G 7
 -15465925.06447 -11824709.55545  22137416.3524   22137408.9344
        45.5004         32.2504
  -7371476.58646  -5733022.67845  24290681.4384   24290678.0274
        39.2504         34.0004
 -16234262.30547 -12628759.49547  22028873.8444   22028870.0984
        45.0004         46.0004
 -24609737.21747 -19154454.97646  20948048.4694   20948042.7234
        45.7504         37.0004
   -180045.95346   -124038.79443  25061707.4774   25061700.5664
        38.2504         21.0004
 -27276822.34848 -21241902.91149  20310634.4064   20310629.3594
        50.0004         54.0004
    546494.17946    449337.63243  25038063.0084   25038060.1214
        39.0004         19.7504
 -13430921.45647 -10434227.35847  22353548.1174   22353544.3554
        45.0004         43.2504
 -18476164.12947 -14325447.25647  22041051.5554   22041044.4494
        46.2504         46.2504
 20  5  5  2 17  0.0000000  0  9G16G30G27G 4G 5G 9G26G 8G 7
 -15374189.48747 -11753227.31845  22154872.9614   22154865.6054
        45.0004         31.7504
  -7454967.80946  -5798080.74545  24274793.7734   24274790.4304
        38.7504         33.2504
 -16262606.28147 -12650845.71247  22023480.4924   22023476.1884
        45.0004         46.2504
 -24550308.09547 -19108146.59046  20959357.2734   20959351.8094
        45.7504         37.5004
   -239842.23546   -170633.29543  25050328.1094   25050322.1134
        38.7504         20.2504
 -27284836.40648 -21248147.64349  20309109.1884   20309104.0594
        50.0004         54.0004
    652872.36845    532229.69543  25058303.2894   25058302.4184
        33.5004         18.5004
 -13510551.21147 -10496276.50047  22338395.0474   22338391.7384
        45.2504         43.7504
 -18533520.23847 -14370140.33447  22030136.8914   22030129.5474
        46.5004         46.5004
 20  5  5  2 17 30.0000000  0  9G16G30G27G 4G 5G 9G26G 8G 7
 -15282165.96247 -11681520.71045  22172384.2034   22172376.7854
        45.0004         32.0004
  -7538413.79946  -5863103.57545  24258915.7274   24258910.8094
        40.0004         33.2504
 -16290340.89847 -12672457.10147  22018202.8364   22018198.4454
        45.0004         46.0004
 -24490433.27347 -19061490.90046  20970751.3284   20970745.5904
        45.5004         37.5004
   -299184.33046   -216873.91143  25039035.9224   25039030.1914
        38.2504         22.0004
 -27292316.29348 -21253976.13749  20307685.6334   20307680.3204
        50.0004         54.0004
    759253.65446    615124.29942  25078547.7664   25078546.5554
        37.2504         17.2504
 -13589806.07947 -10558033.53447  22323312.7664   22323309.1484
        45.0004         43.7504
 -18590744.09047 -14414730.34047  22019247.7664   22019240.3324
        46.5004         46.5004
 20  5  5  2 18  0.0000000  0  9G16G30G27G 4G 5G 9G26G 8G 7
 -15189856.83047 -11609591.55145  22189950.1804   22189942.9494
        45.0004         31.0004
  -7621813.79546  -5928090.57745  24243044.2194   24243040.4774
        39.7504         33.5004
 -16317464.14747 -12693592.10347  22013041.1564   22013036.7074
        45.5004         46.2504
 -24430113.21747 -19014488.28746  20982229.8284   20982224.2464
        45.5004         36.7504
   -358070.43146   -262759.17443  25027830.2424   25027824.1994
        38.2504         21.0004
 -27299260.54948 -21259387.26449  20306364.7034   20306359.4654
        49.2504         54.2504
    865637.14746    698020.41843  25098794.2814   25098791.4574
        40.0004         20.5004
 -13668682.69247 -10619495.82247  22308303.6414   22308299.9454
        45.2504         43.2504
 -18647835.11747 -14459216.84947  22008383.8754   22008376.3954
        46.5004         47.0004
 20  5  5  2 18 30.0000000  0  9G16G30G27G 4G 5G 9G26G 8G 7
 -15097265.22047 -11537442.28145  22207570.0314   22207562.1374
        44.2504         30.7504
  -7705167.80246  -5993041.74145  24227183.4694   24227178.9844
        41.0004         34.2504
 -16343974.90847 -12714249.84147  22007996.4924   22007992.1294
        45.7504         46.2504
 -24369349.22447 -18967139.73446  20993793.0704   20993787.2424
        45.7504         37.5004
   -416498.98946   -308287.92743  25016712.1884   25016705.3594
        38.5004         22.5004
 -27305668.54548 -21264380.52149  20305145.0634   20305139.9734
        50.2504         54.0004
  23027900.68956  17944320.77052  25119036.6094   25119032.3484
        38.0004         17.7504
 -13747177.84647 -10680660.86847  22293366.4774   22293362.7584
        45.0004         43.2504
 -18704793.06047 -14503599.65047  21997544.9924   21997538.1054
        47.2504         47.0004
 20  5  5  2 19  0.0000000  0  9G16G30G27G 4G 5G 9G26G 8G 7
 -15004393.84347 -11465075.00145  22225242.1174   22225235.4024
        44.5004         31.2504
  -7788475.35546  -6057956.71245  24211330.1884   24211325.8204
        39.5004         35.2504
 -16369871.57847 -12734429.06447  22003068.6724   22003064.4024
        45.5004         46.0004
 -24308142.21547 -18919445.97746  21005440.1644   21005434.0594
        45.5004         37.5004
   -474468.15646   -353458.72643  25005680.5554   25005673.9064
        38.5004         21.5004
 -27311539.32248 -21268955.17049  20304027.9614   20304022.7854
        49.2504         54.0004
  23134282.50846  18027215.65143  25139280.6024   25139277.9264
        39.0004         18.2504
 -13825289.13647 -10741526.79647  22278502.5864   22278498.7934
        44.5004         43.5004
 -18761617.52547 -14547878.45647  21986731.4534   21986724.3594
        46.7504         47.2504
 20  5  5  2 19 30.0000000  0  9G16G30G27G 4G 5G 9G26G 8G 7
 -14911245.49547 -11392491.90345  22242968.0704   22242960.8674
        44.2504         30.5004
  -7871736.01146  -6122835.13245  24195485.6804   24195482.1334
        40.0004         34.5004
 -16395152.58947 -12754128.54847  21998257.7424   21998253.0274
        45.5004         46.0004
 -24246492.96047 -18871407.62046  21017171.4064   21017166.1914
        45.7504         37.2504
   -531975.87646   -398269.94143  24994737.5864   24994730.8524
        37.0004         21.0004
 -27316871.77448 -21273110.33849  20303013.0004   20303007.5004
        50.2504         54.0004
  23240661.28346  18110108.05243  25159524.2974   25159522.5594
        39.0004         21.7504
 -13903012.91147 -10802090.77747  22263711.6024   22263708.6374
        45.5004         44.0004
 -18818308.04047 -14592052.87547  21975943.6334   21975936.5664
        46.5004         47.0004
 20  5  5  2 20  0.0000000  0  9G16G30G27G 4G 5G 9G26G 8G 7
 -14817822.55047 -11319694.84845  22260746.2974   22260738.7734
        44.5004         30.5004
  -7954949.11846  -6187676.48545  24179650.6724   24179647.0634
        39.5004         34.7504
 -16419816.24447 -12773346.98047  21993564.3834   21993560.0554
        45.5004         46.0004
 -24184402.26147 -18823025.28246  21028987.0864   21028981.6294
        45.7504         36.7504
   -589020.10046   -442720.00643  24983882.2194   24983876.1804
        38.0004         21.5004
 -27321664.74748 -21276845.14249  20302100.8984   20302096.0474
        49.7504         54.0004
  23347035.46646  18192997.08243  25179766.0234   25179764.6644
        39.0004         19.2504
 -13980346.29247 -10862350.53947  22248995.7034   22248992.2624
        45.2504         44.0004
 -18874863.55147 -14636122.08747  21965181.9534   21965174.5744
        46.0004         47.0004
 20  5  5  2 20 30.0000000  0  8G16G30G27G 4G 5G 9G 8G 7
 -14724127.55047 -11246685.79145  22278576.3674   22278567.9694
        45.0004         30.2504
  -8038114.04546  -6252480.30545  24163824.7274   24163821.7584
        39.0004         34.5004
 -16443860.97347 -12792083.12947  21988988.9924   21988984.5314
        45.7504         46.0004
 -24121870.87047 -18774299.54046  21040886.4224   21040880.7934
        46.0004         37.2504
   -645598.64846   -486807.00343  24973115.8444   24973111.0434
        37.7504         21.5004
 -27325917.19248 -21280158.75549  20301291.8594   20301286.3874
        49.5004         54.0004
 -14057285.65347 -10922303.28347  22234354.4774   22234351.1294
        45.0004         44.0004
 -18931283.63347 -14680085.78147  21954444.6884   21954437.9024
        46.7504         47.0004
 20  5  5  2 21  0.0000000  0  9G16G30G27G 4G 5G 9G26G 8G 7
 -14630166.38447 -11173469.33745  22296455.9144   22296448.4104
        44.5004         30.5004
  -8121233.82946  -6317248.95045  24148008.0944   24148004.0474
        38.7504         34.2504
 -16467288.70347 -12810338.50047  21984530.5634   21984526.3754
        45.7504         46.0004
 -24058903.21047 -18725233.84946  21052868.5784   21052862.9224
        45.5004         37.2504
   -701713.33446   -527743.91953  24962436.4064   24962430.8204
        38.7504         21.5004
 -27329631.52548 -21283053.04949  20300585.2034   20300579.5084
        49.0004         54.0004
   -252047.29056  18310551.85953  25220246.1564   25220246.2344
        36.0004         19.0004
 -14133831.41047 -10981949.31747  22219788.4694   22219784.7544
        45.2504         44.0004
 -18987571.15747 -14723946.17547  21943733.8204   21943726.8164
        46.2504         46.7504
 20  5  5  2 21 30.0000000  0  9G16G30G27G 4G 5G 9G26G 8G 7
 -14535936.98447 -11100043.86445  22314387.2274   22314380.2194
        44.5004         31.2504
  -8204303.05646  -6381978.20345  24132200.2584   24132196.3674
        39.2504         34.0004
 -16490093.07847 -12828108.14247  21980190.9384   21980186.1994
        45.5004         46.0004
 -23995495.18847 -18675825.02346  21064935.0004   21064929.1914
        46.7504         37.0004
   -757357.00546   -571102.63743  24951847.8054   24951842.5984
        37.0004         19.7504
 -27332801.88148 -21285523.47349  20299981.7114   20299976.6254
        49.0004         54.0004
   -145697.76645  18364499.72453  25240483.3834   25240483.1724
        33.5004         20.0004
 -14209975.60147 -11041282.44247  22205298.7814   22205294.9414
        45.5004         44.5004
 -19043720.50747 -14767698.91147  21933048.7114   21933041.8164
        46.7504         46.7504
 20  5  5  2 22  0.0000000  0  9G16G30G27G 4G 5G 9G26G 8G 7
 -14441444.67047 -11026413.53245  22332368.7974   22332361.3364
        44.7504         31.0004
  -8287323.91246  -6446669.78345  24116400.7344   24116397.4924
        38.5004         33.5004
 -16512275.33847 -12845393.01847  21975969.9384   21975965.3554
        45.5004         46.2504
 -23931650.50547 -18626075.93446  21077084.2734   21077078.5434
        46.0004         36.2504
   -812531.42246   -614095.66643  24941349.0554   24941342.6844
        38.2504         20.2504
 -27335430.03748 -21287571.39649  20299481.5864   20299476.3094
        48.5004         54.0004
    -39359.88345  18447360.35842  25260718.1644   25260718.2584
        34.7504         16.7504
 -14285717.56947 -11100302.15647  22190885.5084   22190881.9144
        45.2504         44.7504
 -19099733.81047 -14811345.63147  21922390.1484   21922382.9144
        47.5004         46.7504
 20  5  5  2 22 30.0000000  0  9G16G30G27G 4G 5G 9G26G 8G 7
 -14346692.55247 -10952580.75145  22350399.5084   22350392.3404
        45.2504         30.7504
  -8370296.28546  -6511323.55545  24100612.7584   24100609.2504
        38.7504         33.7504
 -16533834.53747 -12862192.40147  21971867.3674   21971862.5744
        46.0004         46.2504
 -23867370.46847 -18575987.60746  21089316.1024   21089310.1054
        46.2504         36.5004
   -867233.96746   -656721.03543  24930939.4304   24930933.5004
        37.5004         22.5004
 -27337515.42948 -21289196.38949  20299084.5784   20299079.5594
        48.5004         54.0004
     66964.03446  18530210.19643  25280952.2734   25280950.4064
        37.0004         21.2504
 -14361055.15547 -11159006.76047  22176549.1334   22176545.5044
        46.0004         44.5004
 -19155610.57147 -14854885.96847  21911757.0314   21911749.7814
        47.5004         47.0004
 20  5  5  2 23  0.0000000  0  9G16G30G27G 4G 5G 9G26G 8G 7
 -14251681.03047 -10878545.83545  22368479.4694   22368472.5514
        45.5004         31.2504
  -8453217.80846  -6575937.72145  24084833.0164   24084829.4614
        39.2504         34.2504
 -16554767.35447 -12878503.68447  21967883.9224   21967879.4694
        46.5004         46.0004
 -23802654.16647 -18525559.32946  21101631.5474   21101625.2274
        46.5004         36.7504
   -921461.43246   -698976.21543  24920620.1564   24920614.4654
        37.5004         21.7504
 -27339055.30248 -21290396.30649  20298791.5944   20298786.4454
        49.5004         54.0004
                                  25301182.477
        27.500
 -14435982.94547 -11217392.04347  22162291.0164   22162286.9774
        46.0004         44.5004
 -19211348.45147 -14898318.08147  21901150.6954   21901143.0474
        47.0004         47.0004
 20  5  5  2 23 30.0000000  0  8G16G30G27G 4G 5G 9G 8G 7
 -14156416.33747 -10804313.64645  22386607.8134   22386600.6094
        44.7504         30.7504
  -8536091.32146  -6640514.47745  24069062.6254   24069059.2774
        39.5004         34.7504
 -16575075.81947 -12894328.45747  21964019.7424   21964015.0474
        46.0004         46.2504
 -23737505.95547 -18474794.51246  21114028.7034   21114022.8284
        46.0004         36.5004
   -975215.36346   -740862.38743  24910392.0164   24910385.5274
        37.0004         22.0004
 -27340052.09748 -21291173.04049  20298602.0394   20298596.7194
        49.5004         54.0004
 -14510501.33447 -11275458.32247  22148110.4844   22148106.7274
        45.5004         44.2504
 -19266950.47747 -14941644.33647  21890569.7344   21890562.0664
        47.5004         47.0004
 20  5  5  2 24  0.0000000  0  8G16G30G27G 4G 5G 9G 8G 7
 -14060899.18247 -10729884.74245  22404783.9384   22404776.8404
        44.5004         30.0004
  -8618914.28346  -6705051.81845  24053303.1724   24053299.0434
        40.0004         35.7504
 -16594756.50347 -12909664.05547  21960274.1644   21960269.9734
        46.5004         46.2504
 -23671924.70047 -18423692.24546  21126508.2974   21126502.7034
        46.2504         36.7504
  -1028491.90346   -782376.54643  24900253.2274   24900247.5594
        38.0004         20.7504
 -27340502.85748 -21291524.29249  20298516.3594   20298511.5744
        48.2504         54.0004
 -14584605.12147 -11333201.53047  22134008.7424   22134005.4064
        46.0004         44.5004
 -19322413.57847 -14984862.33247  21880015.3914   21880008.3914
        47.0004         47.0004
 20  5  5  2 24 30.0000000  0  8G16G30G27G 4G 5G 9G 8G 7
 -13965132.81747 -10655261.64145  22423007.4844   22423000.7424
        44.0004         30.0004
  -8701687.14446  -6769550.14046  24037551.0474   24037547.5434
        40.0004         36.0004
 -16613809.15547 -12924510.27747  21956648.7194   21956644.5164
        47.0004         46.2504
 -23605912.45347 -18372254.14946  21139070.3914   21139064.6174
        46.5004         36.0004
  -1081290.37146   -823518.27143  24890204.6884   24890199.4024
        37.2504         20.2504
 -27340407.76848 -21291450.21449  20298534.4774   20298529.4924
        50.0004         54.0004
 -14658292.41547 -11390620.19747  22119987.2114   22119982.6524
        46.0004         44.7504
 -19377738.52547 -15027972.67547  21869487.2034   21869480.1604
        47.0004         47.0004
 20  5  5  2 25  0.0000000  0  8G16G30G27G 4G 5G 9G 8G 7
 -13869119.85947 -10580446.40044  22441278.5314   22441271.3874
        44.5004         29.7504
  -8784409.16646  -6834008.82846  24021809.9534   24021806.1484
        40.2504         36.2504
 -16632232.26047 -12938865.94447  21953143.2894   21953138.2344
        47.5004         46.5004
 -23539469.97647 -18320480.81046  21151713.7114   21151708.3284
        46.0004         36.7504
  -1133608.64946   -864285.70643  24880249.8524   24880244.1644
        36.5004         19.0004
 -27339765.75048 -21290949.94949  20298656.6804   20298651.6954
        48.2504         54.0004
 -14731559.90147 -11447711.73147  22106044.0634   22106040.6684
        46.0004         44.5004
 -19432924.04147 -15070974.36547  21858986.3984   21858979.0354
        46.2504         47.2504
 20  5  5  2 25 30.0000000  0  8G16G30G27G 4G 5G 9G 8G 7
 -13772862.79347 -10505440.93444  22459595.7194   22459588.5124
        44.2504         29.0004
  -8867079.85146  -6898427.51445  24006077.9304   24006074.4184
        39.5004         35.5004
 -16650024.55047 -12952730.06947  21949757.2344   21949752.6214
        47.7504         46.5004
 -23472598.25947 -18268373.01246  21164438.7734   21164433.3754
        47.2504         36.5004
  -1185445.03046   -904677.71243  24870386.1254   24870379.4384
        38.0004         18.5004
 -27338575.93048 -21290022.82149  20298883.2034   20298878.2424
        48.2504         54.0004
 -14804404.50747 -11504473.76347  22092182.3834   22092179.1564
        45.5004         44.5004
 -19487969.68347 -15113867.06947  21848511.0164   21848504.1844
        46.0004         47.0004
 20  5  5  2 26  0.0000000  0  8G16G30G27G 4G 5G 9G 8G 7
 -13676364.78747 -10430247.72444  22477958.9224   22477950.9924
        44.2504         28.5004
  -8949699.17746  -6962806.18445  23990356.2274   23990352.1884
        40.0004         35.2504
 -16667185.42247 -12966102.18147  21946491.7814   21946487.3984
        47.5004         46.5004
 -23405298.96447 -18215932.01246  21177245.5784   21177239.7854
        47.0004         36.5004
  -1236798.31046   -944693.25643  24860612.6884   24860607.3364
        36.5004         19.0004
 -27336838.13248 -21288668.70749  20299213.8674   20299208.4414
        48.7504         54.0004
 -14876823.63247 -11560904.23847  22078401.4304   22078398.0434
        46.0004         45.2504
 -19542875.13947 -15156650.52547  21838062.9384   21838056.1954
        46.2504         47.2504
 20  5  5  2 26 30.0000000  0  8G16G30G27G 4G 5G 9G 8G 7
 -13579628.40047 -10354868.75544  22496367.2274   22496359.9064
        44.2504         29.0004
  -9032266.62646  -7027144.43945  23974644.1804   23974640.1644
        40.0004         35.7504
 -16683713.61247 -12978981.28747  21943346.1804   21943341.8054
        47.2504         46.5004
 -23337573.08847 -18163158.62846  21190133.2584   21190127.9184
        46.5004         36.7504
  -1287666.57746   -984330.89042  24850933.4534   24850927.4654
        36.7504         17.7504
 -27334551.54048 -21286886.95549  20299648.9614   20299643.3634
        49.5004         54.0004
 -14948814.50047 -11617001.00747  22064702.1724   22064698.7344
        46.2504         45.5004
 -19597639.90447 -15199324.35747  21827641.7734   21827634.5984
        46.2504         47.2504
 20  5  5  2 27  0.0000000  0  8G16G30G27G 4G 5G 9G 8G 7
 -13482655.92447 -10279305.82344  22514820.2664   22514812.5234
        42.5004         28.5004
  -9114781.70846  -7091441.86745  23958941.7734   23958938.2464
        38.5004         33.2504
 -16699607.96447 -12991366.50747  21940321.7114   21940317.0474
        46.5004         45.7504
 -23269421.70847 -18110053.66946  21203102.0634   21203096.8094
        46.5004         36.2504
  -1338048.22746  -1023589.26542  24841346.8444   24841339.8444
        37.0004         16.7504
 -27331715.40048 -21284676.98749  20300188.1484   20300183.6254
        48.7504         54.0004
 -15020374.18147 -11672761.77347  22051085.2894   22051081.5204
        46.0004         45.2504
 -19652263.30147 -15241888.03947  21817247.2344   21817240.2344
        46.0004         47.0004
 20  5  5  2 27 30.0000000  0  8G16G30G27G 4G 5G 9G 8G 7
 -13385450.95447 -10203561.73944  22533317.9534   22533310.4144
        44.5004         29.7504
  -9197244.35446  -7155698.47045  23943250.0394   23943245.6454
        40.0004         35.7504
 -16714867.98247 -13003257.43647  21937417.9774   21937413.4064
        47.0004         46.5004
 -23200846.48347 -18056618.44846  21216151.8134   21216145.6564
        45.5004         36.5004
  -1387942.35946  -1062467.83443  24831852.6094   24831845.7154
        38.7504         19.2504
 -27328329.57448 -21282038.69349  20300832.8594   20300828.0044
        48.7504         54.0004
 -15091500.12547 -11728184.58647  22037549.8284   22037546.4414
        46.0004         45.5004
 -19706745.42447 -15284341.63847  21806879.6644   21806872.3834
        47.0004         47.7504
 20  5  5  2 28  0.0000000  0  8G16G30G27G 4G 5G 9G 8G 7
 -13288015.48047 -10127638.01244  22551858.7034   22551851.7734
        43.2504         28.7504
  -9279653.75446  -7219913.57245  23927567.0554   23927564.0864
        39.2504         35.2504
 -16729492.18647 -13014652.92647  21934634.9774   21934630.4494
        47.0004         46.5004
 -23131848.17347 -18002853.54546  21229281.5864   21229275.6024
        46.2504         36.2504
  -1437346.69746  -1100964.70343  24822450.9384   24822443.9734
        38.7504         18.5004
 -27324392.92648 -21278971.19049  20301581.9224   20301577.0784
        48.5004         54.0004
 -15162188.74447 -11783266.62247  22024098.5864   22024094.3244
        45.7504         45.2504
 -19761085.01047 -15326684.16948  21796539.1334   21796532.1054
        47.2504         48.0004
 20  5  5  2 28 30.0000000  0  8G16G30G27G 4G 5G 9G 8G 7
 -13190352.25247 -10051536.83844  22570443.9774   22570436.6524
        43.5004         28.5004
  -9362009.62346  -7284086.93745  23911895.7034   23911892.1174
        40.0004         35.5004
 -16743479.74147 -13025552.31147  21931973.2274   21931968.6644
        47.0004         46.7504
 -23062428.11047 -17948760.00345  21242491.9774   21242486.0864
        45.7504         35.7504
  -1486260.12446  -1139079.10343  24813141.5314   24813136.4264
        37.5004         19.0004
 -27319905.06348 -21275474.16549  20302435.9384   20302430.8874
        49.0004         54.0004
 -15232437.33647 -11838005.77447  22010730.6884   22010726.8524
        45.7504         45.2504
 -19815281.42147 -15368915.13647  21786225.9694   21786218.5354
        47.0004         47.7504
 20  5  5  2 29  0.0000000  0  8G16G30G27G 4G 5G 9G 8G 7
 -13092463.70147  -9975260.10644  22589071.3444   22589064.5124
        43.2504         28.2504
  -9444311.24046  -7348218.05045  23896234.2504   23896229.9924
        40.0004         35.5004
 -16756829.48047 -13035954.71347  21929433.1564   21929428.1994
        46.7504         46.7504
 -22992587.27547 -17894338.58746  21255781.9844   21255776.3284
        47.0004         36.0004
  -1534681.13146  -1176809.72843  24803928.6884   24803921.8204
        39.7504         19.7504
 -27314865.07748 -21271546.91448  20303395.1334   20303389.8164
        49.2504         53.7504
 -15302243.28847 -11892400.00847  21997446.9844   21997443.1564
        45.0004         45.0004
 -19869333.96347 -15411034.00347  21775939.9384   21775932.8484
        47.2504         47.5004
 20  5  5  2 29 30.0000000  0  8G16G30G27G 4G 5G 9G 8G 7
 -12994353.44447  -9898810.59344  22607741.3134   22607733.8634
        43.5004         29.0004
  -9526559.01946  -7412307.21445  23880583.4694   23880578.8914
        40.5004         35.5004
 -16769541.37647 -13045860.09147  21927013.6644   21927009.4694
        46.2504         46.7504
 -22922327.84747 -17839591.00346  21269152.3914   21269147.0164
        46.7504         36.0004
  -1582608.27946  -1214155.57943  24794807.9614   24794802.1684
        39.0004         19.0004
 -27309273.39548 -21267189.76549  20304459.0314   20304453.6684
        49.2504         54.0004
 -15371604.26147 -11946447.51247  21984248.0704   21984243.8364
        45.0004         45.0004
 -19923243.26447 -15453041.24447  21765681.3834   21765674.4844
        47.0004         47.5004
 20  5  5  2 30  0.0000000  0  8G16G30G27G 4G 5G 9G 8G 7
 -12896023.32647  -9822189.76444  22626452.7894   22626445.9224
        43.7504         28.7504
  -9608752.01546  -7476353.69545  23864942.6724   23864937.9844
        39.7504         35.5004
 -16781614.02047 -13055267.34347  21924716.8444   21924712.1374
        47.0004         46.5004
 -22851650.50747 -17784517.77045  21282601.7734   21282596.0704
        46.5004         35.7504
  -1630039.89046  -1251115.29243  24785782.8984   24785776.2034
        39.7504         19.7504
 -27303128.88848 -21262401.84549  20305628.2894   20305623.2304
        48.7504         54.0004
 -15440517.16547 -12000145.87147  21971134.2664   21971130.6414
        44.7504         45.5004
 -19977007.89647 -15494935.75947  21755450.1484   21755443.0434
        46.5004         47.5004
 20  5  5  2 30 30.0000000  0  8G16G30G27G 4G 5G 9G 8G 7
 -12797476.44947  -9745400.03944  22645206.1094   22645198.8284
        43.7504         27.7504
  -9690889.98646  -7540357.28845  23849311.1954   23849308.2464
        39.7504         35.7504
 -16793046.72547 -13064175.95447  21922540.9534   21922536.5204
        46.5004         46.7504
 -22780556.68847 -17729120.00946  21296130.3054   21296125.1174
        47.0004         36.2504
  -1676974.62846  -1287687.85743  24776850.9774   24776844.1374
        40.0004         18.5004
 -27296431.26948 -21257182.93649  20306902.8284   20306897.8244
        49.0004         54.0004
 -15508979.22447 -12053492.92047  21958106.2974   21958102.6564
        45.5004         45.7504
 -20030627.50647 -15536717.27747  21745246.7274   21745239.5554
        46.5004         47.5004
 20  5  5  2 31  0.0000000  0  8G16G30G27G 4G 5G 9G 8G 7
 -12698715.10047  -9668443.18944  22663999.3444   22663992.2814
        43.0004         28.2504
  -9772972.22446  -7604317.44446  23833692.6254   23833688.4344
        40.5004         36.2504
 -16803838.53847 -13072585.16147  21920487.6804   21920482.9844
        47.2504         47.0004
 -22709047.53747 -17673398.61846  21309737.8204   21309732.5044
        46.5004         36.0004
  -1723411.12846  -1323872.13143  24768014.0864   24768007.3524
        39.5004         19.2504
 -27289179.86448 -21251532.49949  20308283.0554   20308278.0664
        49.2504         54.0004
 -15576987.40847 -12106486.30147  21945165.2344   21945160.6524
        45.7504         46.0004
 -20084101.32847 -15578385.18247  21735071.0634   21735063.9384
        46.5004         47.5004
 20  5  5  2 31 30.0000000  0  8G16G30G27G 4G 5G 9G 8G 7
 -12599741.71147  -9591321.10644  22682833.7734   22682826.4804
        43.2504         28.0004
  -9854998.38346  -7668233.91846  23818083.3364   23818079.5474
        39.5004         36.2504
 -16813988.66347 -13080494.34247  21918556.0084   21918551.5594
        46.5004         46.7504
 -22637124.40947 -17617354.64746  21323424.3134   21323419.0474
        46.2504         36.0004
  -1769348.38546  -1359667.42343  24759272.8524   24759266.2734
        40.0004         19.5004
 -27281374.24048 -21245450.21249  20309768.1484   20309763.1054
        48.5004         54.0004
 -15644539.31047 -12159124.13347  21932310.2274   21932306.5274
        45.7504         46.0004
 -20137428.79447 -15619939.04647  21724922.9694   21724915.7504
        46.5004         47.5004
 20  5  5  2 32  0.0000000  0  8G16G30G27G 4G 5G 9G 8G 7
 -12500559.50547  -9514036.30644  22701707.2894   22701699.5704
        42.5004         28.2504
  -9936968.11646  -7732106.39346  23802484.9534   23802480.3714
        40.5004         36.2504
 -16823496.62747 -13087903.14947  21916746.3204   21916742.2974
        46.0004         46.5004
 -22564788.77747 -17560989.23945  21337189.8204   21337184.0204
        47.0004         35.7504
  -1814784.37846  -1395072.08243  24750627.0554   24750620.5084
        39.7504         20.5004
 -27273014.11548 -21238935.84049  20311359.4384   20311354.3094
        49.0004         54.0004
 -15711632.36747 -12211404.42647  21919543.1644   21919539.1884
        45.2504         46.5004
 -20190609.52547 -15661378.57547  21714803.1954   21714796.1764
        46.5004         47.7504
 20  5  5  2 32 30.0000000  0  8G16G30G27G 4G 5G 9G 8G 7
 -12401171.39047  -9436591.05544  22720619.9534   22720613.0394
        43.2504         28.0004
 -10018881.46046  -7795934.96946  23786897.2584   23786893.0824
        40.5004         36.2504
 -16832362.03647 -13094811.25847  21915059.6884   21915054.9734
        46.5004         46.5004
 -22492042.42647 -17504303.79446  21351033.2274   21351026.9654
        47.5004         36.2504
  -1859718.53746  -1430085.75543  24742076.3754   24742070.4144
        39.0004         20.7504
 -27264099.52948 -21231989.41849  20313055.4924   20313050.6094
        49.0004         54.0004
 -15778263.64447 -12263324.88547  21906862.9534   21906858.9454
        45.5004         46.2504
 -20243643.18747 -15702703.49748  21704711.0314   21704703.9454
        46.5004         48.0004
 20  5  5  2 33  0.0000000  0  8G16G30G27G 4G 5G 9G 8G 7
 -12301579.93447  -9358987.37744  22739572.4614   22739565.3134
        43.0004         26.5004
 -10100737.67446  -7859719.01646  23771320.2814   23771316.4304
        40.5004         37.2504
 -16840583.99547 -13101217.98447  21913495.0164   21913490.5744
        45.7504         46.7504
 -22418886.42947 -17447299.13745  21364954.5704   21364948.4344
        47.5004         35.5004
  -1904149.56946  -1464707.29043  24733621.4384   24733614.5314
        39.0004         22.5004
 -27254629.80948 -21224610.42949  20314857.7344   20314852.2704
        49.7504         54.0004
 -15844430.70047 -12314883.62147  21894271.9224   21894268.7034
        45.0004         46.2504
 -20296529.39947 -15743913.54748  21694647.2194   21694640.3204
        47.0004         48.0004
 20  5  5  2 33 30.0000000  0  8G16G30G27G 4G 5G 9G 8G 7
 -12201786.47147  -9281226.29144  22758562.2114   22758554.9964
        42.5004         27.5004
 -10182535.62746  -7923457.64846  23755755.0704   23755751.0204
        40.7504         37.2504
 -16848161.17647 -13107122.28047  21912053.0084   21912048.8634
        45.7504         46.5004
 -22345321.54647 -17389975.86045  21378953.0314   21378947.1564
        46.5004         35.5004
  -1948074.90646  -1498934.88243  24725262.1024   24725256.5784
        38.7504         21.7504
 -27244603.91848 -21216798.05949  20316765.6954   20316760.5944
        48.2504         54.0004
 -15910129.90147 -12366077.79647  21881770.0314   21881766.5274
        45.2504         46.2504
 -20349266.22247 -15785007.15448  21684611.9384   21684604.7544
        46.7504         48.2504
 20  5  5  2 34  0.0000000  0  8G16G30G27G 4G 5G 9G 8G 7
 -12101794.76847  -9203310.71544  22777589.7194   22777583.1914
        43.0004         27.2504
 -10264275.47446  -7987151.00146  23740199.8594   23740196.4924
        40.0004         37.0004
 -16855093.52247 -13112524.11547  21910733.7344   21910729.1524
        46.0004         46.2504
 -22271349.66247 -17332335.45045  21393029.2114   21393023.7274
        46.2504         35.7504
  -1991493.86246  -1532767.83143  24716999.8984   24716994.1174
        39.7504         22.0004
 -27234022.07948 -21208552.48449  20318778.9844   20318774.3164
        48.5004         54.0004
 -15975359.55847 -12416906.09047  21869357.0634   21869353.5864
        46.0004         46.2504
 -20401853.81247 -15825984.49448  21674604.6884   21674597.6214
        47.2504         48.2504
 20  5  5  2 34 30.0000000  0  8G16G30G27G 4G 5G 9G 8G 7
 -12001607.37147  -9125242.66544  22796654.8054   22796647.8754
        42.7504         27.7504
 -10345956.85346  -8050798.80646  23724656.6024   23724652.7624
        40.5004         37.0004
 -16861380.63947 -13117423.16947  21909537.3914   21909532.6724
        46.0004         46.5004
 -22196972.39147 -17274379.17045  21407182.6094   21407177.2344
        46.2504         35.5004
  -2034405.35046  -1566205.36843  24708834.3444   24708828.5634
        39.0004         22.2504
 -27222884.14648 -21199873.59049  20320898.6094   20320894.0274
        48.5004         54.0004
 -16040116.85547 -12467366.31947  21857033.8754   21857030.1804
        45.0004         46.2504
 -20454292.03247 -15866845.43848  21664625.9454   21664618.6214
        47.5004         48.2504
 20  5  5  2 35  0.0000000  0  8G16G30G27G 4G 5G 9G 8G 7
 -11901226.67547  -9047023.99144  22815757.1804   22815749.8284
        43.5004         28.5004
 -10427579.26246  -8114400.66746  23709124.4694   23709120.7304
        40.2504         36.5004
 -16867021.85147 -13121818.91247  21908464.3914   21908459.5864
        45.5004         46.5004
 -22122191.03247 -17216108.01245  21421413.1884   21421407.3244
        46.0004         35.2504
  -2076808.13346  -1599246.48143  24700765.0784   24700759.3134
        40.0004         22.2504
 -27211189.71148 -21190761.05349  20323124.0164   20323118.6214
        48.5004         54.0004
 -16104399.40547 -12517456.61347  21844801.6414   21844798.0394
        45.0004         46.5004
 -20506579.81747 -15907589.17648  21654676.5084   21654668.9574
        46.2504         48.0004
 20  5  5  2 35 30.0000000  0  8G16G30G27G 4G 5G 9G 8G 7
 -11800655.12747  -8968656.59744  22834895.6644   22834888.1884
        43.0004         28.5004
 -10509141.85046  -8177955.90145  23693603.3054   23693599.5824
        41.2504         35.7504
 -16872016.28847 -13125710.68847  21907513.4384   21907508.9844
        45.7504         46.5004
 -22047006.66447 -17157522.80545  21435720.1724   21435715.0004
        46.2504         34.7504
  -2118700.79346  -1631890.12943  24692793.7974   24692787.5744
        39.5004         22.5004
 -27198938.11648 -21181214.36149  20325455.4844   20325450.2974
        48.7504         54.0004
 -16168203.87947 -12567174.37247  21832660.3054   21832656.3484
        45.7504         46.5004
 -20558716.08247 -15948214.81847  21644754.8754   21644747.6374
        47.5004         47.7504
 20  5  5  2 36  0.0000000  0  8G16G30G27G 4G 5G 9G 8G 7
 -11699895.53347  -8890142.65344  22854068.8754   22854061.5274
        42.2504         27.0004
 -10590644.74346  -8241464.62846  23678094.3444   23678089.8674
        40.5004         36.5004
 -16876364.00347 -13129098.51847  21906686.2974   21906681.7624
        45.2504         46.5004
 -21971421.30547 -17098625.15445  21450103.7034   21450097.9104
        46.2504         35.0004
  -2160082.52846  -1664135.64243  24684918.4384   24684912.5044
        39.0004         22.0004
 -27186129.72348 -21171233.81049  20327892.7814   20327887.4414
        49.5004         54.0004
 -16231528.21347 -12616518.00047  21820609.8364   21820606.3284
        46.0004         46.5004
 -20610701.21147 -15988722.70447  21634862.5634   21634854.9144
        47.5004         47.7504
 20  5  5  2 36 30.0000000  0  8G16G30G27G 4G 5G 9G 8G 7
 -11598950.44647  -8811484.19144  22873277.5394   22873270.6134
        42.5004         28.2504
 -10672087.23846  -8304926.28346  23662596.1884   23662591.8714
        41.0004         38.0004
 -16880064.34847 -13131981.90547  21905982.1564   21905977.6254
        46.2504         46.5004
 -21895436.19447 -17039415.99645  21464563.6884   21464558.0394
        45.5004         34.7504
  -2200951.90246  -1695981.91443  24677140.9304   24677135.3094
        38.5004         23.0004
 -27172764.01648 -21160818.98349  20330436.1644   20330430.9264
        49.2504         54.0004
 -16294369.63147 -12665485.33647  21808651.3834   21808647.8404
        45.2504         46.5004
 -20662534.11647 -16029111.97447  21624998.8284   21624991.8754
        47.7504         47.5004
 20  5  5  2 37  0.0000000  0  8G16G30G27G 4G 5G 9G 8G 7
 -11497822.66647  -8732683.39344  22892521.9844   22892514.9344
        42.0004         25.5004
 -10753469.20446  -8368340.78346  23647109.8204   23647105.9494
        41.2504         38.0004
 -16883117.22347 -13134360.76747  21905401.3444   21905396.3404
        46.7504         46.5004
 -21819053.14847 -16979896.75645  21479098.5554   21479092.8444
        46.5004         35.2504
  -2241308.52846  -1727428.60043  24669462.7974   24669456.0984
        39.5004         22.7504
 -27158841.18648 -21149970.03849  20333085.8284   20333080.3674
        49.5004         54.0004
 -16356725.87547 -12714074.60947  21796785.4144   21796781.7384
        46.0004         46.7504
 -20714214.64947 -16069382.51847  21615164.2894   21615157.1414
        47.0004         47.5004
 20  5  5  2 37 30.0000000  0  9G16G30G27G 4G 5G 9G11G 8G 7
 -11396514.57247  -8653742.07144  22911800.6414   22911793.7704
        42.2504         26.0004
 -10834789.89646  -8431707.51946  23631634.9924   23631630.8634
        41.0004         37.7504
 -16885521.96747 -13136234.59447  21904943.3054   21904939.4264
        46.2504         46.2504
 -21742273.39047 -16920068.38345  21493709.3984   21493703.4264
        47.0004         35.5004
  -2281150.09946  -1758473.99543  24661880.1564   24661874.7034
        39.5004         22.7504
 -27144360.75048 -21138686.60048  20335840.9304   20335835.9964
        49.5004         53.7504
    -70669.18316                  25604912.844
        37.500
 -16418594.27947 -12762283.74447  21785012.7114   21785009.2504
        45.7504         47.0004
 -20765741.86547 -16109533.59347  21605359.0704   21605351.5784
        46.5004         47.7504
 20  5  5  2 38  0.0000000  0  9G16G30G27G 4G 5G 9G11G 8G 7
 -11295031.90547  -8574664.71844  22931111.9304   22931105.0744
        43.0004         27.2504
 -10916052.17846  -8495028.74946  23616171.0234   23616167.1884
        40.7504         37.2504
 -16887281.55547 -13137605.70547  21904608.9064   21904604.3634
        45.2504         46.5004
 -21665101.75047 -16859934.66145  21508394.6564   21508389.1724
        46.0004         35.7504
  -2320479.25546  -1789120.10943  24654396.1254   24654389.9104
        40.0004         21.7504
 -27129325.86448 -21126971.11549  20338702.0394   20338696.9534
        49.2504         54.0004
   -158576.26046    -76749.83352  25588184.5704   25588179.1294
        36.7504         16.7504
 -16479975.74147 -12810113.44247  21773331.9774   21773328.4184
        46.2504         47.0004
 -20817118.22647 -16149567.11748  21595582.9064   21595575.3954
        47.0004         48.2504
 20  5  5  2 38 30.0000000  0  9G16G30G27G 4G 5G 9G11G 8G 7
 -11193369.82447  -8495447.56544  22950457.8984   22950450.8404
        43.0004         25.7504
 -10997247.87946  -8558298.11346  23600720.1564   23600716.0594
        41.0004         37.2504
 -16888387.93947 -13138467.82447  21904398.2274   21904393.3914
        45.5004         46.2504
 -21587532.06247 -16799490.78545  21523155.7194   21523150.3014
        46.7504         35.0004
  -2359287.19946  -1819360.03743  24647011.1954   24647004.9104
        38.5004         22.0004
 -27113728.71648 -21114817.51449  20341670.1484   20341665.3094
        49.5004         54.0004
   -246589.71246   -145331.70542  25571436.6724   25571431.4064
        38.2504         16.7504
 -16540860.07847 -12857555.77747  21761745.8984   21761742.2034
        45.2504         47.2504
 -20868335.49347 -16189476.68548  21585836.5164   21585829.3524
        47.5004         48.5004
