     2.11           OBSERVATION DATA    G (GPS)             RINEX VERSION / TYPE
teqc  2018Jun8                          20200219 01:12:02UTCPGM / RUN BY / DATE
Linux 2.4.20-8|x86|gcc -static|Linux 32|=+                  COMMENT
BIT 2 OF LLI FLAGS DATA COLLECTED UNDER A/S CONDITION       COMMENT
POL2                                                        MARKER NAME
GGN                 JPL                                     OBSERVER / AGENCY
02563                 Javad Delta-3             1s jps      REC # / TYPE / VERS
383-1030            TPSCR.G3                                ANT # / TYPE
  1239971.4511  4530790.0876  4302578.7950                  APPROX POSITION XYZ
        0.0780        0.0000        0.0000                  ANTENNA: DELTA H/E/N
     1     1                                                WAVELENGTH FACT L1/2
     8    L1    L2    C1    P1    C2    P2    S1    S2      # / TYPES OF OBSERV
    30.0000                                                 INTERVAL
Forced Modulo Decimation to 30 seconds                      COMMENT
 SNR is mapped to RINEX snr flag value [0-9]                COMMENT
  L1 & L2: min(max(int(snr_dBHz/6), 0), 9)                  COMMENT
teqc edited: all GLONASS satellites excluded                COMMENT
teqc edited: all SBAS satellites excluded                   COMMENT
teqc edited: all Galileo satellites excluded                COMMENT
teqc edited: all Beidou satellites excluded                 COMMENT
teqc edited: all QZSS satellites excluded                   COMMENT
teqc edited: all IRNSS satellites excluded                  COMMENT
pseudorange smoothing corrections not applied               COMMENT
  2020     2    19     0     0    0.0000000     GPS         TIME OF FIRST OBS
                                                            END OF HEADER
 20  2 19  0  0  0.0000000  0 10G08G20G27G10G14G32G24G18G21G11
 123129009.800 7  95944684.320 7  23430672.021    23430671.657    23430676.664
  23430676.314          42.250          43.750
 111302076.787 8  86728893.57446  21180077.340    21180076.880
  21180078.261          49.000          41.5004
 123897441.305 6  96543458.836 7  23576899.923    23576899.474    23576903.601
  23576903.586          40.000          43.250
 107808461.101 8  84006598.541 9  20515263.659    20515263.606    20515266.923
  20515267.377          53.250          54.750
 116276753.445 7  90605264.42846  22126730.000    22126729.648
  22126731.010          46.750          37.2504
 108256887.852 8  84356019.237 9  20600598.525    20600598.739    20600602.258
  20600602.049          53.500          54.000
 118336699.037 7  92210417.000 7  22518723.636    22518723.574    22518726.761
  22518726.912          43.750          45.500
 121964365.162 6  95037162.35744  23209046.121    23209045.879
  23209047.965          41.750          28.5004
 122646222.139 7  95568491.37545  23338797.658    23338796.452
  23338797.519          42.250          30.2504
 120837099.926 6  94158779.72944  22994535.446    22994534.698
  22994535.452          41.000          27.0004
 20  2 19  0  0 30.0000000  0 10G08G20G27G10G14G32G24G18G21G11
 123159393.684 6  95968360.077 7  23436453.207    23436453.491    23436458.794
  23436458.338          41.000          43.750
 111359740.347 8  86773826.22146  21191050.495    21191049.898
  21191051.030          48.750          41.5004
 123976092.439 6  96604745.423 7  23591866.846    23591866.600    23591870.316
  23591870.472          41.000          43.250
 107813465.520 8  84010498.097 9  20516216.185    20516215.889    20516219.195
  20516219.715          53.750          54.750
 116203022.757 7  90547811.94446  22112699.580    22112699.546
  22112700.723          46.750          37.5004
 108217906.668 8  84325644.298 9  20593180.394    20593180.726    20593184.189
  20593184.233          53.750          54.000
 118383897.464 7  92247195.007 7  22527704.954    22527704.933    22527708.174
  22527708.548          43.250          45.500
 121863953.140 6  94958919.21944  23189938.588    23189937.580
  23189940.353          41.750          28.2504
 122737910.262 6  95639936.66445  23356245.329    23356244.309
  23356245.018          41.750          30.0004
 120765050.666 6  94102637.45944  22980824.274    22980824.007
  22980825.215          40.250          27.0004
 20  2 19  0  1  0.0000000  0 10G08G20G27G10G14G32G24G18G21G11
 123190281.479 6  95992428.474 7  23442331.547    23442331.523    23442336.311
  23442335.913          41.250          43.500
 111417688.004 8  86818980.23246  21202077.701    21202076.982
  21202078.174          48.750          41.5004
 124055030.798 6  96666255.814 7  23606888.624    23606888.596    23606891.724
  23606891.814          41.750          43.000
 107818766.324 8  84014628.595 9  20517224.635    20517224.640    20517227.979
  20517228.512          53.250          54.750
 116129606.804 7  90490604.71246  22098729.022    22098728.837
  22098730.349          46.500          37.5004
 108179348.245 9  84295598.785 9  20585843.189    20585843.507    20585847.023
  20585846.833          54.000          54.750
 118431662.886 7  92284414.808 7  22536794.236    22536794.440    22536798.106
  22536798.168          43.250          45.750
 121763832.054 6  94880902.80644  23170886.064    23170885.968
  23170887.766          40.750          28.7504
 122829817.163 6  95711552.41744  23373734.415    23373733.703
  23373734.459          41.500          29.5004
 120693495.612 6  94046880.26944  22967208.305    22967208.092
  22967208.964          40.750          28.0004
 20  2 19  0  1 30.0000000  0 10G08G20G27G10G14G32G24G18G21G11
 123221670.107 6  96016887.147 7  23448305.018    23448304.707    23448309.648
  23448309.193          41.750          44.250
 111475918.373 8  86864354.53146  21213158.221    21213157.597
  21213159.310          48.250          41.5004
 124134252.194 6  96727986.772 7  23621963.875    23621963.348    23621967.505
  23621967.497          41.250          43.500
 107824362.846 8  84018989.520 9  20518289.746    20518289.563    20518292.966
  20518293.414          53.750          54.500
 116056505.369 7  90433642.57046  22084818.623    22084818.196
  22084819.560          47.250          37.5004
 108141211.595 8  84265881.917 9  20578586.032    20578586.153    20578589.794
  20578589.654          53.750          54.500
 118479992.447 7  92322074.216 7  22545991.312    22545991.153    22545994.643
  22545995.079          42.750          45.750
 121664003.811 6  94803114.58344  23151888.739    23151888.576
  23151891.326          41.250          28.0004
 122921939.873 7  95783336.34344  23391264.771    23391264.089
  23391264.970          42.000          29.7504
 120622435.983 7  93991509.11844  22953686.473    22953686.178
  22953686.279          42.250          28.0004
 20  2 19  0  2  0.0000000  0 10G08G20G27G10G14G32G24G18G21G11
 123253558.903 6  96041735.550 7  23454373.107    23454372.562    23454377.210
  23454376.841          41.500          43.000
 111534431.993 8  86909949.57346  21224293.057    21224292.443
  21224294.004          48.500          41.2504
 124213754.425 6  96789936.542 7  23637092.480    23637092.489    23637096.263
  23637096.337          41.250          43.250
 107830256.336 9  84023581.851 9  20519411.358    20519411.102    20519414.370
  20519414.898          54.000          54.500
 115983720.137 7  90376926.79746  22070967.607    22070967.343
  22070968.892          47.000          37.5004
 108103497.661 8  84236494.451 9  20571409.360    20571409.539    20571413.053
  20571413.000          53.750          54.500
 118528884.685 7  92360172.064 7  22555295.313    22555294.988    22555298.757
  22555298.929          42.750          45.500
 121564472.256 6  94725557.52644  23132948.994    23132948.527
  23132950.572          41.500          28.5004
 123014277.528 7  95855287.75644  23408835.933    23408835.434
  23408836.217          42.000          29.7504
 120551874.998 7  93936526.54644  22940259.575    22940258.667
  22940259.314          42.250          28.0004
 20  2 19  0  2 30.0000000  0 10G08G20G27G10G14G32G24G18G21G11
 123285945.428 6  96066971.826 7  23460535.871    23460535.321    23460540.596
  23460540.065          41.750          43.500
 111593227.628 8  86955764.35246  21235481.589    21235481.042
  21235482.318          48.500          41.2504
 124293533.580 6  96852102.113 7  23652274.780    23652274.248    23652277.260
  23652277.553          41.750          43.250
 107836446.467 8  84028405.332 9  20520589.170    20520589.045    20520592.275
  20520592.840          53.750          55.000
 115911251.296 7  90320457.58646  22057177.392    22057177.212
  22057178.351          47.750          37.7504
 108066205.752 8  84207435.830 9  20564312.688    20564312.984    20564316.690
  20564316.515          53.250          54.500
 118578338.286 7  92398707.335 7  22564705.958    22564705.660    22564709.400
  22564709.758          42.750          45.500
 121465239.307 6  94648233.16444  23114065.515    23114065.645
  23114067.482          41.250          28.5004
 123106827.608 7  95927404.69644  23426447.748    23426447.213
  23426447.909          42.250          29.7504
 120481814.128 7  93881933.65744  22926926.983    22926926.953
  22926927.159          42.500          28.2504
 20  2 19  0  3  0.0000000  0 10G08G20G27G10G14G32G24G18G21G11
 123318828.448 6  96092594.947 7  23466792.869    23466792.990    23466798.437
  23466797.905          41.000          44.000
 111652305.773 8  87001799.25946  21246724.000    21246723.145
  21246724.534          48.500          41.0004
 124373587.413 6  96914481.720 7  23667507.873    23667507.907    23667511.225
  23667511.425          41.500          43.500
 107842934.411 8  84033460.876 9  20521823.959    20521823.721    20521826.786
  20521827.433          53.750          54.750
 115839100.381 7  90264236.10446  22043447.646    22043447.303
  22043448.597          47.250          38.2504
 108029336.785 8  84178706.777 9  20557297.059    20557297.238    20557300.620
  20557300.550          53.750          54.500
 118628351.484 7  92437678.660 7  22574223.152    22574222.937    22574226.868
  22574226.875          43.250          45.750
 121366308.932 6  94571144.55244  23095239.474    23095239.881
  23095240.872          41.250          28.2504
 123199588.917 7  95999686.23644  23444099.154    23444098.825
  23444100.548          42.000          29.7504
 120412256.697 7  93827733.06244  22913690.713    22913690.076
  22913690.737          42.000          28.2504
 20  2 19  0  3 30.0000000  0 10G08G20G27G10G14G32G24G18G21G11
 123352207.171 6  96118604.326 7  23473144.758    23473144.730    23473149.512
  23473149.360          41.250          43.250
 111711667.099 8  87048054.82746  21258019.862    21258019.154
  21258020.312          48.500          41.0004
 124453913.576 6  96977073.540 7  23682793.311    23682793.214    23682796.850
  23682796.990          41.750          43.500
 107849721.413 9  84038749.452 9  20523115.500    20523115.182    20523118.332
  20523118.972          54.000          54.750
 115767268.994 8  90208263.59546  22029778.257    22029778.082
  22029779.694          48.000          38.0004
 107992891.572 8  84150307.929 9  20550361.639    20550361.730    20550365.454
  20550365.315          53.500          54.750
 118678923.635 7  92477085.539 7  22583845.880    22583846.525    22583850.581
  22583850.344          42.250          45.500
 121267684.669 6  94494294.50444  23076471.949    23076472.658
  23076473.555          41.500          29.0004
 123292560.710 7  96072131.78844  23461791.663    23461790.770
  23461791.797          42.500          29.7504
 120343205.931 6  93773927.27444  22900550.461    22900550.019
  22900551.171          41.750          28.7504
 20  2 19  0  4  0.0000000  0 10G08G20G27G10G14G32G24G18G21G11
 123386077.998 6  96144997.164 7  23479590.730    23479590.661    23479595.213
  23479594.751          41.750          43.500
 111771309.577 8  87094529.47946  21269370.213    21269368.863
  21269370.094          48.500          40.7504
 124534507.384 6  97039873.897 7  23698129.730    23698129.748    23698133.703
  23698133.765          41.500          43.750
 107856806.247 9  84044270.103 9  20524463.701    20524463.424    20524466.641
  20524467.229          54.000          54.750
 115695756.377 7  90152539.48346  22016169.881    22016169.854
  22016171.246          47.500          38.0004
 107956868.550 8  84122238.050 9  20543506.868    20543506.946    20543510.584
  20543510.319          53.750          54.750
 118730051.494 7  92516925.436 7  22593575.363    22593576.072    22593579.244
  22593579.776          42.750          45.500
 121169367.601 6  94417683.79244  23057763.052    23057763.100
  23057765.359          41.250          29.0004
 123385739.395 6  96144738.57344  23479523.105    23479522.076
  23479523.006          41.750          29.5004
 120274662.522 6  93720516.84044  22887507.413    22887507.081
  22887507.825          41.750          28.7504
 20  2 19  0  4 30.0000000  0 10G08G20G27G10G14G32G24G18G21G11
 123420439.725 6  96171772.540 7  23486129.340    23486129.045    23486134.347
  23486133.675          41.750          43.500
 111831233.146 8  87141223.17446  21280773.114    21280771.956
  21280773.139          48.750          40.7504
 124615366.297 6  97102880.842 7  23713516.624    23713516.471    23713520.839
  23713520.439          41.000          42.750
 107864189.948 9  84050023.642 9  20525868.451    20525868.525    20525871.646
  20525872.224          54.000          54.500
 115624563.917 7  90097064.85146  22002622.340    22002622.204
  22002623.775          47.250          38.0004
 107921268.387 8  84094497.672 9  20536732.127    20536732.293    20536735.880
  20536735.795          53.500          54.750
 118781734.010 7  92557197.529 7  22603410.024    22603410.786    22603413.929
  22603414.393          42.250          45.250
 121071361.603 6  94341315.45844  23039113.145    23039112.592
  23039114.781          41.250          28.7504
 123479123.878 6  96217505.69244  23497293.570    23497292.574
  23497293.868          41.750          28.7504
 120206629.130 7  93667503.78544  22874561.003    22874560.659
  22874560.779          42.000          28.5004
 20  2 19  0  5  0.0000000  0 10G08G20G27G10G14G32G24G18G21G11
 123455290.543 7  96198929.005 7  23492761.734    23492761.404    23492765.690
  23492765.539          42.500          43.500
 111891437.554 8  87188135.69046  21292229.264    21292228.572
  21292229.650          48.750          40.7504
 124696487.186 6  97166091.920 7  23728953.605    23728953.528    23728956.648
  23728956.875          41.000          42.500
 107871872.855 9  84056010.323 9  20527330.846    20527330.572    20527333.572
  20527334.264          54.000          54.750
 115553692.575 7  90041840.43146  21989136.249    21989135.506
  21989137.606          47.500          38.0004
 107886091.030 8  84067086.755 9  20530038.063    20530038.205    20530041.701
  20530041.799          53.500          54.750
 118833968.568 7  92597899.774 7  22613350.134    22613350.893    22613354.475
  22613354.490          42.250          45.750
 120973669.314 7  94265191.63244  23020523.469    23020522.813
  23020524.911          42.250          28.7504
 123572712.334 6  96290431.76444  23515102.076    23515101.812
  23515102.708          41.000          28.2504
 120139108.257 6  93614890.12544  22861712.455    22861711.662
  22861712.696          41.750          28.7504
 20  2 19  0  5 30.0000000  0 10G08G20G27G10G14G32G24G18G21G11
 123490629.266 7  96226465.680 7  23499485.481    23499485.695    23499490.524
  23499489.982          42.000          43.000
 111951923.198 8  87235267.36346  21303738.912    21303738.454
  21303739.950          48.000          40.5004
 124777867.378 6  97229505.036 7  23744439.534    23744439.270    23744443.482
  23744443.453          41.000          43.500
 107879855.904 9  84062230.885 9  20528849.716    20528849.644    20528852.864
  20528853.398          54.000          54.750
 115483143.648 7  89986867.24246  21975710.799    21975710.717
  21975712.425          47.750          38.2504
 107851337.030 8  84040005.729 9  20523424.649    20523424.890    20523428.436
  20523428.248          53.500          54.750
 118886754.395 7  92639031.605 7  22623395.397    22623395.686    22623399.005
  22623399.052          42.500          45.250
 120876294.174 7  94189314.89644  23001993.248    23001993.052
  23001995.032          42.000          29.0004
 123666503.242 6  96363515.57744  23532949.880    23532949.091
  23532950.615          40.750          28.2504
 120072102.815 6  93562678.10344  22848961.195    22848961.245
  22848961.619          41.750          28.5004
 20  2 19  0  6  0.0000000  0 10G08G20G27G10G14G32G24G18G21G11
 123526452.693 6  96254380.038 7  23506302.956    23506302.609    23506307.915
  23506307.010          41.250          42.750
 112012688.211 8  87282616.72546  21315302.483    21315301.510
  21315303.084          48.250          40.7504
 124859502.641 6  97293116.910 7  23759974.312    23759974.114    23759978.088
  23759977.770          41.500          42.750
 107888138.314 9  84068684.707 9  20530425.975    20530425.810    20530428.886
  20530429.484          54.250          54.250
 115412916.491 7  89932144.78946  21962347.464    21962346.878
  21962348.466          47.750          38.2504
 107817005.140 8  84013253.616 9  20516891.569    20516891.687    20516895.338
  20516895.129          53.500          54.500
 118940088.732 7  92680590.823 7  22633544.553    22633544.879    22633547.725
  22633548.157          42.750          44.750
 120779237.972 6  94113686.68844  22983524.167    22983523.776
  22983526.114          41.500          28.7504
 123760493.725 6  96436754.90244  23550835.706    23550834.968
  23550836.366          40.000          28.0004
 120005614.007 6  93510868.63444  22836308.437    22836308.493
  22836309.817          41.500          28.5004
 20  2 19  0  6 30.0000000  0 10G08G20G27G10G14G32G24G18G21G11
 123562759.595 6  96282671.122 7  23513211.716    23513211.456    23513216.215
  23513216.105          41.750          43.500
 112073733.226 8  87330184.25046  21326918.974    21326918.100
  21326919.538          48.500          41.0004
 124941390.558 7  97356925.678 7  23775557.240    23775557.322    23775560.671
  23775560.603          42.000          42.500
 107896721.246 9  84075372.708 9  20532059.067    20532059.062    20532062.333
  20532062.757          54.000          54.750
 115343012.659 8  89877674.27546  21949045.327    21949044.762
  21949046.115          48.000          38.5004
 107783096.158 8  83986831.046 9  20510438.932    20510439.154    20510442.594
  20510442.432          53.500          54.750
 118993970.199 7  92722576.382 7  22643797.331    22643798.171    22643801.078
  22643801.657          42.000          44.750
 120682504.282 6  94038309.79044  22965115.205    22965115.314
  22965118.764          41.000          28.7504
 123854682.649 6  96510148.86744  23568759.298    23568759.036
  23568760.667          40.750          27.5004
 119939644.659 7  93459463.96644  22823755.466    22823754.797
  22823755.790          42.250          29.5004
 20  2 19  0  7  0.0000000  0 10G08G20G27G10G14G32G24G18G21G11
 123599548.943 6  96311338.126 7  23520212.627    23520212.591    23520216.878
  23520216.740          41.750          42.750
 112135058.689 8  87377970.31446  21338588.599    21338587.935
  21338589.566          48.250          40.7504
 125023528.861 6  97420929.564 7  23791187.956    23791187.623    23791191.651
  23791191.280          41.750          43.250
 107905605.955 9  84082295.859 9  20533749.888    20533749.748    20533752.793
  20533753.420          54.250          54.500
 115273433.787 7  89823456.97546  21935804.295    21935804.173
  21935805.497          47.750          38.0004
 107749610.888 8  83960738.636 9  20504066.668    20504066.906    20504070.443
  20504070.392          52.750          54.750
 119048397.931 7  92764987.619 7  22654155.664    22654155.445    22654158.651
  22654158.929          42.000          45.500
 120586096.809 6  93963187.10744  22946770.244    22946770.096
  22946772.400          41.000          29.5004
 123949068.977 6  96583696.66044  23586720.495    23586719.418
  23586720.014          40.250          27.0004
 119874197.970 7  93408466.51244  22811301.060    22811301.501
  22811301.664          42.250          29.0004
 20  2 19  0  7 30.0000000  0 10G08G20G27G10G14G32G24G18G21G11
 123636816.794 6  96340378.023 7  23527304.182    23527303.897    23527308.675
  23527308.699          41.250          42.500
 112196662.926 8  87425973.62046  21350311.260    21350310.696
  21350312.371          48.250          40.5004
 125105912.803 6  97485124.835 7  23806865.096    23806864.665    23806868.030
  23806868.454          41.750          43.250
 107914791.255 9  84089453.242 9  20535497.720    20535497.636    20535500.729
  20535501.330          54.000          54.750
 115204179.051 8  89769492.24846  21922626.016    21922625.521
  21922626.775          48.000          38.5004
 107716547.676 8  83934975.106 9  20497774.993    20497775.155    20497778.888
  20497778.656          52.750          54.750
 119103367.796 7  92807821.287 7  22664615.860    22664615.603    22664618.870
  22664619.275          42.500          45.000
 120490016.831 7  93888319.59444  22928487.460    22928486.580
  22928489.161          42.000          29.2504
 124043649.264 6  96657395.58244  23604717.676    23604717.308
  23604719.676          40.250          26.7504
 119809274.454 7  93357876.78144  22798946.757    22798946.698
  22798947.636          43.000          29.0004
 20  2 19  0  8  0.0000000  0 10G08G20G27G10G14G32G24G18G21G11
 123674562.227 6  96369790.035 7  23534486.601    23534486.731    23534492.472
  23534491.492          41.250          43.250
 112258545.901 7  87474194.11346  21362087.266    21362086.744
  21362088.043          47.750          40.5004
 125188539.987 7  97549509.629 7  23822588.372    23822588.095    23822592.079
  23822591.574          42.000          42.750
 107924278.238 9  84096845.691 9  20537303.032    20537302.904    20537305.955
  20537306.684          54.250          54.750
 115135250.052 8  89715781.33746  21909509.464    21909509.041
  21909510.341          48.500          38.5004
 107683907.194 8  83909540.971 9  20491563.668    20491563.931    20491567.420
  20491567.299          52.750          54.500
 119158879.426 7  92851077.113 7  22675178.674    22675179.215    22675182.521
  22675182.817          42.500          45.250
 120394268.025 7  93813710.14944  22910266.971    22910266.314
  22910267.953          42.250          29.0004
 124138422.210 6  96731244.65044  23622753.109    23622752.352
  23622754.883          41.250          27.7504
 119744876.842 7  93307696.78744  22786692.494    22786692.292
  22786692.414          42.500          29.2504
 20  2 19  0  8 30.0000000  0 10G08G20G27G10G14G32G24G18G21G11
 123712784.230 6  96399573.407 7  23541760.206    23541760.238    23541765.086
  23541764.733          40.750          42.750
 112320708.438 8  87522632.46246  21373916.865    21373916.027
  21373917.281          48.500          40.5004
 125271408.374 6  97614082.396 7  23838357.494    23838357.621    23838360.886
  23838361.022          41.500          42.000
 107934068.450 9  84104474.430 9  20539166.270    20539166.045    20539169.058
  20539169.630          54.250          54.500
 115066648.399 7  89662325.50946  21896454.889    21896454.469
  21896455.965          47.750          38.7504
 107651690.511 8  83884437.073 9  20485433.052    20485433.191    20485436.850
  20485436.733          53.000          54.750
 119214931.377 7  92894753.970 7  22685845.901    22685845.644    22685849.409
  22685849.179          42.500          45.500
 120298854.505 7  93739361.95644  22892110.416    22892110.224
  22892112.008          42.750          29.5004
 124233387.404 6  96805243.52244  23640823.998    23640824.466
  23640825.686          41.500          28.5004
 119681008.948 6  93257929.60744  22774538.330    22774537.912
  22774539.245          41.750          29.2504
 20  2 19  0  9  0.0000000  0 10G08G20G27G10G14G32G24G18G21G11
 123751479.051 6  96429725.215 7  23549124.150    23549123.626    23549128.476
  23549128.275          41.250          42.750
 112383147.995 8  87571286.64846  21385798.516    21385797.867
  21385798.868          48.000          40.0004
 125354512.811 6  97678839.082 7  23854171.720    23854171.735    23854174.873
  23854175.323          41.500          42.500
 107944160.230 9  84112338.161 9  20541086.519    20541086.457    20541089.410
  20541090.051          54.000          54.500
 114998373.045 8  89609123.95446  21883462.445    21883461.898
  21883463.751          48.000          38.7504
 107619895.445 8  83859661.706 9  20479382.866    20479382.861    20479386.499
  20479386.344          52.750          55.000
 119271519.987 7  92938848.974 7  22696613.594    22696613.914    22696617.483
  22696617.772          42.000          45.250
 120203777.154 7  93665275.72544  22874017.177    22874016.873
  22874018.868          42.500          28.7504
 124328540.946 6  96879389.12044  23658931.964    23658931.258
  23658932.757          41.250          28.5004
 119617670.497 7  93208574.97644  22762485.987    22762485.616
  22762486.309          42.250          29.2504
 20  2 19  0  9 30.0000000  0 10G08G20G27G10G14G32G24G18G21G11
 123790645.624 6  96460244.618 7  23556577.054    23556577.166    23556581.752
  23556581.442          41.500          43.000
 112445865.372 7  87620157.32546  21397733.035    21397732.610
  21397733.622          47.750          40.0004
 125437851.283 6  97743778.142 7  23870030.168    23870029.940    23870034.600
  23870034.553          41.000          43.250
 107954555.146 9  84120438.096 9  20543064.672    20543064.536    20543067.404
  20543068.207          54.500          54.500
 114930425.624 8  89556177.89946  21870532.447    21870532.314
  21870533.280          48.750          39.0004
 107588523.138 8  83835215.764 9  20473412.681    20473412.857    20473416.431
  20473416.382          52.750          55.000
 119328644.401 6  92983361.508 7  22707484.353    22707484.456    22707487.831
  22707488.064          41.500          45.000
 120109039.887 7  93591454.48044  22855989.352    22855989.675
  22855991.013          42.500          29.0004
 124423881.764 6  96953680.66344  23677074.007    23677073.555
  23677074.985          40.500          28.2504
 119554865.065 7  93159635.68044  22750534.776    22750534.022
  22750534.844          43.250          29.5004
 20  2 19  0 10  0.0000000  0 10G08G20G27G10G14G32G24G18G21G11
 123830281.658 6  96491129.825 7  23564119.258    23564119.274    23564123.985
  23564123.493          41.000          42.500
 112508860.162 8  87669244.17046  21409720.920    21409720.048
  21409721.138          48.500          39.7504
 125521420.483 6  97808896.981 7  23885933.513    23885932.931    23885936.520
  23885936.497          41.500          42.000
 107965253.457 9  84128774.438 9  20545100.371    20545100.302    20545103.414
  20545103.978          54.250          54.500
 114862806.745 7  89503487.87446  21857664.828    21857664.456
  21857665.905          47.750          38.7504
 107557573.299 8  83811099.018 9  20467523.217    20467523.388    20467526.787
  20467526.766          52.750          55.000
 119386302.487 7  93028289.889 7  22718455.986    22718456.395    22718459.574
  22718460.210          42.000          45.000
 120014645.516 7  93517900.41244  22838027.031    22838026.562
  22838028.601          42.750          29.5004
 124519407.956 6  97028116.65944  23695251.763    23695251.201
  23695253.669          40.000          26.7504
 119492594.635 6  93111113.27444  22738684.629    22738684.160
  22738684.771          41.750          29.2504
 20  2 19  0 10 30.0000000  0 10G08G20G27G10G14G32G24G18G21G11
 123870385.390 6  96522379.475 7  23571750.966    23571750.968    23571755.878
  23571755.161          41.500          42.750
 112572132.288 8  87718547.12646  21421761.013    21421760.289
  21421761.613          48.000          39.7504
 125605217.360 7  97874193.280 7  23901879.747    23901879.571    23901883.145
  23901882.954          42.500          42.750
 107976255.648 9  84137347.579 9  20547194.203    20547194.024    20547197.150
  20547197.671          54.750          54.750
 114795517.246 8  89451054.49846  21844860.090    21844859.717
  21844861.383          48.250          38.7504
 107527045.922 8  83787311.461 9  20461714.177    20461714.218    20461717.818
  20461717.701          52.750          55.000
 119444492.347 6  93073632.649 7  22729529.353    22729529.621    22729532.765
  22729533.248          41.000          44.750
 119920596.964 7  93444615.84044  22820129.739    22820129.516
  22820132.500          42.750          29.7504
 124615117.823 6  97102695.77244  23713465.482    23713464.222
  23713466.499          40.250          27.0004
 119430861.486 7  93063009.50345  22726937.011    22726936.743
  22726937.794          42.250          30.0004
 20  2 19  0 11  0.0000000  0 10G08G20G27G10G14G32G24G18G21G11
 123910954.445 6  96553991.736 7  23579470.983    23579470.651    23579475.921
  23579475.357          40.500          42.750
 112635680.885 8  87768065.51346  21433854.043    21433853.187
  21433854.505          48.250          39.7504
 125689238.696 6  97939664.428 7  23917868.036    23917867.664    23917871.966
  23917871.610          40.750          42.750
 107987562.002 9  84146157.720 9  20549345.688    20549345.505    20549348.702
  20549349.255          54.500          54.500
 114728557.774 8  89398878.29446  21832118.191    21832117.801
  21832119.306          48.000          38.7504
 107496940.769 8  83763852.916 9  20455985.267    20455985.340    20455988.805
  20455988.747          52.500          55.000
 119503211.905 6  93119388.147 7  22740703.259    22740703.463    22740707.199
  22740707.273          41.000          45.000
 119826897.033 7  93371602.90845  22802299.154    22802299.270
  22802301.166          43.000          30.0004
 124711009.003 6  97177416.15544  23731712.335    23731711.614
  23731713.722          41.000          27.5004
 119369667.604 7  93015325.95945  22715292.307    22715292.375
  22715292.871          42.000          30.2504
 20  2 19  0 11 30.0000000  0 10G08G20G27G10G14G32G24G18G21G11
 123951986.315 6  96585964.607 7  23587279.019    23587279.144    23587283.463
  23587283.604          40.500          43.000
 112699505.191 7  87817798.73046  21445999.466    21445998.577
  21446000.047          47.500          40.0004
 125773480.765 6  98005307.594 7  23933899.094    23933898.614    23933902.097
  23933902.125          40.500          42.250
 107999172.419 9  84155204.794 9  20551555.011    20551554.983    20551558.039
  20551558.570          54.000          54.750
 114661928.362 8  89346959.27446  21819439.386    21819438.793
  21819440.144          48.250          39.2504
 107467257.120 8  83740722.808 9  20450336.606    20450336.795    20450340.335
  20450340.175          52.750          55.000
 119562458.312 6  93165554.198 7  22751977.969    22751977.736    22751980.795
  22751981.361          41.250          44.750
 119733548.123 7  93298863.51344  22784536.140    22784535.747
  22784537.297          43.250          29.7504
 124807079.219 6  97252276.07344  23749994.723    23749993.574
  23749995.740          41.250          27.7504
 119309014.546 7  92968063.84545  22703750.486    22703750.260
  22703751.175          42.500          30.2504
 20  2 19  0 12  0.0000000  0 10G08G20G27G10G14G32G24G18G21G11
 123993480.184 7  96618297.481 7  23595175.868    23595175.360    23595179.453
  23595179.557          42.250          42.500
 112763606.281 7  87867747.61346  21458197.014    21458196.471
  21458198.097          47.750          40.0004
 125857942.042 6  98071121.550 7  23949971.017    23949970.937    23949974.781
  23949974.796          40.750          42.250
 108011088.836 9  84164490.316 9  20553822.751    20553822.451    20553825.600
  20553826.224          54.250          54.500
 114595631.300 7  89295299.23446  21806823.142    21806822.711
  21806824.465          47.500          39.2504
 107437996.521 8  83717922.352 9  20444768.456    20444768.681    20444772.360
  20444772.069          52.750          55.250
 119622231.035 6  93212130.341 7  22763352.155    22763352.000    22763355.150
  22763355.477          41.250          44.500
 119640554.694 7  93226401.10145  22766839.877    22766840.109
  22766841.582          43.000          30.0004
 124903328.093 6  97327275.19944  23768310.302    23768309.566
  23768310.498          41.250          28.0004
 119248905.944 7  92921225.98845  22692312.096    22692311.981
  22692312.727          42.750          30.7504
 20  2 19  0 12 30.0000000  0 10G08G20G27G10G14G32G24G18G21G11
 124035432.213 6  96650987.388 7  23603158.397    23603158.498    23603163.223
  23603162.881          41.000          43.250
 112827981.475 8  87917910.10046  21470447.544    21470446.685
  21470448.052          48.000          40.0004
 125942617.059 7  98137102.082 7  23966084.462    23966084.571    23966088.191
  23966087.843          42.250          42.500
 108023309.405 9  84174012.837 9  20556148.172    20556147.971    20556151.184
  20556151.728          54.250          55.000
 114529664.962 8  89243896.88946  21794270.144    21794270.102
  21794271.015          48.250          39.2504
 107409156.504 8  83695449.622 9  20439280.425    20439280.577    20439283.869
  20439283.917          52.750          55.000
 119682526.042 6  93259113.476 7  22774826.052    22774825.698    22774829.424
  22774829.432          41.750          44.250
 119547917.368 7  93154216.17645  22749211.422    22749211.539
  22749213.197          43.250          30.0004
 124999751.719 6  97402410.48244  23786658.412    23786657.757
  23786660.053          40.500          27.7504
 119189341.585 7  92874812.20445  22680977.447    22680976.526
  22680978.121          42.500          30.2504
 20  2 19  0 13  0.0000000  0 10G08G20G27G10G14G32G24G18G21G11
 124077841.220 6  96684033.334 7  23611227.892    23611228.215    23611232.822
  23611233.082          41.500          43.500
 112892632.161 8  87968287.26246  21482750.036    21482749.409
  21482750.556          48.250          39.7504
 126027504.391 6  98203248.046 7  23982237.960    23982237.666    23982241.605
  23982241.587          41.500          42.750
 108035836.202 9  84183773.977 9  20558531.862    20558531.703    20558535.028
  20558535.435          54.000          54.750
 114464031.539 8  89192753.96546  21781780.425    21781780.173
  21781781.239          48.500          39.2504
 107380738.607 8  83673305.824 9  20433872.514    20433872.749    20433876.313
  20433876.168          52.750          54.750
 119743342.860 7  93306503.216 7  22786398.782    22786398.766    22786402.102
  22786402.318          42.000          44.250
 119455640.806 7  93082312.37845  22731651.414    22731652.115
  22731653.396          43.250          30.2504
 125096349.752 6  97477681.64944  23805039.927    23805040.126
  23805042.134          40.750          27.0004
 119130325.135 7  92828825.36345  22669746.904    22669746.560
  22669747.625          42.000          30.5004
 20  2 19  0 13 30.0000000  0 10G08G20G27G10G14G32G24G18G21G11
 124120705.465 6  96717434.036 7  23619385.341    23619385.071    23619389.653
  23619389.766          39.750          43.000
 112957557.366 8  88018878.32746  21495105.051    21495104.224
  21495105.622          48.000          39.0004
 126112600.435 6  98269556.650 7  23998430.701    23998430.572    23998434.530
  23998434.658          40.500          42.500
 108048669.201 8  84193773.715 9  20560973.944    20560973.826    20560976.938
  20560977.515          53.750          55.000
 114398731.266 8  89141870.64046  21769354.200    21769353.767
  21769355.293          48.250          39.2504
 107352742.210 8  83651490.451 9  20428545.184    20428545.194    20428548.710
  20428548.592          52.750          55.000
 119804679.153 6  93354297.733 7  22798070.556    22798070.784    22798074.155
  22798074.417          41.000          44.750
 119363727.507 7  93010691.60744  22714160.890    22714161.854
  22714162.622          43.250          29.7504
 125193119.783 6  97553086.89044  23823456.101    23823455.020
  23823456.068          41.500          27.0004
 119071858.314 7  92783266.78845  22658621.070    22658620.782
  22658621.231          42.500          30.7504
 20  2 19  0 14  0.0000000  0 10G08G20G27G10G14G32G24G18G21G11
 124164022.830 6  96751187.831 7  23627628.965    23627628.205    23627633.136
  23627632.987          41.500          43.250
 113022757.505 7  88069683.61346  21507512.499    21507511.480
  21507512.719          47.500          39.2504
 126197902.663 6  98336025.913 7  24014662.989    24014662.750    24014666.872
  24014667.314          39.750          42.250
 108061809.413 9  84204012.839 9  20563474.355    20563474.266    20563477.346
  20563477.981          54.250          54.250
 114333765.322 7  89091247.83446  21756991.505    21756991.198
  21756992.909          47.750          39.2504
 107325167.727 8  83630003.860 9  20423297.685    20423298.016    20423301.357
  20423301.360          52.750          54.750
 119866533.314 6  93402495.780 7  22809840.788    22809840.931    22809844.869
  22809844.874          40.500          45.000
 119272180.722 7  92939356.45845  22696739.875    22696739.659
  22696742.105          43.500          30.2504
 125290060.311 6  97628624.96144  23841902.984    23841903.019
  23841903.557          40.750          25.7504
 119013944.001 7  92738138.76145  22647600.536    22647600.587
  22647600.483          43.250          30.7504
 20  2 19  0 14 30.0000000  0 10G08G20G27G10G14G32G24G18G21G11
 124207789.797 6  96785291.943 7  23635957.147    23635956.865    23635961.797
  23635961.315          41.500          43.000
 113088230.766 7  88120701.72646  21519971.426    21519970.505
  21519971.741          46.000          39.5004
 126283406.644 6  98402652.367 7  24030933.493    24030933.519    24030938.447
  24030937.961          39.250          42.250
 108075255.902 9  84214490.623 9  20566033.193    20566033.119    20566036.330
  20566036.749          54.750          54.750
 114269133.263 8  89040885.19846  21744692.630    21744692.386
  21744694.072          48.250          40.0004
 107298013.632 8  83608844.837 9  20418130.556    20418130.693    20418134.186
  20418134.076          52.750          55.000
 119928901.426 6  93451094.322 7  22821709.234    22821709.308    22821712.758
  22821713.179          40.250          44.500
 119181002.200 7  92868308.28145  22679389.970    22679389.739
  22679392.017          43.500          30.7504
 125387168.213 6  97704293.47144  23860382.089    23860380.932
  23860383.062          40.250          25.7504
 118956582.659 7  92693441.61745  22636685.463    22636684.718
  22636685.326          43.250          31.2504
 20  2 19  0 15  0.0000000  0 10G08G20G27G10G14G32G24G18G21G11
 124252005.427 6  96819745.681 7  23644371.251    23644370.810    23644376.115
  23644375.260          40.750          43.000
 113153978.099 7  88171933.41746  21532481.860    21532481.902
  21532482.925          46.250          39.2504
 126369110.397 6  98469434.528 7  24047242.674    24047242.600    24047247.094
  24047247.001          39.750          42.250
 108089010.373 8  84225208.390 9  20568650.564    20568650.521    20568653.487
  20568654.103          53.750          54.500
 114204837.060 7  88990784.27046  21732457.344    21732457.136
  21732458.393          47.750          39.7504
 107271281.019 8  83588014.243 9  20413043.492    20413043.591    20413047.215
  20413047.003          52.750          55.000
 119991782.974 6  93500092.925 7  22833674.695    22833675.131    22833678.711
  22833679.002          40.000          44.500
 119090196.126 7  92797550.31845  22662109.634    22662109.963
  22662111.594          43.750          30.5004
 125484442.936 6  97780091.94244  23878891.831    23878891.772
  23878893.028          39.750          25.7504
 118899777.338 7  92649177.72545  22625875.087    22625875.021
  22625875.918          43.250          31.0004
 20  2 19  0 15 30.0000000  0 10G08G20G27G10G14G32G24G18G21G11
 124296666.894 6  96854546.794 7  23652869.368    23652869.417    23652874.499
  23652874.137          40.500          43.250
 113219998.012 7  88223377.50746  21545045.787    21545045.147
  21545046.325          47.250          39.5004
 126455010.026 6  98536369.302 7  24063589.850    24063588.871    24063593.209
  24063593.006          40.000          42.000
 108103072.325 8  84236165.756 9  20571326.548    20571326.422    20571329.511
  20571329.995          53.750          54.500
 114140876.143 8  88940944.60446  21720286.450    21720286.079
  21720287.194          48.750          40.2504
 107244968.788 8  83567511.213 9  20408036.285    20408036.440    20408040.241
  20408039.992          52.250          55.250
 120055175.162 6  93549489.431 7  22845738.091    22845738.368    22845741.792
  22845742.130          40.250          44.750
 118999764.577 7  92727084.17845  22644901.422    22644901.437
  22644902.867          44.500          30.7504
 125581881.490 6  97856018.10444  23897434.047    23897434.038
  23897435.446          40.250          26.0004
 118843529.443 7  92605348.19845  22615171.923    22615171.472
  22615171.836          43.250          31.5004
 20  2 19  0 16  0.0000000  0 10G08G20G27G10G14G32G24G18G21G11
 124341772.986 6  96889694.411 7  23661453.079    23661453.098    23661457.873
  23661457.212          41.000          42.750
 113286291.032 7  88275034.41746  21557660.471    21557660.339
  21557661.564          46.500          39.5004
 126541103.394 6  98603455.032 7  24079972.803    24079972.518    24079976.402
  24079976.062          40.750          42.500
 108117443.282 8  84247363.900 9  20574061.319    20574061.000    20574064.203
  20574064.726          53.750          54.500
 114077252.175 8  88891367.48646  21708179.025    21708178.553
  21708180.021          48.000          39.7504
 107219077.802 8  83547336.433 9  20403109.571    20403109.665    20403113.155
  20403113.045          52.500          55.000
 120119077.010 6  93599283.087 7  22857898.617    22857898.444    22857902.537
  22857902.553          39.000          45.000
 118909711.412 7  92656912.88145  22627764.533    22627764.904
  22627766.569          44.000          31.0004
 125679483.187 6  97932071.36244  23916007.646    23916006.699
  23916008.231          39.500          26.0004
 118787842.147 7  92561955.48845  22604574.780    22604574.825
  22604574.819          43.000          31.7504
 20  2 19  0 16 30.0000000  0 10G08G20G27G10G14G32G24G18G21G11
 124387318.809 6  96925184.640 7  23670120.226    23670120.295    23670124.808
  23670124.493          41.000          43.000
 113352854.651 7  88326902.16846  21570328.224    21570327.049
  21570328.447          47.000          39.2504
 126627384.794 6  98670687.285 7  24096391.126    24096391.286    24096394.877
  24096394.924          40.500          42.000
 108132121.009 9  84258801.086 9  20576854.172    20576854.077    20576857.375
  20576857.870          54.000          54.500
 114013963.501 8  88842051.63946  21696135.242    21696135.201
  21696136.602          48.250          39.7504
 107193605.258 8  83527487.712 9  20398262.249    20398262.428    20398265.824
  20398265.790          53.000          55.000
 120183483.457 6  93649469.920 7  22870154.820    22870154.877    22870158.410
  22870158.572          40.500          45.000
 118820036.982 7  92587036.71045  22610700.074    22610700.001
  22610702.075          43.500          31.0004
 125777243.566 6  98008248.29644  23934610.760    23934610.404
  23934611.339          40.000          26.5004
 118732714.340 7  92518998.78545  22594084.552    22594084.296
  22594084.430          43.250          31.5004
 20  2 19  0 17  0.0000000  0 10G08G20G27G10G14G32G24G18G21G11
 124433303.869 6  96961017.166 7  23678871.301    23678871.206    23678875.416
  23678875.376          41.750          43.250
 113419689.737 7  88378981.42646  21583046.011    21583044.961
  21583046.684          46.500          39.2504
 126713852.797 6  98738064.933 7  24112845.741    24112845.562    24112849.219
  24112849.250          39.250          42.000
 108147107.597 8  84270478.947 9  20579705.935    20579705.918    20579709.103
  20579709.686          53.750          54.500
 113951012.004 8  88792998.53646  21684156.090    21684155.696
  21684157.114          48.000          40.0004
 107168552.549 8  83507966.130 9  20393494.918    20393495.056    20393498.370
  20393498.379          53.000          55.000
 120248393.907 7  93700049.498 7  22882506.082    22882506.836    22882510.425
  22882510.684          42.500          45.250
 118730745.940 7  92517459.28145  22593708.848    22593708.975
  22593711.171          44.750          32.0004
 125875162.228 6  98084548.53844  23953243.967    23953243.325
  23953244.594          39.500          26.2504
 118678149.810 7  92476480.96345  22583701.413    22583700.734
  22583700.931          43.500          32.0004
 20  2 19  0 17 30.0000000  0 10G08G20G27G10G14G32G24G18G21G11
 124479726.917 6  96997190.953 7  23687705.201    23687704.879    23687709.978
  23687709.496          41.250          43.250
 113486797.199 7  88431272.95246  21595815.679    21595815.157
  21595816.729          46.750          39.0004
 126800505.359 6  98805586.399 6  24129334.686    24129334.506    24129338.694
  24129338.352          39.500          41.500
 108162404.626 8  84282398.703 9  20582616.813    20582616.814    20582620.045
  20582620.620          53.500          54.250
 113888399.464 8  88744209.54746  21672240.986    21672240.877
  21672242.828          48.000          40.0004
 107143920.654 8  83488772.461 9  20388807.501    20388807.682    20388811.217
  20388811.060          53.250          55.250
 120313807.267 6  93751020.942 7  22894954.292    22894954.548    22894958.273
  22894958.345          41.500          45.250
 118641842.261 7  92448183.69145  22576791.378    22576790.259
  22576792.811          45.000          31.5004
 125973238.375 6  98160971.46444  23971908.037    23971906.583
  23971908.299          39.250          26.5004
 118624151.773 7  92434404.56345  22573425.761    22573425.368
  22573425.720          44.000          31.7504
 20  2 19  0 18  0.0000000  0 10G08G20G27G10G14G32G24G18G21G11
 124526584.963 6  97033703.718 7  23696622.050    23696621.606    23696626.919
  23696626.086          41.500          42.750
 113554175.687 7  88483775.65646  21608637.832    21608637.106
  21608638.425          46.750          38.7504
 126887338.736 6  98873248.754 6  24145858.836    24145858.937    24145862.433
  24145862.793          40.500          41.750
 108178011.826 9  84294560.155 9  20585587.059    20585586.809    20585590.036
  20585590.552          54.000          54.250
 113826125.833 7  88695684.65446  21660390.811    21660390.622
  21660392.079          47.500          40.0004
 107119708.583 8  83469905.926 9  20384200.185    20384200.367    20384203.799
  20384203.673          52.750          55.000
 120379720.838 6  93802382.169 7  22907498.043    22907497.687    22907501.591
  22907501.197          41.750          44.750
 118553328.087 7  92379211.60645  22559947.466    22559946.982
  22559948.928          44.250          31.2504
 126071469.257 6  98237515.01644  23990599.990    23990599.975
  23990600.311          38.250          25.5004
 118570721.368 7  92392770.48945  22563258.314    22563257.725
  22563258.326          43.250          32.2504
 20  2 19  0 18 30.0000000  0 10G08G20G27G10G14G32G24G18G21G11
 124573873.922 6  97070552.247 7  23705620.559    23705620.358    23705625.639
  23705624.982          41.000          42.750
 113621823.121 7  88536487.94746  21621510.809    21621510.123
  21621511.145          47.000          38.5004
 126974347.892 6  98941048.098 7  24162416.125    24162416.036    24162419.473
  24162419.933          40.000          42.000
 108193927.778 8  84306962.202 9  20588615.506    20588615.449    20588618.719
  20588619.267          53.750          54.500
 113764189.909 8  88647422.89646  21648605.126    21648604.905
  21648606.160          48.000          40.2504
 107095914.263 8  83451364.907 9  20379672.195    20379672.442    20379675.933
  20379675.754          53.000          55.250
 120446130.106 6  93854129.661 7  22920134.777    22920134.961    22920138.490
  22920138.690          41.500          44.750
 118465204.657 7  92310544.01445  22543177.918    22543177.245
  22543179.904          44.750          31.0004
 126169851.157 6  98314176.24044  24009321.320    24009321.351
  24009322.374          39.750          26.2504
 118517858.602 7  92351578.72445  22553198.322    22553198.369
  22553198.788          43.500          31.7504
 20  2 19  0 19  0.0000000  0 10G08G20G27G10G14G32G24G18G21G11
 124621594.145 6  97107736.831 7  23714701.459    23714701.197    23714706.365
  23714706.023          41.250          43.250
 113689741.700 7  88589411.52346  21634435.038    21634434.422
  21634435.597          46.750          38.5004
 127061532.453 6  99008984.137 6  24179006.922    24179006.660    24179010.060
  24179010.435          40.000          41.500
 108210155.528 9  84319607.202 9  20591703.766    20591703.525    20591706.817
  20591707.379          54.250          54.250
 113702594.784 7  88599426.70446  21636883.706    21636883.310
  21636884.907          47.750          40.0004
 107072540.091 8  83433151.276 9  20375224.228    20375224.517    20375228.029
  20375227.802          53.000          55.250
 120513036.052 7  93906264.158 7  22932866.969    22932866.692    22932870.279
  22932870.403          42.000          44.750
 118377477.497 7  92242185.19345  22526483.468    22526483.718
  22526485.569          44.500          31.7504
 126268384.828 6  98390955.71144  24028072.480    24028071.453
  24028072.939          39.250          26.0004
 118465567.701 7  92310832.56145  22543247.857    22543247.735
  22543248.562          44.000          32.0004
 20  2 19  0 19 30.0000000  0 10G08G20G27G10G14G32G24G18G21G11
 124669741.234 6  97145254.031 7  23723863.920    23723863.369    23723868.223
  23723867.892          41.500          42.750
 113757929.118 7  88642544.56346  21647410.698    21647410.095
  21647411.192          46.500          38.7504
 127148887.242 6  99077052.802 7  24195630.070    24195629.560    24195633.675
  24195633.699          40.000          42.250
 108226693.553 9  84332493.970 9  20594850.760    20594850.631    20594853.641
  20594854.366          54.000          54.000
 113641339.403 8  88551695.24746  21625227.303    21625226.819
  21625228.313          48.000          40.0004
 107049583.813 8  83415263.285 9  20370855.722    20370856.009    20370859.432
  20370859.338          53.000          55.000
 120580434.100 7  93958782.130 7  22945692.198    22945692.002    22945695.475
  22945695.656          42.000          44.500
 118290147.223 7  92174135.62545  22509865.248    22509865.229
  22509867.724          44.500          31.5004
 126367066.233 6  98467850.30544  24046849.899    24046850.056
  24046850.545          38.500          24.7504
 118413848.959 7  92270532.24245  22533406.027    22533405.766
  22533406.306          43.500          32.0004
 20  2 19  0 20  0.0000000  0 10G08G20G27G10G14G32G24G18G21G11
 124718313.954 6  97183102.888 7  23733106.982    23733107.017    23733111.361
  23733110.739          41.500          43.000
 113826385.705 7  88695887.35046  21660437.473    21660437.160
  21660437.890          46.250          38.7504
 127236410.033 6  99145252.350 6  24212284.978    24212284.766    24212289.020
  24212288.641          40.250          41.750
 108243543.080 8  84345623.466 9  20598057.108    20598056.986    20598060.131
  20598060.732          53.750          54.250
 113580424.519 7  88504229.10646  21613635.473    21613635.322
  21613636.815          47.750          40.2504
 107027045.964 8  83397701.334 9  20366566.844    20366567.208    20366570.774
  20366570.497          52.750          55.250
 120648323.376 6  94011682.865 7  22958610.851    22958610.998    22958614.097
  22958614.444          41.500          44.500
 118203217.985 7  92106398.56045  22493323.570    22493323.275
  22493325.017          44.500          31.7504
 126465894.407 6  98544859.22444  24065656.989    24065656.129
  24065656.666          38.500          24.5004
 118362704.872 7  92230679.70145  22523673.571    22523673.443
  22523673.968          43.000          32.0004
 20  2 19  0 20 30.0000000  0 10G08G20G27G10G14G32G24G18G21G11
 124767309.534 6  97221281.283 7  23742430.411    23742430.064    23742434.420
  23742434.426          41.250          42.500
 113895110.663 7  88749439.25646  21673515.652    21673514.936
  21673516.049          46.250          38.7504
 127324097.342 6  99213580.126 6  24228971.081    24228971.411    24228974.555
  24228974.404          40.000          40.500
 108260704.143 9  84358995.719 9  20601322.812    20601322.647    20601326.001
  20601326.417          54.250          54.250
 113519850.821 8  88457028.83446  21602108.976    21602108.502
  21602109.918          48.250          40.5004
 107004925.899 8  83380464.935 9  20362357.858    20362357.897    20362361.329
  20362361.241          53.000          55.500
 120716700.773 6  94064963.961 7  22971622.514    22971622.663    22971625.886
  22971626.440          41.250          44.500
 118116692.111 7  92038975.81145  22476858.494    22476858.106
  22476859.840          45.500          32.2504
 126564867.051 6  98621980.77243  24084490.576    24084490.223
  24084490.236          38.250          23.0004
 118312136.868 7  92191276.07145  22514051.015    22514050.771
  22514051.431          42.750          32.7504
 20  2 19  0 21  0.0000000  0 10G08G20G27G10G14G32G24G18G21G11
 124816725.905 6  97259787.519 7  23751834.316    23751833.952    23751838.578
  23751838.457          41.000          43.250
 113964103.893 7  88803200.23346  21686644.055    21686643.704
  21686645.151          45.500          38.2504
 127411946.251 6  99282033.807 6  24245688.477    24245688.385    24245692.156
  24245692.498          40.000          41.500
 108278177.396 9  84372611.244 9  20604647.850    20604647.694    20604650.953
  20604651.428          54.000          54.250
 113459618.755 7  88410094.76946  21590646.845    21590646.823
  21590648.268          47.750          40.2504
 106983223.530 8  83363554.009 9  20358227.921    20358228.124    20358231.626
  20358231.378          53.000          55.500
 120785564.207 6  94118623.784 7  22984726.657    22984726.887    22984730.786
  22984730.527          40.500          44.000
 118030572.638 7  91971869.74545  22460470.190    22460470.210
  22460471.686          45.250          32.7504
 126663982.270 6  98699213.38343  24103352.014    24103351.815
  24103352.004          38.250          23.0004
 118262146.973 7  92152322.89145  22504538.169    22504537.831
  22504538.987          44.000          32.2504
 20  2 19  0 21 30.0000000  0 10G08G20G27G10G14G32G24G18G21G11
 124866559.958 6  97298619.263 7  23761317.153    23761316.961    23761321.949
  23761321.178          41.500          42.750
 114033364.179 7  88857169.26646  21699824.276    21699823.646
  21699825.002          45.750          38.2504
 127499952.939 6  99350610.433 6  24262435.691    24262435.602    24262438.725
  24262438.798          40.250          40.750
 108295962.507 8  84386469.776 9  20608032.296    20608032.088    20608035.516
  20608035.908          53.750          54.250
 113399728.412 7  88363426.98946  21579250.069    21579249.856
  21579251.383          47.750          40.0004
 106961937.821 8  83346967.755 9  20354177.488    20354177.636    20354180.952
  20354180.819          53.000          55.250
 120854910.807 6  94172660.097 7  22997922.524    22997923.084    22997926.744
  22997926.527          40.500          44.000
 117944861.820 7  91905082.10045  22444159.526    22444159.985
  22444161.281          45.750          32.2504
 126763237.434 6  98776555.08043  24122239.812    24122239.164
  24122238.651          37.500          22.7504
 118212736.429 7  92113821.17645  22495135.821    22495135.429
  22495136.754          44.250          32.5004
 20  2 19  0 22  0.0000000  0 11G08G20G27G31G10G14G32G24G18G21G11
 124916810.190 6  97337775.265 7  23770879.548    23770878.844    23770883.850
  23770883.414          41.250          42.250
 114102892.224 7  88911346.96746  21713055.159    21713054.741
  21713055.656          46.750          38.2504
 127588115.558 6  99419308.583 6  24279212.038    24279212.272    24279216.120
  24279215.877          40.500          41.000
 129784158.050 6 101130512.833 6  24697104.147    24697104.263    24697104.680
  24697104.950          37.500          38.500
 108314061.149 9  84400572.608 9  20611476.385    20611476.175    20611479.257
  20611479.969          54.000          54.250
 113340181.125 7  88317026.51646  21567918.587    21567918.269
  21567919.927          47.500          39.7504
 106941069.718 8  83330706.910 9  20350206.161    20350206.443    20350209.851
  20350209.729          52.750          55.250
 120924739.272 6  94227071.895 7  23011211.420    23011211.153    23011214.830
  23011214.432          41.250          44.000
 117859563.808 7  91838616.11645  22427928.159    22427928.232
  22427929.909          45.500          32.5004
 126862631.879 6  98854005.29643  24141153.955    24141152.898
  24141152.147          38.000          22.7504
 118163907.921 7  92075772.98145  22485843.766    22485843.186
  22485844.529          43.500          32.7504
 20  2 19  0 22 30.0000000  0 11G08G20G27G31G10G14G32G24G18G21G11
 124967473.331 6  97377253.022 7  23780519.876    23780520.214    23780524.854
  23780524.566          41.750          42.750
 114172686.522 7  88965732.14246  21726336.177    21726335.639
  21726337.085          46.000          38.2504
 127676429.815 6  99488124.876 6  24296017.613    24296017.676    24296021.665
  24296021.044          39.250          40.750
 129665433.465 6 101038000.208 6  24674511.427    24674511.582    24674512.638
  24674512.904          38.000          38.250
 108332472.579 9  84414919.174 9  20614979.766    20614979.673    20614982.823
  20614983.413          54.000          54.250
 113280976.486 7  88270893.03346  21556652.502    21556652.257
  21556653.708          47.750          40.2504
 106920617.718 8  83314770.292 9  20346314.270    20346314.433    20346317.979
  20346317.839          53.250          55.500
 120995046.442 7  94281856.711 7  23024590.599    23024590.056    23024593.783
  23024593.629          42.000          43.750
 117774680.307 7  91772473.14545  22411775.240    22411775.260
  22411777.226          45.750          32.7504
 126962162.615 6  98931561.73143  24160093.994    24160092.842
  24160092.798          38.750          21.2504
 118115662.105 7  92038178.85345  22476663.117    22476662.678
  22476663.675          44.250          32.7504
 20  2 19  0 23  0.0000000  0 10G08G20G27G10G14G32G24G18G21G11
 125018547.827 6  97417051.316 7  23790239.631    23790239.084    23790243.892
  23790243.447          41.250          42.250
 114242747.164 7  89020324.83846  21739668.660    21739667.935
  21739669.457          46.250          38.0004
 127764893.314 6  99557057.463 6  24312852.043    24312851.623    24312855.375
  24312855.255          38.500          40.500
 108351197.868 9  84429510.305 9  20618543.223    20618542.969    20618546.165
  20618546.807          54.250          54.250
 113222115.804 8  88225027.58746  21545451.744    21545451.458
  21545452.729          48.000          40.5004
 106900582.119 8  83299158.153 9  20342501.508    20342501.789    20342505.172
  20342505.150          52.750          55.750
 121065830.699 6  94337013.275 7  23038059.887    23038059.793    23038063.660
  23038063.504          40.250          43.750
 117690214.857 7  91706655.90245  22395702.152    22395702.186
  22395703.526          46.000          32.7504
 127061828.014 6  99009223.08043  24179059.788    24179059.695
  24179058.572          39.500          23.2504
 118068001.248 7  92001040.52745  22467593.756    22467593.459
  22467593.706          44.250          33.2504
 20  2 19  0 23 30.0000000  0 10G08G20G27G10G14G32G24G18G21G11
 125070030.255 7  97457167.496 7  23800036.389    23800036.151    23800040.545
  23800040.343          42.000          42.000
 114313072.952 7  89075124.16046  21753050.984    21753050.613
  21753051.746          45.750          38.0004
 127853501.944 6  99626103.129 6  24329713.480    24329713.313    24329717.071
  24329717.252          39.500          40.750
 108370236.483 9  84444345.593 9  20622165.988    20622165.903    20622169.193
  20622169.725          54.250          54.500
 113163598.516 8  88179429.70446  21534316.173    21534315.920
  21534316.827          48.250          40.2504
 106880961.639 8  83283869.482 9  20338768.031    20338768.206    20338771.694
  20338771.510          53.500          55.500
 121137088.271 6  94392538.657 7  23051618.800    23051619.671    23051623.495
  23051623.305          40.000          43.750
 117606169.394 7  91641165.93645  22379708.872    22379708.961
  22379710.160          46.250          33.0004
 127161625.217 6  99086987.13943  24198049.817    24198049.859
  24198050.102          38.500          23.5004
 118020926.224 7  91964358.67945  22458635.487    22458635.027
  22458636.073          45.000          32.7504
 20  2 19  0 24  0.0000000  0 10G08G20G27G10G14G32G24G18G21G11
 125121918.903 6  97497600.219 7  23809910.220    23809910.190    23809914.857
  23809914.423          41.000          42.000
 114383664.158 7  89130130.28646  21766484.158    21766483.392
  21766484.697          46.000          37.7504
 127942253.367 6  99695260.090 6  24346602.693    24346602.588    24346605.987
  24346606.281          40.000          41.000
 108389589.518 9  84459425.886 9  20625848.719    20625848.757    20625851.946
  20625852.494          54.250          54.250
 113105425.448 8  88134100.05846  21523245.990    21523245.761
  21523247.418          48.250          40.5004
 106861756.655 8  83268904.569 9  20335113.754    20335113.728    20335117.042
  20335116.891          53.500          55.500
 121208818.023 6  94448431.969 7  23065269.531    23065269.265    23065273.289
  23065273.130          40.750          43.750
 117522547.596 7  91576006.10545  22363796.058    22363796.391
  22363797.689          46.500          33.2504
 127261553.173 6  99164853.05343  24217065.527    24217064.730
  24217065.454          37.250          21.7504
 117974439.345 7  91928135.13445  22449789.278    22449789.240
  22449789.999          44.750          33.0004
 20  2 19  0 24 30.0000000  0 11G08G20G27G31G10G14G32G24G18G21G11
 125174211.232 6  97538347.472 7  23819861.120    23819860.741    23819865.679
  23819865.433          41.250          42.750
 114454520.095 7  89185342.69046  21779967.449    21779967.058
  21779967.961          45.750          38.0004
 128031144.476 6  99764525.893 6  24363518.040    24363518.002    24363521.587
  24363521.755          40.000          41.750
 129190369.560 6                  24584110.594
                        37.000
 108409257.362 9  84474751.478 9  20629591.654    20629591.447    20629594.688
  20629595.191          54.250          54.250
 113047597.133 8  88089039.04246  21512241.625    21512241.215
  21512242.831          48.000          40.5004
 106842966.744 8  83254263.091 9  20331537.862    20331538.031    20331541.373
  20331541.270          53.000          55.500
 121281017.329 6  94504691.175 7  23079008.559    23079008.092    23079012.273
  23079011.934          40.250          43.500
 117439352.062 7  91511178.41845  22347964.454    22347964.587
  22347966.140          46.500          33.5004
 127361609.838 6  99242819.30143  24236106.186    24236105.269
  24236105.471          37.000          21.5004
 117928542.152 7  91892371.08645  22441055.652    22441055.118
  22441055.953          44.000          33.2504
 20  2 19  0 25  0.0000000  0 10G08G20G27G10G14G32G24G18G21G11
 125226904.302 6  97579407.005 7  23829888.046    23829888.122    23829892.977
  23829892.585          41.250          42.000
 114525640.313 7  89240761.04346  21793501.199    21793500.901
  21793502.051          45.500          38.0004
 128120172.170 6  99833898.105 6  24380459.994    24380459.465    24380463.298
  24380463.491          40.250          41.750
 108429240.463 9  84490322.724 9  20633394.018    20633393.961    20633397.156
  20633397.774          54.250          54.000
 112990114.291 8  88044247.23246  21501303.342    21501302.890
  21501304.406          48.500          40.7504
 106824591.577 8  83239944.787 9  20328041.055    20328041.327    20328044.760
  20328044.632          53.500          55.500
 121353683.395 6  94561314.074 7  23092836.219    23092836.236    23092840.101
  23092840.260          40.750          43.750
 117356585.780 7  91446685.19845  22332214.920    22332214.798
  22332216.276          46.750          33.7504
 127461793.220 6  99320884.21144  24255170.017    24255169.907
  24255169.385          40.000          25.5004
 117883236.530 7  91857068.02945  22432434.027    22432433.297
  22432434.685          44.750          33.5004
 20  2 19  0 25 30.0000000  0 11G08G20G27G10G01G14G32G24G18G21G11
 125279995.229 6  97620776.546 7  23839991.088    23839991.280    23839996.066
  23839995.422          41.250          42.500
 114597023.294 7  89296384.13946  21807085.176    21807084.381
  21807085.486          46.250          38.0004
 128209332.174 6  99903373.419 6  24397425.196    24397425.183    24397429.596
  24397429.950          39.000          41.000
 108449537.989 9  84506138.976 9  20637256.571    20637256.480    20637259.754
  20637260.351          54.000          54.000
 128840174.491 6 100394939.755 5  24517469.548    24517470.336    24517474.009
  24517474.008          37.750          33.750
 112932976.009 8  87999723.89846  21490430.491    21490429.917
  21490431.069          49.000          40.7504
 106806629.543 8  83225948.412 9  20324623.020    20324623.162    20324626.751
  20324626.555          52.750          55.750
 121426813.257 6  94618298.396 7  23106752.354    23106752.495    23106756.303
  23106755.993          40.500          43.750
 117274250.410 7  91382527.78545  22316546.948    22316546.886
  22316548.852          47.000          34.2504
 127562099.864 6  99399045.23143  24274257.703    24274256.771
  24274257.210          36.750          20.7504
 117838522.738 7  91822226.11045  22423924.797    22423925.073
  22423926.109          44.750          33.2504
 20  2 19  0 26  0.0000000  0 10G08G20G27G10G01G14G32G24G18G11
 125333483.623 6  97662455.789 6  23850168.824    23850169.261    23850173.627
  23850173.692          41.000          41.750
 114668670.907 7  89352213.43246  21820719.521    21820718.180
  21820719.674          45.500          37.7504
 128298623.723 6  99972951.241 6  24414418.026    24414417.191    24414421.614
  24414421.025          39.750          41.250
 108470152.732 8  84522202.412 9  20641179.447    20641179.300    20641182.669
  20641183.248          53.750          54.250
 128735991.789 6 100313758.404 6  24497644.554    24497645.176    24497648.049
  24497648.395          38.000          37.500
 112876185.201 8  87955471.33146  21479623.272    21479622.958
  21479624.163          49.250          40.7504
 106789082.611 8  83212275.490 9  20321283.821    20321284.044    20321287.472
  20321287.436          52.000          55.500
 121500406.114 6  94675643.471 7  23120757.052    23120756.828    23120760.076
  23120760.463          39.750          43.750
 117192351.164 7  91318710.19545  22300962.062    22300961.507
  22300964.037          47.000          34.5004
 117794404.648 7  91787848.36145  22415529.360    22415529.444
  22415530.136          45.000          33.0004
 20  2 19  0 26 30.0000000  0 11G08G31G20G27G10G01G14G32G24G18G11
 125387365.017 6  97704441.300 7  23860422.802    23860422.575    23860427.339
  23860427.195          41.000          42.250
 128715183.977 6 100297549.152 5  24493685.447    24493685.622    24493686.856
  24493686.287          36.750          31.000
 114740580.765 7  89408247.08646  21834403.194    21834402.600
  21834403.830          46.000          38.0004
 128388041.819 6 100042627.667 6  24431434.164    24431433.651    24431437.304
  24431436.904          40.000          41.500
 108491083.108 9  84538511.793 9  20645162.455    20645162.299    20645165.454
  20645166.086          54.000          54.250
 128631996.407 6 100232723.029 6  24477854.473    24477855.034    24477857.650
  24477858.993          38.000          38.000
 112819740.382 8  87911488.35846  21468882.276    21468881.927
  21468883.351          49.000          41.0004
 106771948.424 8  83198924.186 9  20318023.263    20318023.526    20318027.071
  20318026.957          53.250          55.750
 121574459.027 6  94733347.056 7  23134848.741    23134848.742    23134852.412
  23134852.198          39.500          43.750
 117110888.921 7  91255233.14045  22285460.143    22285460.206
  22285462.174          46.500          34.2504
 117750881.670 7  91753934.36345  22407247.630    22407247.390
  22407248.129          45.250          33.7504
 20  2 19  0 27  0.0000000  0 10G08G20G27G10G01G14G32G24G18G11
 125441636.857 6  97746731.008 7  23870750.116    23870750.048    23870754.752
  23870754.845          40.250          42.500
 114812752.304 7  89464484.64346  21848137.045    21848136.410
  21848137.915          45.250          38.0004
 128477583.379 6 100112400.316 6  24448472.130    24448472.081    24448476.277
  24448476.183          39.250          40.500
 108512329.539 9  84555067.451 9  20649205.580    20649205.417    20649208.606
  20649209.141          54.250          54.250
 128528190.992 6 100151835.700 6  24458100.752    24458101.579    24458105.874
  24458105.420          36.750          38.750
 112763641.930 8  87867775.29446  21458207.178    21458206.613
  21458207.970          49.000          41.0004
 106755226.584 8  83185894.190 9  20314841.342    20314841.521    20314844.948
  20314844.849          53.000          55.750
 121648968.441 6  94791406.342 7  23149026.891    23149027.307    23149030.437
  23149031.025          39.500          43.750
 117029866.593 7  91192098.86645  22270041.939    22270041.757
  22270044.121          46.750          34.2504
 117707955.681 7  91720485.54245  22399079.078    22399079.104
  22399079.259          45.500          33.5004
 20  2 19  0 27 30.0000000  0 10G08G20G27G10G01G14G32G24G18G11
 125496296.640 6  97789323.043 6  23881152.015    23881151.685    23881156.459
  23881156.103          41.000          41.750
 114885185.067 7  89520925.75346  21861920.920    21861919.749
  21861921.383          46.000          37.7504
 128567245.461 6 100182266.897 6  24465534.735    24465534.352    24465537.875
  24465538.560          39.250          40.750
 108533892.574 8  84571869.814 9  20653308.831    20653308.737    20653311.977
  20653312.452          53.750          54.250
 128424578.320 6 100071098.569 6  24438384.931    24438384.406    24438388.388
  24438389.023          36.000          38.750
 112707890.330 8  87824332.49746  21447597.790    21447597.563
  21447598.883          49.500          41.2504
 106738916.788 8  83173185.266 9  20311737.606    20311737.908    20311741.217
  20311741.211          53.500          55.500
 121723932.090 6  94849819.566 7  23163292.164    23163292.484    23163296.034
  23163296.186          41.000          43.750
 116949287.036 7  91129309.59545  22254708.255    22254708.079
  22254709.674          46.500          34.2504
 117665628.254 7  91687503.13645  22391024.631    22391024.301
  22391025.513          45.250          33.7504
 20  2 19  0 28  0.0000000  0 10G08G31G20G27G10G14G32G24G18G11
 125551341.618 6  97832215.237 7  23891626.712    23891626.518    23891631.332
  23891631.070          40.750          42.000
 128358818.850 6 100019860.579 6  24425871.600    24425871.501    24425872.351
  24425872.806          38.750          37.000
 114957878.286 7  89577569.82246  21875753.860    21875752.888
  21875754.385          46.250          37.5004
 128657024.315 6 100252224.439 6  24482619.442    24482619.042    24482622.145
  24482622.366          39.750          39.750
 108555771.876 9  84588918.623 9  20657472.457    20657472.250    20657475.509
  20657475.893          54.000          54.000
 112652485.015 8  87781159.52946  21437054.789    21437054.429
  21437055.642          49.750          41.5004
 106723017.925 8  83160796.547 9  20308712.079    20308712.343    20308715.859
  20308715.727          53.000          55.500
 121799347.574 6  94908584.854 7  23177643.851    23177643.651    23177646.649
  23177646.960          40.250          43.500
 116869152.473 7  91066867.07945  22239458.761    22239458.822
  22239461.084          46.000          34.0004
 117623900.020 7  91654987.63645  22383083.612    22383083.810
  22383084.557          45.250          33.7504
 20  2 19  0 28 30.0000000  0 10G08G31G20G27G10G14G32G24G18G11
 125606771.175 6  97875407.106 6  23902174.958    23902174.375    23902179.113
  23902178.490          40.750          41.250
 128240050.006 6  99927313.483 6  24403270.267    24403270.530    24403271.498
  24403271.741          37.750          37.750
 115030833.172 7  89634417.79046  21889636.189    21889635.583
  21889637.308          46.250          37.5004
 128746919.085 6 100322272.306 6  24499725.503    24499725.338    24499729.597
  24499728.970          39.750          40.500
 108577970.117 9  84606215.956 9  20661696.656    20661696.507    20661699.602
  20661700.051          54.250          54.000
 112597428.851 8  87738258.63446  21426577.739    21426577.304
  21426578.560          49.500          41.5004
 106707531.794 8  83148729.441 9  20305765.079    20305765.394    20305768.873
  20305768.805          52.250          55.750
 121875214.019 6  94967701.579 7  23192080.808    23192080.521    23192083.891
  23192084.105          41.500          43.250
 116789467.738 7  91004775.08645  22224295.864    22224295.162
  22224297.477          46.500          34.5004
 117582774.558 7  91622941.80945  22375257.569    22375257.785
  22375259.201          45.500          34.0004
 20  2 19  0 29  0.0000000  0 11G08G31G20G27G10G01G14G32G24G18G11
 125662580.542 6  97918894.909 7  23912794.197    23912793.913    23912799.589
  23912799.061          39.000          42.250
 128121294.597 6  99834776.815 5  24380672.455    24380672.687    24380672.819
  24380672.349          39.750          35.750
 115104047.213 7  89691467.68246  21903567.903    21903567.670
  21903569.102          45.000          37.0004
 128836924.353 6 100392406.279 6  24516853.104    24516853.004    24516856.234
  24516856.466          39.750          40.250
 108600485.316 8  84623760.268 8  20665981.042    20665980.930    20665983.902
  20665984.568          53.750          53.750
 128114927.364 6                  24379458.728
                        37.000
 112542720.051 8  87695628.41146  21416167.073    21416166.589
  21416168.051          49.750          41.2504
 106692455.557 8  83136981.735 9  20302896.394    20302896.502    20302900.266
  20302899.960          52.250          56.250
 121951526.791 7  95027166.072 7  23206602.566    23206602.466    23206606.088
  23206605.949          42.000          44.000
 116710233.543 7  90943034.17245  22209217.574    22209217.736
  22209220.264          46.250          34.7504
 117542251.406 7  91591365.33645  22367546.399    22367546.552
  22367547.641          45.500          34.0004
 20  2 19  0 29 30.0000000  0 10G08G31G20G27G10G14G32G24G18G11
 125718767.066 6  97962676.591 7  23923486.456    23923486.604    23923491.154
  23923491.113          41.000          42.250
 128002555.479 6  99742252.772 5  24358076.515    24358076.869    24358076.739
  24358076.518          39.000          35.000
 115177520.024 7  89748719.22146  21917549.082    21917548.889
  21917550.682          44.000          37.0004
 128927037.155 6 100462624.031 6  24534000.474    24533999.815    24534005.055
  24534004.362          38.250          41.500
 108623317.927 9  84641551.910 8  20670326.023    20670325.871    20670328.903
  20670329.510          54.000          53.750
 112488358.891 8  87653269.07746  21405822.290    21405821.926
  21405823.422          49.500          41.7504
 106677788.876 8  83125553.160 9  20300105.283    20300105.518    20300109.032
  20300109.001          53.500          55.500
 122028283.854 6  95086976.773 7  23221208.662    23221208.738    23221212.486
  23221212.311          41.500          43.750
 116631452.658 7  90881646.46645  22194226.148    22194226.133
  22194228.241          46.000          34.5004
 117502331.768 7  91560259.11945  22359950.168    22359949.724
  22359950.889          45.250          33.7504
 20  2 19  0 30  0.0000000  0 10G08G31G20G27G10G14G32G24G18G11
 125775329.783 6  98006751.450 7  23934249.959    23934249.695    23934255.382
  23934254.592          40.750          42.250
 127883836.529 6  99649744.504 6  24335483.742    24335484.922    24335485.765
  24335485.994          38.000          37.500
 115251252.321 7  89806172.95346  21931580.833    21931580.008
  21931581.564          45.500          37.5004
 129017255.690 6 100532924.162 6  24551168.703    24551168.369    24551172.785
  24551172.203          38.750          40.750
 108646469.624 8  84659592.194 8  20674731.699    20674731.545    20674734.423
  20674735.121          53.500          53.500
 112434346.904 8  87611181.81646  21395544.041    21395543.736
  21395545.200          49.750          41.5004
 106663532.572 8  83114444.359 9  20297392.332    20297392.603    20297396.355
  20297396.154          53.500          55.750
 122105483.693 6  95147132.495 7  23235899.572    23235899.425    23235902.873
  23235902.915          41.500          44.000
 116553128.977 7  90820615.03245  22179321.724    22179321.148
  22179323.382          46.500          34.5004
 117463018.454 7  91529625.36945  22352469.302    22352468.933
  22352469.785          45.000          33.5004
 20  2 19  0 30 30.0000000  0 11G08G31G20G27G01G10G14G32G24G18G11
 125832265.143 6  98051116.613 7  23945085.248    23945084.678    23945089.167
  23945089.156          39.750          42.250
 127765140.658 6  99557254.253 6  24312897.255    24312897.553    24312899.271
  24312898.933          38.000          38.500
 115325243.027 7  89863828.04946  21945661.251    21945660.165
  21945661.404          46.250          37.2504
 129107576.299 6 100603303.851 6  24568356.503    24568355.967    24568359.930
  24568359.964          39.250          41.250
 127807093.638 6  99589945.931 6  24320882.842    24320882.801    24320887.609
  24320887.181          37.250          36.250
 108669940.242 8  84677880.991 8  20679197.968    20679197.864    20679200.798
  20679201.405          53.750          53.750
 112380684.103 8  87569366.65646  21385332.530    21385332.229
  21385333.475          50.000          41.5004
 106649685.551 8  83103654.478 9  20294757.256    20294757.593    20294761.316
  20294761.116          53.250          56.000
 122183122.699 6  95207630.408 7  23250673.858    23250673.590    23250677.601
  23250677.274          41.250          44.000
 116475264.952 7  90759941.77645  22164504.722    22164504.528
  22164506.064          46.250          34.7504
 117424312.308 7  91499464.73045  22345103.345    22345103.225
  22345104.742          45.000          33.7504
 20  2 19  0 31  0.0000000  0 11G08G31G20G27G01G10G14G32G24G18G11
 125889570.719 6  98095770.299 6  23955989.831    23955989.387    23955993.761
  23955993.884          40.250          41.750
 127646470.493 6  99464784.008 6  24290316.283    24290315.738    24290316.951
  24290317.059          38.500          38.750
 115399491.463 7  89921683.98946  21959790.319    21959789.124
  21959790.284          46.250          37.0004
 129197995.942 6 100673760.700 6  24585562.502    24585562.473    24585566.169
  24585565.852          40.250          40.500
 127704906.029 6  99510319.212 6  24301435.903    24301436.766    24301440.559
  24301441.102          37.250          40.250
 108693730.092 8  84696418.535 8  20683725.132    20683724.842    20683728.002
  20683728.477          53.750          53.750
 112327370.602 8  87527823.68246  21375187.225    21375186.877
  21375188.334          49.750          41.7504
 106636247.343 8  83093183.158 9  20292200.226    20292200.394    20292203.893
  20292203.843          53.750          55.500
 122261199.286 6  95268469.310 7  23265530.722    23265531.244    23265534.963
  23265534.806          40.000          44.000
 116397863.140 7  90699628.68345  22149775.467    22149775.468
  22149777.744          46.250          35.0004
 117386214.379 7  91469778.03745  22337853.710    22337853.499
  22337854.088          44.750          33.7504
 20  2 19  0 31 30.0000000  0 11G08G31G20G27G01G10G14G32G24G18G11
 125947244.393 6  98140710.819 7  23966964.288    23966964.302    23966969.428
  23966968.860          40.000          42.250
 127527829.126 6  99372336.194 6  24267738.540    24267739.011    24267739.114
  24267739.892          38.250          37.250
 115473997.791 7  89979740.86246  21973967.314    21973967.026
  21973968.675          45.500          37.0004
 129288511.840 6 100744292.590 6  24602786.910    24602786.921    24602790.033
  24602790.535          39.500          39.250
 127602933.160 6  99430859.838 6  24282031.561    24282032.098    24282036.189
  24282036.137          37.500          39.500
 108717839.905 8  84715205.407 8  20688312.978    20688312.884    20688315.930
  20688316.444          53.500          53.750
 112274407.074 8  87486553.41147  21365108.581    21365108.365
  21365109.717          50.000          42.0004
 106623217.735 8  83083030.219 9  20289720.808    20289720.907    20289724.526
  20289724.374          53.500          55.750
 122339710.820 6  95329647.111 7  23280470.557    23280471.288    23280474.902
  23280474.797          40.250          43.500
 116320926.945 7  90639678.39745  22135135.199    22135134.886
  22135137.228          45.500          34.7504
 117348726.220 7  91440566.49645  22330719.989    22330719.640
  22330720.854          44.750          34.2504
 20  2 19  0 32  0.0000000  0 11G08G31G20G27G01G10G14G32G24G18G11
 126005281.283 6  98185934.374 6  23978008.393    23978008.092    23978012.492
  23978012.653          39.750          41.000
 127409217.703 6  99279911.706 6  24245167.193    24245167.860    24245168.496
  24245169.469          38.000          38.000
 115548759.502 7  90037996.72846  21988194.482    21988193.891
  21988195.359          46.000          37.0004
 129379119.406 6 100814895.888 6  24620029.218    24620028.986    24620032.804
  24620032.567          38.750          38.750
 127501176.107 6  99351568.631 6  24262668.746    24262668.509    24262672.151
  24262672.158          38.000          39.250
 108742268.357 8  84734240.563 8  20692961.423    20692961.376    20692964.476
  20692965.024          53.500          53.750
 112221792.480 8  87445555.04446  21355096.473    21355096.223
  21355097.286          50.250          41.5004
 106610594.604 8  83073194.022 9  20287318.487    20287318.782    20287322.423
  20287322.252          53.750          56.000
 122418653.060 6  95391160.530 7  23295493.781    23295493.408    23295497.475
  23295497.148          40.750          43.250
 116244457.194 7  90580091.58345  22120583.329    22120583.074
  22120585.691          46.000          35.0004
 117311847.774 7  91411830.03945  22323701.966    22323701.686
  22323703.000          44.000          34.0004
 20  2 19  0 32 30.0000000  0 11G08G31G20G27G01G10G14G32G24G18G11
 126063681.359 6  98231440.916 6  23989122.268    23989122.097    23989126.636
  23989126.010          40.750          41.750
 127290641.121 6  99187514.376 6  24222603.443    24222603.088    24222604.295
  24222604.433          38.250          38.250
 115623777.865 7  90096452.59046  22002469.564    22002469.339
  22002470.790          45.250          36.7504
 129469817.261 6 100885569.506 6  24637288.431    24637288.440    24637292.494
  24637292.376          39.000          41.000
 127399639.368 6  99272449.096 6  24243346.007    24243346.682    24243349.465
  24243350.791          37.750          39.000
 108767017.646 8  84753525.720 8  20697671.192    20697671.053    20697674.068
  20697674.620          53.250          53.500
 112169528.460 8  87404829.83846  21345150.926    21345150.501
  21345151.894          49.750          41.7504
 106598379.194 9  83063675.528 9  20284994.179    20284994.343    20284997.770
  20284997.697          54.000          55.750
 122498025.298 6  95453009.040 7  23310597.260    23310597.354    23310601.131
  23310601.059          40.000          43.250
 116168458.548 7  90520871.87045  22106121.364    22106120.908
  22106123.339          46.250          35.2504
 117275582.045 7  91383571.01845  22316801.297    22316800.718
  22316802.025          44.750          34.2504
 20  2 19  0 33  0.0000000  0 11G08G31G20G27G01G10G14G32G24G18G11
 126122441.016 6  98277227.649 6  24000303.270    24000303.296    24000307.950
  24000307.259          40.500          41.750
 127172101.317 6  99095145.673 6  24200046.686    24200045.959    24200046.896
  24200047.482          38.500          39.250
 115699051.747 7  90155107.56046  22016793.709    22016793.445
  22016795.110          45.000          36.7504
 129560601.663 6 100956310.593 6  24654563.184    24654563.374    24654568.077
  24654567.852          37.750          40.250
 127298324.931 6  99193502.786 6  24224066.449    24224067.052    24224070.249
  24224071.457          38.000          39.000
 108792087.360 8  84773060.559 8  20702441.827    20702441.654    20702444.621
  20702445.244          53.750          53.750
 112117614.893 8  87364377.71646  21335271.975    21335271.798
  21335272.995          50.000          41.7504
 106586570.207 9  83054473.725 9  20282747.242    20282747.246    20282750.579
  20282750.530          54.000          55.750
 122577824.573 6  95515190.301 7  23325782.318    23325782.941    23325786.309
  23325786.267          39.750          42.500
 116092932.908 7  90462020.73045  22091749.355    22091749.127
  22091751.348          46.500          35.2504
 117239929.212 7  91355789.59645  22310016.679    22310016.535
  22310017.892          45.000          34.0004
 20  2 19  0 33 30.0000000  0 11G08G31G20G27G01G10G14G32G24G18G11
 126181557.861 6  98323292.715 7  24011553.282    24011552.606    24011558.353
  24011557.997          40.000          43.000
 127053601.459 6  99002808.142 6  24177496.490    24177496.008    24177498.556
  24177498.029          38.000          40.000
 115774581.019 7  90213961.52346  22031166.028    22031166.071
  22031167.845          45.000          36.5004
 129651470.073 6 101027117.157 6  24671856.706    24671855.592    24671859.624
  24671859.822          39.500          40.750
 127197236.044 6  99114732.229 6  24204830.010    24204830.316    24204833.625
  24204834.617          36.750          39.250
 108817478.384 8  84792845.768 8  20707273.587    20707273.448    20707276.389
  20707277.006          53.500          53.500
 112066052.303 8  87324199.09846  21325459.793    21325459.722
  21325460.936          49.750          41.5004
 106575167.704 9  83045588.662 9  20280577.193    20280577.327    20280580.822
  20280580.732          54.000          55.750
 122658048.484 6  95577702.432 7  23341049.110    23341048.661    23341052.084
  23341052.050          40.500          42.000
 116017883.590 7  90403540.75145  22077467.746    22077467.901
  22077470.156          46.250          35.7504
 117204891.181 7  91328487.24545  22303349.187    22303349.042
  22303349.873          44.000          34.2504
 20  2 19  0 34  0.0000000  0 11G08G31G20G27G01G10G14G32G24G18G11
 126241027.779 6  98369632.896 7  24022869.752    24022869.739    24022874.667
  24022874.081          39.500          42.250
 126935142.955 6  98910502.815 6  24154954.318    24154954.458    24154956.339
  24154955.484          39.000          39.250
 115850363.452 7  90273012.76146  22045587.269    22045587.008
  22045588.713          45.500          36.7504
 129742417.587 6 101097985.343 6  24689163.247    24689162.363    24689166.244
  24689166.536          39.500          40.250
 127096379.598 6                  24185636.628
                        37.750
 108843189.236 8  84812880.193 8  20712166.272    20712166.052    20712169.059
  20712169.622          53.250          53.500
 112014839.446 8  87284292.98346  21315714.692    21315714.246
  21315715.536          50.250          41.7504
 106564169.219 8  83037018.413 9  20278484.322    20278484.370    20278487.961
  20278487.777          53.750          55.750
 122738692.601 6  95640542.011 7  23356394.538    23356394.644    23356397.853
  23356398.259          40.000          42.250
 115943311.475 7  90345432.61745  22063277.375    22063277.594
  22063279.527          46.250          35.5004
 117170467.392 7  91301663.53345  22296798.041    22296798.126
  22296798.821          44.000          34.0004
 20  2 19  0 34 30.0000000  0 11G08G31G20G27G01G10G14G32G24G18G11
 126300848.568 6  98416246.492 7  24034253.608    24034252.925    24034258.110
  24034257.723          39.500          42.500
 126816729.903 6  98818232.921 6  24132421.051    24132421.278    24132422.143
  24132422.627          39.250          39.250
 115926399.543 7  90332261.68046  22060056.900    22060056.360
  22060057.865          46.000          36.7504
 129833442.363 6 101168913.710 6  24706483.446    24706483.855    24706487.566
  24706487.578          39.000          40.250
 126995747.401 6  98957728.456 6  24166487.457    24166487.160    24166490.504
  24166491.708          38.000          40.750
 108869221.380 8  84833164.977 8  20717119.897    20717119.784    20717122.762
  20717123.325          53.250          53.500
 111963977.468 8  87244660.28346  21306035.642    21306035.305
  21306036.992          50.000          41.7504
 106553575.320 9  83028763.433 9  20276468.267    20276468.375    20276471.833
  20276471.799          54.250          55.750
 122819756.014 6  95703708.323 6  23371820.352    23371820.799    23371824.354
  23371824.342          40.000          41.750
 115869220.246 7  90287699.20145  22049178.101    22049178.227
  22049179.938          46.000          35.7504
 117136660.336 7  91275320.35845  22290365.059    22290365.066
  22290366.079          44.250          34.2504
 20  2 19  0 35  0.0000000  0 11G08G31G20G27G01G10G14G32G24G18G11
 126361018.424 6  98463132.072 7  24045702.795    24045703.157    24045707.531
  24045707.559          39.000          42.250
 126698365.403 6  98726000.835 6  24109896.860    24109896.520    24109899.294
  24109898.878          37.500          39.500
 116002688.713 7  90391707.77546  22074574.290    22074573.622
  22074575.397          46.250          36.5004
 129924541.403 6 101239899.992 6  24723819.668    24723819.768    24723822.756
  24723823.045          39.250          39.750
 126895348.446 6  98879495.510 6  24147381.794    24147382.070    24147385.061
  24147386.234          38.250          39.750
 108895575.308 8  84853700.507 8  20722135.004    20722134.795    20722137.677
  20722138.300          53.000          53.500
 111913466.614 8  87205301.18447  21296424.149    21296423.604
  21296425.089          49.750          42.0004
 106543385.630 8  83020823.417 9  20274529.268    20274529.349    20274532.684
  20274532.757          53.750          55.750
 122901235.255 6  95767198.642 7  23387326.165    23387325.523    23387329.449
  23387329.302          39.750          42.000
 115795612.820 7  90230342.77745  22035171.238    22035171.109
  22035173.080          46.250          35.5004
 117103471.040 7  91249458.57445  22284049.547    22284049.372
  22284049.780          44.000          34.2504
 20  2 19  0 35 30.0000000  0 11G08G31G20G27G01G10G14G32G24G18G11
 126421534.288 6  98510287.283 7  24057218.622    24057218.641    24057223.111
  24057223.380          39.500          42.000
 126580052.039 6  98633808.589 6  24087383.327    24087382.296    24087383.732
  24087384.086          37.750          38.500
 116079230.686 7  90451350.86946  22089140.371    22089138.716
  22089140.380          47.000          36.7504
 130015711.700 6 101310941.783 6  24741168.495    24741168.255    24741172.876
  24741172.042          37.500          40.250
 126795185.146 6  98801446.196 6  24128321.659    24128321.662    24128325.443
  24128325.715          38.250          40.500
 108922251.345 8  84874487.029 8  20727211.324    20727210.951    20727213.789
  20727214.556          52.750          53.750
 111863307.326 8  87166216.03147  21286878.818    21286878.473
  21286879.798          50.000          42.0004
 106533599.499 9  83013197.864 9  20272667.162    20272667.176    20272670.685
  20272670.491          54.250          56.000
 122983128.352 6  95831011.442 7  23402909.443    23402909.435    23402912.918
  23402913.251          39.250          42.250
 115722491.903 7  90173365.43645  22021256.722    22021256.932
  22021258.703          46.250          35.5004
 117070900.415 7  91224078.86445  22277851.753    22277851.125
  22277852.131          44.000          33.7504
 20  2 19  0 36  0.0000000  0 10G08G20G27G01G10G14G32G24G18G11
 126482392.265 6  98557709.072 7  24068800.534    24068800.359    24068804.877
  24068804.249          40.250          42.250
 116156023.502 7  90511189.42146  22103753.398    22103752.393
  22103754.020          46.750          36.0004
 130106949.134 6 101382035.872 6  24758529.379    24758530.550    24758534.598
  24758534.326          37.250          40.500
 126695259.593 6  98723582.148 6  24109305.794    24109306.508    24109309.722
  24109310.837          38.250          40.750
 108949248.663 8  84895523.904 8  20732348.589    20732348.454    20732351.599
  20732351.960          53.000          53.250
 111813498.774 8  87127404.19146  21277400.476    21277400.315
  21277401.730          50.000          41.7504
 106524215.243 9  83005885.457 9  20270881.203    20270881.451    20270884.919
  20270884.682          54.000          55.750
 123065432.334 6  95895144.424 7  23418571.419    23418571.070    23418574.862
  23418574.589          40.250          42.000
 115649858.969 7  90116768.35445  22007434.809    22007434.906
  22007437.092          46.000          35.5004
 117038948.515 7  91199181.28145  22271771.292    22271771.314
  22271771.635          44.500          34.2504
 20  2 19  0 36 30.0000000  0 10G08G20G27G01G10G14G32G24G18G11
 126543590.479 6  98605395.985 7  24080446.130    24080445.359    24080450.031
  24080449.892          40.250          42.000
 116233067.326 7  90571223.56246  22118414.020    22118413.381
  22118414.776          45.750          36.0004
 130198251.296 6 101453180.377 6  24775904.384    24775904.394    24775909.090
  24775908.711          37.500          40.750
 126595574.949 6  98645905.807 6  24090336.569    24090337.219    24090341.425
  24090341.493          38.000          41.250
 108976568.261 8  84916811.903 8  20737547.230    20737547.122    20737550.370
  20737550.839          52.500          53.500
 111764041.755 8  87088866.26747  21267989.196    21267988.720
  21267990.157          49.500          42.0004
 106515232.890 8  82998886.223 9  20269172.009    20269172.099    20269175.400
  20269175.425          53.500          55.750
 123148144.106 6  95959595.159 6  23434310.548    23434311.098    23434313.443
  23434314.465          39.750          41.500
 115577717.435 7  90060554.18046  21993706.928    21993707.124
  21993709.365          46.000          36.0004
 117007617.035 7  91174767.14145  22265808.574    22265808.732
  22265809.650          44.000          33.7504
 20  2 19  0 37  0.0000000  0 11G08G20G27G01G10G31G14G32G24G18G11
 126605127.340 6  98653346.768 7  24092155.298    24092155.036    24092160.712
  24092159.928          39.500          42.000
 116310362.741 7  90631453.75746  22133122.214    22133122.195
  22133123.279          45.750          36.0004
 130289616.242 6 101524373.862 6  24793292.028    24793290.496    24793294.060
  24793294.824          39.000          39.500
 126496135.131 6  98568420.243 6  24071413.458    24071414.308    24071417.633
  24071418.835          38.500          41.500
 109004211.617 8  84938352.179 8  20742807.574    20742807.471    20742810.579
  20742811.158          52.250          53.500
 126225444.404 6  98357487.013 5  24019903.535    24019903.386    24019903.757
  24019903.998          38.250          34.500
 111714937.547 8  87050603.25547  21258644.900    21258644.724
  21258646.027          49.750          42.0004
 106506652.985 9  82992200.586 9  20267539.297    20267539.437    20267542.828
  20267542.746          54.000          55.750
 123231262.689 6  96024362.887 7  23450127.706    23450128.110    23450131.107
  23450131.530          39.500          42.250
 115506070.983 7  90004725.78545  21980073.006    21980073.263
  21980074.955          46.750          35.7504
 116976908.197 7  91150838.20845  22259965.507    22259964.787
  22259966.029          44.250          34.0004
 20  2 19  0 37 30.0000000  0 11G08G20G27G01G10G31G14G32G24G18G11
 126666999.324 6  98701558.663 6  24103929.455    24103929.300    24103934.274
  24103933.463          39.000          41.000
 116387908.443 7  90691878.96946  22147878.937    22147878.401
  22147880.317          46.000          36.2504
 130381040.385 6 101595613.458 6  24810688.373    24810688.303    24810691.809
  24810691.932          37.500          39.500
 126396942.156 6  98491127.036 7  24052538.129    24052538.610    24052542.503
  24052543.042          38.000          42.000
 109032178.405 8  84960144.478 8  20748129.433    20748129.374    20748132.424
  20748133.066          52.250          53.500
 126107364.074 6  98265476.387 6  23997433.478    23997433.675    23997435.303
  23997434.061          39.000          39.750
 111666185.819 8  87012614.89846  21249367.728    21249367.353
  21249368.784          49.500          41.7504
 106498474.265 9  82985827.562 9  20265982.792    20265983.061    20265986.479
  20265986.339          54.000          55.750
 123314784.712 6  96089444.960 7  23466021.583    23466021.799    23466025.291
  23466025.171          39.750          43.000
 115434921.547 7  89949284.67446  21966533.916    21966534.041
  21966535.786          47.250          36.0004
 116946822.312 7  91127394.65745  22254240.351    22254240.535
  22254240.762          44.500          34.2504
 20  2 19  0 38  0.0000000  0 11G08G20G27G01G10G31G14G32G24G18G11
 126729202.928 6  98750029.018 6  24115766.679    24115766.374    24115771.291
  24115770.799          39.500          41.000
 116465703.102 7  90752498.17446  22162683.748    22162682.437
  22162683.779          47.000          36.0004
 130472519.839 6 101666896.110 6  24828096.386    24828096.365    24828099.275
  24828100.246          37.500          39.250
 126297997.945 6  98414027.665 6  24033710.303    24033710.148    24033714.222
  24033714.612          38.750          41.750
 109060468.055 8  84982188.365 8  20753512.937    20753512.685    20753515.774
  20753516.423          52.750          53.500
 125989348.455 6  98173516.154 6  23974975.205    23974975.450    23974976.846
  23974976.957          39.250          39.750
 111617786.182 8  86974900.91546  21240157.578    21240157.333
  21240158.599          49.250          41.7504
 106490695.229 9  82979765.977 9  20264502.556    20264502.797    20264506.023
  20264505.974          54.250          55.500
 123398706.907 6  96154838.889 7  23481991.705    23481991.269    23481994.436
  23481995.062          39.750          42.750
 115364271.040 7  89894232.33246  21953089.806    21953089.787
  21953091.653          47.000          36.0004
 116917359.545 7  91104436.65345  22248633.608    22248633.958
  22248634.177          45.250          34.0004
 20  2 19  0 38 30.0000000  0 11G08G20G27G01G10G31G14G32G24G18G11
 126791736.180 6  98798756.222 6  24127665.779    24127665.883    24127671.175
  24127670.649          39.500          41.500
 116543746.853 7  90813311.48945  22177534.087    22177533.564
  22177535.194          46.250          35.7504
 130564052.343 6 101738220.122 6  24845514.250    24845514.164    24845518.235
  24845518.277          38.000          39.750
 126199306.080 6  98337124.921 6  24014929.584    24014930.033    24014934.220
  24014934.090          38.750          41.750
 109089081.659 8  85004484.672 8  20758957.788    20758957.665    20758960.972
  20758961.430          52.500          53.500
 125871401.367 6  98081609.337 6  23952531.161    23952531.577    23952532.305
  23952532.718          40.250          40.750
 111569738.906 8  86937461.48347  21231014.829    21231014.485
  21231015.583          50.250          42.0004
 106483316.048 9  82974015.969 9  20263098.430    20263098.575    20263102.002
  20263101.817          54.000          55.750
 123483027.236 6  96220543.025 7  23498036.736    23498037.086    23498041.181
  23498040.961          38.750          43.000
 115294122.658 7  89839571.27046  21939740.913    21939740.920
  21939742.541          46.750          36.0004
 116888521.548 7  91081965.49245  22243145.786    22243145.677
  22243146.697          45.250          34.5004
 20  2 19  0 39  0.0000000  0 11G08G20G27G01G10G31G14G32G24G18G11
 126854596.292 6  98847738.094 7  24139628.488    24139627.959    24139632.901
  24139632.429          38.500          42.500
 116622039.075 7  90874318.42945  22192432.853    22192432.189
  22192433.640          47.000          35.7504
 130655634.887 6 101809583.148 6  24862942.324    24862942.160    24862945.223
  24862945.032          38.000          39.000
 126100869.306 6  98260420.943 7  23996197.005    23996197.847    23996201.113
  23996201.880          38.750          42.000
 109118019.544 8  85027033.671 8  20764464.488    20764464.377    20764467.486
  20764468.101          52.500          53.500
 125753525.862 6  97989758.322 6  23930100.404    23930100.307    23930101.692
  23930101.844          39.000          40.750
 111522044.423 8  86900296.95847  21221938.461    21221938.385
  21221939.490          50.000          42.0004
 106476336.081 8  82968577.034 9  20261770.148    20261770.235    20261773.643
  20261773.513          53.500          55.750
 123567742.680 6  96286555.037 7  23514157.171    23514158.012    23514161.155
  23514161.674          39.500          43.500
 115224479.124 7  89785303.58146  21926488.263    21926488.018
  21926489.779          46.750          36.5004
 116860308.966 7  91059981.66945  22237777.463    22237777.270
  22237777.578          45.500          34.0004
 20  2 19  0 39 30.0000000  0 11G08G20G27G01G10G31G14G32G24G18G11
 126917780.111 6  98896972.210 6  24151651.528    24151651.565    24151655.459
  24151655.870          39.250          41.500
 116700578.473 7  90935517.95045  22207378.080    22207377.527
  22207378.967          46.500          35.7504
 130747264.035 6 101880982.483 6  24880378.147    24880378.067    24880382.310
  24880382.367          36.500          39.250
 126002689.878 6  98183917.484 6  23977514.302    23977514.720    23977518.627
  23977518.938          39.000          41.500
 109147281.556 8  85049835.230 8  20770032.755    20770032.648    20770035.998
  20770036.507          52.250          53.500
 125635724.304 6  97897964.922 6  23907682.893    23907683.015    23907684.439
  23907684.850          38.000          40.000
 111474702.526 8  86863407.17747  21212929.687    21212929.400
  21212930.719          49.750          42.2504
 106469754.191 8  82963448.290 9  20260517.532    20260517.755    20260521.219
  20260521.068          53.500          55.750
 123652850.785 6  96352873.050 7  23530353.867    23530353.549    23530357.079
  23530357.107          39.750          43.000
 115155342.539 7  89731430.91946  21913331.750    21913331.725
  21913333.754          47.250          36.5004
 116832722.469 7  91038485.70945  22232527.530    22232527.397
  22232528.045          45.500          34.0004
 20  2 19  0 40  0.0000000  0 10G08G20G01G10G31G14G32G24G18G11
 126981284.307 6  98946455.971 6  24163735.206    24163735.395    24163740.961
  24163740.653          38.750          41.750
 116779364.533 7  90996909.68145  22222370.625    22222370.120
  22222371.458          45.750          35.5004
 125904770.227 6  98107616.469 7  23958880.826    23958881.546    23958884.588
  23958885.492          39.000          42.000
 109176867.698 8  85072889.365 8  20775663.093    20775662.760    20775666.007
  20775666.563          52.500          53.750
 125517999.377 6  97806231.210 6  23885280.581    23885280.708    23885282.362
  23885282.369          38.000          39.500
 111427713.027 8  86826791.99147  21203987.508    21203987.296
  21203988.935          49.500          42.2504
 106463569.403 8  82958628.978 9  20259340.473    20259340.793    20259344.191
  20259344.168          53.250          55.500
 123738348.099 6  96419494.325 7  23546622.906    23546623.143    23546627.373
  23546626.704          39.750          43.000
 115086715.033 7  89677954.95046  21900272.234    21900272.305
  21900273.968          47.000          36.2504
 116805762.972 7  91017478.29745  22227397.922    22227397.340
  22227398.158          46.250          34.2504
 20  2 19  0 40 30.0000000  0 10G08G20G01G10G31G14G32G24G18G11
 127045106.343 6  98996187.423 6  24175880.408    24175880.731    24175885.654
  24175885.141          39.750          41.500
 116858396.754 7  91058493.21045  22237409.780    22237409.729
  22237410.749          46.000          35.2504
 125807113.215 6  98031520.104 7  23940297.310    23940297.731    23940301.802
  23940302.132          39.500          42.250
 109206778.288 8  85096196.317 8  20781354.763    20781354.628    20781357.894
  20781358.346          52.500          53.500
 125400353.925 6  97714559.410 6  23862892.319    23862893.633    23862894.491
  23862894.786          38.250          38.500
 111381076.219 8  86790451.62847  21195113.267    21195112.868
  21195114.155          50.250          42.2504
 106457781.149 8  82954118.649 9  20258239.096    20258239.359    20258242.858
  20258242.700          53.500          55.750
 123824232.262 6  96486417.056 7  23562966.059    23562966.005    23562970.191
  23562969.860          39.500          42.500
 115018599.246 7  89624877.71446  21887310.460    21887310.018
  21887312.064          46.500          36.2504
 116779431.097 7  90996959.95645  22222386.880    22222386.416
  22222387.024          46.500          33.7504
 20  2 19  0 41  0.0000000  0 10G08G20G01G10G31G14G32G24G18G11
 127109244.536 6  99046165.252 7  24188086.169    24188086.303    24188090.883
  24188090.716          40.500          42.000
 116937675.364 7  91120268.71645  22252496.713    22252495.894
  22252497.004          46.750          35.5004
 125709722.774 6  97955631.454 7  23921764.104    23921765.260    23921768.532
  23921769.422          39.500          42.000
 109237014.811 8  85119757.244 8  20787108.629    20787108.465    20787111.690
  20787112.122          52.500          53.500
 125282792.295 6  97622952.917 6  23840522.613    23840522.305    23840523.434
  23840523.625          39.250          39.500
 111334793.183 8  86754386.93347  21186305.879    21186305.646
  21186306.752          50.000          42.5004
 106452389.891 8  82949917.674 9  20257213.335    20257213.442    20257217.017
  20257216.779          53.250          56.000
 123910502.099 6  96553640.317 7  23579382.922    23579382.814    23579386.929
  23579386.689          39.500          42.000
 114950999.075 7  89572202.25946  21874446.424    21874446.429
  21874448.592          46.500          36.5004
 116753728.688 7  90976932.10145  22217496.072    22217495.586
  22217496.204          46.750          34.0004
 20  2 19  0 41 30.0000000  0 10G08G20G01G10G31G14G32G24G18G11
 127173694.551 6  99096385.994 7  24200349.809    24200349.924    24200354.793
  24200355.236          39.500          42.000
 117017197.998 7  91182234.42345  22267629.411    22267628.713
  22267629.713          47.500          35.5004
 125612599.972 6  97879951.357 7  23903283.413    23903283.264    23903286.401
  23903287.313          39.500          42.250
 109267575.879 8  85143571.062 8  20792924.298    20792924.009    20792927.090
  20792927.697          52.500          53.250
 125165315.640 6  97531412.663 6  23818167.378    23818167.321    23818169.040
  23818168.740          38.250          40.500
 111288862.343 8  86718596.67847  21177565.375    21177565.219
  21177566.600          50.000          42.5004
 106447393.312 8  82946024.238 9  20256262.268    20256262.638    20256266.036
  20256265.987          53.250          56.000
 123997152.485 6  96621160.072 7  23595870.990    23595871.782    23595876.231
  23595875.562          38.000          42.000
 114883915.275 7  89519929.18046  21861681.305    21861680.939
  21861682.883          46.500          36.7504
 116728655.104 7  90957394.25245  22212724.270    22212724.801
  22212725.221          47.250          34.0004
 20  2 19  0 42  0.0000000  0 10G08G20G01G10G31G14G32G24G18G11
 127238455.295 6  99146848.884 6  24212674.482    24212674.304    24212678.716
  24212678.434          40.000          41.500
 117096965.940 7  91244391.27645  22282808.705    22282808.249
  22282809.284          47.500          35.7504
 125515749.378 6  97804483.376 7  23884853.002    23884853.229    23884856.983
  23884857.039          40.000          42.500
 109298463.590 8  85167639.401 8  20798801.696    20798801.717    20798804.955
  20798805.454          52.500          53.250
 125047928.541 6  97439942.200 6  23795829.168    23795829.125    23795830.623
  23795830.679          37.500          40.250
 111243285.693 8  86683082.41647  21168892.548    21168892.154
  21168893.500          49.750          42.2504
 106442792.507 8  82942439.190 9  20255386.877    20255387.127    20255390.649
  20255390.485          53.000          55.750
 124084183.139 6  96688976.146 6  23612432.418    23612432.870    23612436.457
  23612436.993          37.500          41.500
 114817352.331 7  89468061.95346  21849014.593    21849014.168
  21849016.408          46.500          36.7504
 116704212.619 7  90938348.17845  22208073.061    22208072.632
  22208073.950          47.000          33.7504
 20  2 19  0 42 30.0000000  0 10G08G20G01G10G31G14G32G24G18G11
 127303521.899 6  99197550.140 6  24225055.745    24225056.147    24225060.004
  24225059.472          40.750          39.750
 117176976.465 7  91306737.10545  22298034.211    22298033.271
  22298034.474          46.500          35.0004
 125419171.625 6  97729227.992 7  23866474.572    23866475.191    23866478.404
  23866479.189          39.500          42.500
 109329676.030 8  85191960.782 8  20804741.418    20804741.318    20804744.355
  20804744.993          52.750          53.250
 124930631.853 6  97348542.203 6  23773508.205    23773508.217    23773509.253
  23773510.257          37.250          41.000
 111198061.449 8  86647842.74447  21160286.543    21160286.458
  21160287.657          49.750          42.5004
 106438584.597 8  82939160.305 9  20254586.122    20254586.388    20254589.812
  20254589.717          53.750          56.250
 124171588.552 6  96757084.270 6  23629066.244    23629065.940    23629069.372
  23629069.602          38.250          41.250
 114751310.327 7  89416600.65346  21836447.044    21836446.989
  21836448.982          46.750          37.0004
 116680399.785 7  90919792.72245  22203541.985    22203541.281
  22203541.951          47.750          33.7504
 20  2 19  0 43  0.0000000  0 10G08G20G01G10G31G14G32G24G18G11
 127368892.957 6  99248488.608 6  24237494.775    24237495.159    24237500.564
  24237499.886          39.500          41.000
 117257230.226 7  91369272.49945  22313305.421    22313304.865
  22313306.309          46.000          35.0004
 125322870.806 6  97654188.403 7  23848149.441    23848149.415    23848153.154
  23848153.856          39.750          42.500
 109361214.843 8  85216536.474 8  20810743.091    20810742.892    20810746.074
  20810746.600          53.000          53.250
 124813429.930 6  97257216.057 6  23751204.984    23751205.734    23751207.441
  23751207.212          37.250          41.000
 111153190.847 8  86612878.64947  21151747.790    21151747.706
  21151749.104          49.750          42.5004
 106434770.256 8  82936188.088 9  20253860.496    20253860.582    20253863.856
  20253863.836          53.500          55.750
 124259368.447 6  96825484.203 6  23645770.044    23645769.609    23645773.285
  23645773.445          38.500          41.750
 114685793.293 7  89365548.42346  21823979.118    21823979.375
  21823981.604          46.000          36.7504
 116657218.767 7  90901729.59145  22199130.597    22199130.135
  22199130.732          47.500          34.0004
 20  2 19  0 43 30.0000000  0 10G08G20G01G10G31G14G32G24G18G11
 127434564.156 6  99299660.962 6  24249992.317    24249992.381    24249997.118
  24249996.200          39.500          40.500
 117337725.289 7  91431995.92045  22328623.235    22328622.719
  22328624.248          45.500          34.5004
 125226848.459 6  97579365.816 7  23829876.239    23829877.093    23829880.814
  23829880.982          39.500          42.500
 109393079.114 8  85241365.768 8  20816806.652    20816806.524    20816809.654
  20816810.157          53.000          53.250
 124696324.576 6  97165965.126 6  23728920.659    23728921.613    23728923.227
  23728923.146          38.250          41.250
 111108672.923 8  86578189.36547  21143276.433    21143276.212
  21143277.527          49.500          42.5004
 106431347.570 8  82933521.064 9  20253209.288    20253209.233    20253212.791
  20253212.572          52.750          56.000
 124347518.655 6  96894172.675 7  23662544.982    23662544.406    23662548.464
  23662548.312          38.000          42.000
 114620802.308 7  89314906.09946  21811611.930    21811612.253
  21811614.359          46.000          36.7504
 116634669.007 7  90884158.33845  22194839.395    22194839.070
  22194839.831          47.750          34.0004
 20  2 19  0 44  0.0000000  0 10G08G20G01G10G31G14G32G24G18G11
 127500534.651 6  99351066.526 6  24262545.742    24262545.619    24262551.314
  24262550.969          38.750          41.750
 117418463.047 7  91494908.44745  22343986.968    22343986.802
  22343988.062          46.000          34.5004
 125131109.369 6  97504763.932 7  23811658.497    23811658.524    23811662.174
  23811662.724          40.000          42.750
 109425271.046 8  85266450.391 8  20822932.498    20822932.436    20822935.598
  20822936.113          53.000          53.000
 124579320.790 6  97074793.341 6  23706656.675    23706656.775    23706657.938
  23706657.856          39.500          40.750
 111064509.483 8  86543776.29947  21134872.353    21134871.898
  21134873.453          49.750          42.5004
 106428317.717 8  82931160.145 9  20252632.565    20252632.659    20252636.090
  20252636.028          51.750          55.750
 124436038.138 6  96963148.891 7  23679389.705    23679388.926    23679392.167
  23679392.733          38.000          42.000
 114556341.859 7  89264677.17846  21799345.752    21799345.230
  21799347.449          46.000          36.7504
 116612753.000 8  90867080.93945  22190669.240    22190668.909
  22190669.685          48.250          33.7504
 20  2 19  0 44 30.0000000  0 10G08G20G01G10G31G14G32G24G18G11
 127566799.364 6  99402701.355 6  24275156.660    24275155.989    24275160.658
  24275160.293          39.750          41.250
 117499440.485 7  91558007.75245  22359396.167    22359395.440
  22359397.803          45.000          34.2504
 125035653.651 6  97430382.865 7  23793493.300    23793493.864    23793498.079
  23793497.978          39.750          43.000
 109457788.308 8  85291788.507 8  20829120.342    20829120.277    20829123.406
  20829123.953          53.000          53.000
 124462418.787 6  96983700.866 6  23684410.628    23684410.242    23684412.095
  23684412.271          39.000          41.000
 111020697.928 8  86509637.43247  21126535.598    21126535.158
  21126536.613          50.250          42.5004
 106425677.464 8  82929102.807 9  20252129.931    20252130.220    20252133.742
  20252133.615          52.250          56.000
 124524921.101 6  97032408.319 7  23696302.283    23696302.829    23696306.558
  23696306.300          36.500          42.000
 114492411.785 7  89214861.54446  21787180.132    21787180.060
  21787182.012          45.750          37.2504
 116591468.899 8  90850495.92445  22186618.718    22186618.586
  22186619.571          48.000          33.0004
 20  2 19  0 45  0.0000000  0 10G08G20G01G10G31G14G32G24G18G11
 127633357.434 6  99454564.742 7  24287821.333    24287820.913    24287826.772
  24287826.832          39.500          42.250
 117580658.894 7  91621294.80745  22374851.851    22374851.425
  22374852.692          44.750          33.5004
 124940486.347 6  97356226.536 7  23775383.364    23775383.723    23775387.806
  23775388.320          38.750          43.000
 109490633.393 8  85317382.084 8  20835370.701    20835370.553    20835373.554
  20835374.220          53.250          53.000
 124345623.654 6  96892691.686 6  23662185.412    23662185.307    23662187.525
  23662187.268          39.750          41.750
 110977240.546 8  86475774.54147  21118265.822    21118265.590
  21118266.642          50.250          42.5004
 106423428.233 8  82927350.165 9  20251702.088    20251702.236    20251705.678
  20251705.570          52.500          56.000
 124614167.989 6  97101951.325 6  23713285.778    23713285.906    23713288.962
  23713289.596          37.000          41.000
 114429016.793 7  89165462.84346  21775116.406    21775116.455
  21775118.640          45.500          37.0004
 116570819.507 7  90834405.49545  22182689.020    22182688.447
  22182689.089          47.750          33.0004
 20  2 19  0 45 30.0000000  0 10G08G20G01G10G31G14G32G24G18G11
 127700203.934 6  99506652.911 6  24300542.021    24300542.584    24300546.549
  24300546.129          41.250          41.250
 117662115.630 7  91684767.55845  22390352.238    22390352.058
  22390353.381          45.500          34.2504
 124845608.487 6  97282295.745 7  23757328.809    23757329.430    23757333.332
  23757333.570          40.000          43.000
 109523804.836 8  85343229.952 8  20841682.907    20841682.825    20841686.110
  20841686.640          52.750          53.250
 124228936.719 6  96801766.794 6  23639980.726    23639980.864    23639982.084
  23639981.995          40.250          41.000
 110934135.836 8  86442186.45747  21110063.214    21110062.788
  21110064.184          50.000          42.5004
 106421567.595 8  82925900.315 9  20251348.024    20251348.234    20251351.647
  20251351.520          52.750          55.750
 124703774.006 6  97171774.206 6  23730337.541    23730337.600    23730340.005
  23730341.266          37.500          41.000
 114366157.480 7  89116481.56146  21763154.627    21763154.451
  21763156.375          46.000          36.7504
 116550803.785 7  90818808.84545  22178880.463    22178880.163
  22178880.770          47.750          33.2504
 20  2 19  0 46  0.0000000  0 10G08G20G01G10G31G14G32G24G18G11
 127767338.031 6  99558965.177 6  24313316.690    24313316.653    24313322.322
  24313322.021          40.000          41.750
 117743811.623 7  91748426.77145  22405899.470    22405898.665
  22405900.121          46.750          34.0004
 124751024.033 6  97208593.575 7  23739330.131    23739330.576    23739334.141
  23739334.871          40.000          43.000
 109557304.030 8  85369333.211 8  20848057.722    20848057.596    20848060.718
  20848061.299          53.000          53.250
 124112362.163 6  96710929.478 6  23617796.628    23617797.391    23617798.447
  23617798.412          39.750          41.250
 110891385.111 8  86408874.21547  21101928.104    21101927.644
  21101928.988          50.000          42.5004
 106420095.983 8  82924753.606 9  20251068.073    20251068.150    20251071.495
  20251071.462          52.250          55.750
 124793737.303 6  97241875.482 6  23747455.634    23747456.543    23747459.921
  23747460.656          37.250          41.000
 114303837.651 7  89067920.66146  21751295.745    21751295.766
  21751297.292          45.750          37.0004
 116531423.241 8  90803707.11345  22175192.580    22175192.176
  22175193.040          48.250          33.0004
 20  2 19  0 46 30.0000000  0 10G08G20G01G10G31G14G32G24G18G11
 127834756.065 6  99611498.702 6  24326146.486    24326146.406    24326150.721
  24326151.234          40.250          41.500
 117825746.002 7  91812271.74645  22421491.024    22421489.612
  22421490.868          46.500          33.5004
 124656735.469 6  97135121.973 7  23721387.646    23721388.023    23721392.142
  23721392.527          40.250          43.250
 109591130.978 8  85395691.861 8  20854494.519    20854494.560    20854497.966
  20854498.366          53.250          53.500
 123995902.506 6  96620181.703 6  23595634.864    23595635.486    23595638.349
  23595637.053          38.250          41.750
 110848988.219 8  86375837.67647  21093860.022    21093859.903
  21093861.305          50.250          42.7504
 106419012.361 8  82923909.228 9  20250861.766    20250861.907    20250865.308
  20250865.263          51.500          55.750
 124884055.277 6  97312253.099 6  23764643.291    23764643.968    23764647.845
  23764647.739          37.000          41.000
 114242059.376 7  89019781.75446  21739539.674    21739539.818
  21739541.409          45.750          37.5004
 116512678.106 8  90789100.50445  22171625.254    22171624.822
  22171626.046          48.250          32.7504
 20  2 19  0 47  0.0000000  0 10G08G20G01G10G31G14G32G24G18G11
 127902454.989 6  99664251.099 6  24339028.393    24339028.940    24339033.691
  24339033.175          39.750          40.500
 117907917.445 7  91876301.43545  22437127.591    22437126.919
  22437127.735          46.500          33.2504
 124562745.394 6  97061882.964 7  23703501.811    23703502.076    23703506.070
  23703506.574          40.000          43.250
 109625285.735 8  85422305.951 8  20860994.240    20860994.040    20860997.362
  20860997.792          53.250          53.250
 123879560.702 6  96529525.772 6  23573495.968    23573496.498    23573497.935
  23573498.061          38.750          41.500
 110806944.578 8  86343076.40847  21085859.563    21085859.260
  21085860.451          50.000          42.5004
 106418315.766 8  82923366.435 9  20250729.152    20250729.299    20250732.806
  20250732.712          51.500          55.750
 124974724.705 6  97382904.600 6  23781896.651    23781898.171    23781900.731
  23781901.484          37.250          41.000
 114180824.683 7  88972066.40946  21727887.105    21727887.158
  21727888.823          45.500          37.2504
 116494568.794 8  90774989.35845  22168179.348    22168179.003
  22168179.696          48.000          33.0004
 20  2 19  0 47 30.0000000  0 10G08G20G01G10G31G14G32G24G18G11
 127970431.766 6  99717220.016 6  24351964.771    24351964.341    24351968.801
  24351968.756          39.000          39.750
 117990325.525 7  91940515.53745  22452809.278    22452808.458
  22452809.610          46.000          34.2504
 124469056.449 6  96988878.604 7  23685672.903    23685673.429    23685677.405
  23685677.902          39.500          42.750
 109659768.445 8  85449175.589 8  20867555.989    20867555.879    20867559.054
  20867559.601          53.000          53.000
 123763339.848 6  96438964.078 6  23551380.623    23551380.678    23551380.880
  23551381.209          39.500          40.250
 110765254.082 8  86310590.31547  21077926.273    21077925.856
  21077927.005          50.250          42.7504
 106418005.376 8  82923124.572 9  20250670.180    20250670.313    20250673.740
  20250673.641          51.750          55.750
 125065743.346 6  97453828.219 6  23799217.683    23799218.277    23799221.444
  23799221.732          37.750          41.000
 114120135.833 7  88924776.39546  21716338.872    21716338.459
  21716340.296          46.250          37.7504
 116477095.510 8  90761373.81345  22164854.034    22164853.772
  22164854.968          48.250          33.0004
 20  2 19  0 48  0.0000000  0 11G08G22G20G01G10G31G14G32G24G18G11
 128038683.139 6  99770402.842 6  24364951.960    24364952.281    24364957.496
  24364956.508          38.500          39.500
 132845010.362 6                  25279564.745
                        37.500
 118072969.211 7  92004913.20345  22468535.667    22468534.767
  22468536.534          45.500          34.0004
 124375671.227 6  96916110.919 7  23667902.515    23667903.011    23667906.624
  23667907.410          39.500          42.750
 109694579.094 8  85476300.760 8  20874180.192    20874180.101    20874183.325
  20874183.874          53.250          53.250
 123647242.346 6  96348498.487 6  23529287.865    23529287.968    23529288.772
  23529288.876          40.250          40.500
 110723916.912 8  86278379.53647  21070059.937    21070059.496
  21070060.793          50.000          42.5004
 106418080.155 8  82923182.843 9  20250684.453    20250684.598    20250687.988
  20250687.787          51.750          55.750
 125157107.830 6  97525021.322 6  23816604.452    23816604.143    23816607.692
  23816607.441          38.500          40.750
 114059995.125 7  88877913.50446  21704894.126    21704893.633
  21704895.785          45.500          37.7504
 116460258.478 7  90748254.05345  22161649.822    22161650.019
  22161651.076          47.750          33.0004
 20  2 19  0 48 30.0000000  0 11G08G22G20G01G10G31G14G32G24G18G11
 128107206.981 6  99823798.040 6  24377992.136    24377992.313    24377997.513
  24377997.167          40.000          41.250
 132754084.847 6 103444739.95644  25262262.350    25262262.254
  25262261.099          38.750          25.0004
 118155848.471 7  92069494.44245  22484307.458    22484306.447
  22484308.600          46.000          34.5004
 124282592.868 6  96843582.344 7  23650190.457    23650190.988    23650194.567
  23650195.256          39.500          42.750
 109729718.329 8  85503681.984 8  20880866.979    20880866.927    20880870.090
  20880870.658          53.250          53.000
 123531271.915 6  96258131.919 6  23507219.703    23507220.086    23507220.104
  23507220.443          40.750          41.000
 110682933.083 8  86246444.09247  21062260.920    21062260.533
  21062262.057          49.750          42.5004
 106418539.728 8  82923540.965 9  20250772.004    20250772.085    20250775.442
  20250775.251          51.250          55.750
 125248815.253 6  97596481.636 6  23834055.560    23834055.391    23834058.806
  23834059.023          37.250          40.750
 114000405.126 7  88831479.73546  21693554.528    21693554.557
  21693556.341          46.000          37.7504
 116444058.558 7  90735630.73845  22158567.491    22158567.369
  22158568.172          47.750          32.7504
 20  2 19  0 49  0.0000000  0 11G08G22G20G01G10G31G14G32G24G18G11
 128176000.386 6  99877403.240 6  24391083.536    24391083.424    24391086.911
  24391087.115          40.500          39.500
 132663148.290 6 103373880.34843  25244957.133    25244956.066
  25244955.920          38.500          23.2504
 118238962.160 7  92134258.32145  22500123.740    22500122.685
  22500124.634          45.500          33.5004
 124189824.273 6  96771295.131 7  23632537.273    23632537.369    23632540.953
  23632541.885          39.750          43.000
 109765186.439 8  85531319.465 8  20887616.317    20887616.283    20887619.524
  20887620.025          53.250          53.250
 123415431.199 6  96167866.427 6  23485175.472    23485175.439    23485176.927
  23485177.136          39.500          41.750
 110642302.774 8  86214784.10747  21054528.951    21054528.781
  21054530.181          50.000          42.5004
 106419383.442 8  82924198.399 9  20250932.400    20250932.611    20250935.932
  20250935.842          51.250          55.750
 125340864.191 6  97668208.104 6  23851571.477    23851571.922    23851575.061
  23851575.034          37.000          40.750
 113941368.136 7  88785476.89746  21682320.415    21682320.019
  21682321.999          46.250          38.0004
 116428496.259 7  90723504.27745  22155606.013    22155605.618
  22155606.817          47.750          32.5004
 20  2 19  0 49 30.0000000  0 11G08G22G20G01G10G31G14G32G24G18G11
 128245059.975 6  99931215.943 6  24404224.185    24404224.558    24404229.836
  24404229.406          39.750          40.500
 132572201.203 6 103303012.50843  25227650.795    25227650.048
  25227649.617          38.500          21.5004
 118322309.201 7  92199204.06745  22515984.207    22515982.926
  22515984.381          45.250          32.7504
 124097367.512 6  96699250.910 7  23614943.726    23614943.405    23614946.901
  23614948.007          39.750          43.000
 109800982.974 8  85559212.863 8  20894428.315    20894428.185    20894431.622
  20894431.905          53.500          53.250
 123299722.598 6  96077703.907 7  23463157.078    23463156.754    23463158.043
  23463158.244          38.750          42.000
 110602025.460 8  86183399.19547  21046864.841    21046864.434
  21046865.488          50.000          43.0004
 106420609.750 8  82925153.969 9  20251165.804    20251165.967    20251169.207
  20251169.188          51.250          55.750
 125433250.816 6  97740197.651 6  23869151.025    23869152.223    23869156.497
  23869155.669          36.750          41.250
 113882885.932 7  88739906.34946  21671191.378    21671191.495
  21671193.138          45.750          38.5004
 116413571.016 7  90711874.21345  22152765.794    22152765.627
  22152766.266          47.500          32.2504
 20  2 19  0 50  0.0000000  0 11G08G22G20G01G10G31G14G32G24G18G11
 128314383.052 6  99985233.874 6  24417416.741    24417416.213    24417421.136
  24417420.914          39.250          39.000
 132481244.298 6 103232137.00143  25210342.521    25210341.377
  25210339.380          38.750          19.5004
 118405889.572 7  92264331.60745  22531887.954    22531887.216
  22531889.206          44.250          33.0004
 124005225.966 6  96627452.326 7  23597409.428    23597409.381    23597413.338
  23597413.968          39.750          43.250
 109837108.775 8  85587362.823 8  20901302.573    20901302.688    20901305.871
  20901306.450          53.000          53.000
 123184149.739 6  95987647.157 7  23441163.608    23441164.002    23441165.760
  23441165.402          39.000          42.500
 110562101.557 8  86152289.66447  21039267.548    21039267.153
  21039268.608          50.000          42.7504
 106422218.533 8  82926407.569 9  20251471.848    20251472.077    20251475.429
  20251475.346          53.000          56.000
 125525972.730 6  97812448.498 6  23886798.089    23886797.031    23886800.427
  23886799.907          38.000          41.250
 113824961.358 7  88694770.32146  21660168.738    21660168.724
  21660170.704          46.500          38.2504
 116399283.851 8  90700741.35845  22150047.550    22150046.763
  22150048.094          48.000          32.2504
 20  2 19  0 50 30.0000000  0 11G08G22G20G01G10G31G14G32G24G18G11
 128383965.792 6 100039454.219 6  24430658.250    24430657.740    24430663.286
  24430662.613          38.750          39.750
 132390277.922 6 103161254.06443  25193031.841    25193031.003
  25193030.298          38.750          20.7504
 118489701.543 7  92329639.62945  22547837.212    22547836.367
  22547838.479          45.000          33.5004
 123913401.328 6  96555900.668 7  23579936.022    23579935.881    23579940.119
  23579940.405          40.000          43.500
 109873562.980 8  85615768.690 8  20908239.671    20908239.701    20908242.746
  20908243.453          53.000          53.000
 123068714.519 6  95897697.684 7  23419196.949    23419197.570    23419198.953
  23419199.141          39.750          42.500
 110522530.050 8  86121454.72747  21031737.062    21031736.771
  21031738.073          49.500          42.7504
 106424207.903 8  82927957.730 9  20251850.410    20251850.651    20251853.995
  20251853.878          52.250          56.250
 125619026.588 6  97884957.992 6  23904505.373    23904504.423    23904507.540
  23904507.810          37.500          40.500
 113767595.718 7  88650069.81746  21649252.301    21649252.259
  21649254.145          46.500          38.2504
 116385634.127 7  90690105.21645  22147449.423    22147449.317
  22147450.122          47.750          32.2504
 20  2 19  0 51  0.0000000  0 11G08G22G20G01G10G31G14G32G24G18G11
 128453806.317 6 100093875.367 6  24443947.360    24443947.357    24443951.931
  24443951.369          38.000          38.500
 132299303.566 6 103090364.95143  25175719.606    25175719.048
  25175718.081          38.000          22.2504
 118573744.923 7  92395127.96245  22563830.374    22563829.324
  22563831.286          45.000          33.7504
 123821897.286 6  96484598.826 7  23562523.444    23562523.434    23562527.328
  23562527.781          40.500          43.750
 109910346.644 8  85644431.283 8  20915239.342    20915239.393    20915242.709
  20915243.177          53.000          53.250
 122953421.108 6  95807858.649 6  23397258.767    23397258.353    23397259.073
  23397259.083          40.750          41.500
 110483311.754 8  86090895.02847  21024274.256    21024273.803
  21024275.401          49.500          43.0004
 106426577.885 8  82929804.474 9  20252301.596    20252301.672    20252305.118
  20252304.856          52.750          56.000
 125712409.396 6  97957723.792 6  23922274.912    23922274.789    23922278.254
  23922277.721          38.000          40.750
 113710791.945 7  88605807.14946  21638443.211    21638443.032
  21638444.857          46.250          38.5004
 116372622.853 7  90679966.57145  22144973.502    22144973.309
  22144974.171          47.750          32.2504
 20  2 19  0 51 30.0000000  0 11G08G22G20G01G10G31G14G32G24G18G11
 128523901.000 6 100148494.613 6  24457286.644    24457286.428    24457291.270
  24457290.749          39.500          39.750
 132208321.765 6 103019470.07743  25158405.948    25158405.526
  25158406.127          37.500          22.7504
 118658019.021 7  92460796.07745  22579867.201    22579866.672
  22579867.503          45.750          33.7504
 123730716.168 6  96413548.617 7  23545172.435    23545172.371    23545176.499
  23545176.660          41.000          43.500
 109947459.589 8  85673350.454 8  20922301.903    20922301.757    20922304.930
  20922305.565          53.250          53.000
 122838271.746 6  95718131.893 6  23375345.898    23375345.746    23375346.451
  23375346.934          39.000          41.750
 110444446.181 8  86060610.17547  21016878.285    21016878.011
  21016879.298          49.500          42.7504
 106429327.285 8  82931946.874 9  20252824.706    20252824.846    20252828.114
  20252828.059          51.750          55.750
 125806119.477 6  98030744.646 6  23940106.828    23940107.276    23940109.893
  23940110.174          37.500          40.250
 113654551.951 7  88561983.77346  21627740.432    21627740.596
  21627742.615          46.250          38.2504
 116360249.835 8  90670325.24945  22142619.038    22142618.878
  22142619.882          48.000          32.2504
 20  2 19  0 52  0.0000000  0 10G08G20G01G10G31G14G32G24G18G11
 128594247.598 6 100203310.120 6  24470673.270    24470672.599    24470677.112
  24470677.154          39.250          39.250
 118742522.736 7  92526643.10645  22595946.919    22595947.035
  22595948.568          44.250          33.5004
 123639860.946 6  96342752.344 7  23527883.074    23527883.211    23527886.613
  23527887.434          41.000          43.750
 109984902.167 8  85702526.476 8  20929426.901    20929426.866    20929429.813
  20929430.655          53.250          53.000
 122723269.822 6  95628520.011 6  23353461.741    23353461.334    23353462.946
  23353462.828          40.500          41.750
 110405933.483 8  86030600.28247  21009549.640    21009549.364
  21009550.535          49.750          43.2504
 106432455.479 8  82934384.425 9  20253419.994    20253420.100    20253423.442
  20253423.349          52.500          56.000
 125900153.264 6  98104017.738 6  23958000.788    23958001.145    23958004.197
  23958004.615          36.500          39.750
 113598878.085 7  88518601.54146  21617146.223    21617146.160
  21617147.978          46.000          38.2504
 116348515.600 7  90661181.70445  22140386.430    22140386.300
  22140386.876          47.750          31.7504
 20  2 19  0 52 30.0000000  0  9G08G20G01G10G31G14G32G18G11
 128664843.932 6 100258320.243 6  24484106.499    24484106.750    24484112.214
  24484112.145          39.000          41.750
 118827256.617 7  92592669.48545  22612071.774    22612071.283
  22612072.372          45.000          33.0004
 123549335.255 6  96272212.856 7  23510656.736    23510656.589    23510660.406
  23510660.841          41.000          43.500
 110022675.449 8  85731960.203 8  20936614.856    20936614.887    20936618.068
  20936618.635          52.750          53.000
 122608418.948 6  95539025.834 6  23331606.500    23331606.247    23331607.236
  23331607.181          40.000          41.000
 110367774.539 8  86000866.04447  21002288.262    21002288.017
  21002289.176          49.500          43.0004
 106435962.472 8  82937117.155 9  20254087.307    20254087.444    20254090.753
  20254090.669          53.500          56.000
 113543773.450 7  88475662.86846  21606660.511    21606659.968
  21606662.481          46.750          38.5004
 116337420.856 7  90652536.44945  22138274.649    22138274.615
  22138275.561          47.500          31.7504
 20  2 19  0 53  0.0000000  0  9G08G20G01G10G31G14G32G18G11
 128735685.488 6 100313521.409 6  24497587.284    24497586.889    24497591.996
  24497591.966          38.500          41.000
 118912218.530 7  92658873.59445  22628240.068    22628238.805
  22628240.222          45.500          32.7504
 123459140.588 6  96201931.303 7  23493492.905    23493493.202    23493496.907
  23493497.422          41.250          43.750
 110060778.395 8  85761650.803 8  20943865.802    20943865.592    20943868.595
  20943869.362          53.500          53.000
 122493721.140 6  95449650.921 6  23309780.369    23309779.851    23309780.790
  23309781.065          40.000          41.000
 110329967.922 8  85971406.34547  20995093.827    20995093.460
  20995094.654          49.500          43.0004
 106439846.221 8  82940143.456 9  20254826.208    20254826.520    20254829.867
  20254829.721          53.250          56.000
 113489238.957 7  88433168.46646  21596282.746    21596283.129
  21596284.812          46.750          39.0004
 116326964.622 7  90644388.73445  22136285.488    22136285.131
  22136285.728          47.750          31.7504
 20  2 19  0 53 30.0000000  0 11G08G20G22G01G10G31G14G32G24G18G11
 128806769.954 6 100368911.895 6  24511114.835    24511114.790    24511119.339
  24511119.081          39.250          40.750
 118997408.226 7  92725255.15245  22644450.621    22644449.672
  22644452.016          44.000          32.7504
 131844335.383 6 102735842.50743  25089143.033    25089141.926
  25089141.808          38.500          20.0004
 123369280.012 6  96131910.064 7  23476393.055    23476393.699    23476397.147
  23476397.662          41.500          43.750
 110099211.353 8  85791598.555 8  20951179.129    20951179.100    20951182.391
  20951182.909          53.000          53.000
 122379179.615 6  95360397.807 7  23287983.720    23287983.692    23287984.693
  23287984.774          40.250          42.250
 110292513.566 8  85942221.14547  20987966.626    20987966.338
  20987967.449          49.000          43.0004
 106444106.141 8  82943462.882 9  20255637.019    20255637.158    20255640.550
  20255640.362          52.750          56.000
 126184159.332 6  98325319.227 6  24012047.544    24012047.877    24012051.758
  24012051.297          36.250          37.000
 113435276.923 7  88391120.13446  21586014.318    21586014.253
  21586015.987          46.250          38.7504
 116317147.508 7  90636739.05245  22134416.842    22134416.798
  22134417.314          47.000          31.5004
 20  2 19  0 54  0.0000000  0 11G08G20G22G01G10G31G14G32G24G18G11
 128878093.219 6 100424488.453 6  24524687.044    24524686.350    24524691.766
  24524690.962          37.750          39.750
 119082823.915 7  92791812.82845  22660705.459    22660704.330
  22660706.283          45.250          32.5004
 131753328.808 6 102664928.27543  25071824.169    25071824.419
  25071823.562          37.750          20.5004
 123279755.402 6  96062150.633 7  23459357.154    23459357.491    23459360.898
  23459361.835          41.000          43.750
 110137973.751 8  85821803.022 8  20958555.537    20958555.386    20958558.594
  20958559.149          52.750          52.500
 122264796.355 6  95271268.017 7  23266217.011    23266216.957    23266219.008
  23266218.532          39.500          43.250
 110255410.667 8  85913309.79647  20980906.023    20980905.779
  20980906.808          49.250          43.0004
 106448740.519 8  82947074.090 9  20256518.876    20256519.063    20256522.408
  20256522.255          53.250          55.750
 126279460.948 6  98399580.204 6  24030182.944    24030183.209    24030186.639
  24030186.865          37.000          41.250
 113381888.772 7  88349518.97346  21575854.780    21575854.736
  21575856.754          46.500          39.0004
 116307968.556 7  90629586.59945  22132670.485    22132669.964
  22132670.787          47.000          31.5004
 20  2 19  0 54 30.0000000  0 10G08G20G22G01G10G31G14G32G18G11
 128949653.764 6 100480249.931 6  24538304.654    24538303.954    24538309.834
  24538308.918          39.000          40.000
 119168465.887 7  92858546.84545  22677002.146    22677001.326
  22677002.254          44.250          32.7504
 131662320.226 6 102594012.46643  25054506.907    25054505.843
  25054504.408          37.500          21.2504
 123190570.653 6  95992656.046 7  23442385.471    23442385.868    23442390.220
  23442390.443          40.500          43.750
 110177066.862 8  85852265.190 8  20965994.549    20965994.510    20965997.437
  20965998.286          52.500          52.500
 122150575.466 6  95182264.739 7  23244481.380    23244481.304    23244482.309
  23244482.640          40.250          42.500
 110218660.518 8  85884673.32247  20973912.728    20973912.446
  20973913.632          48.750          43.2504
 106453749.637 8  82950977.303 9  20257471.891    20257472.176    20257475.556
  20257475.438          52.750          55.750
 113329077.730 7  88308367.51846  21565804.947    21565804.916
  21565807.027          46.250          39.2504
 116299428.802 7  90622932.24945  22131045.340    22131044.909
  22131045.850          46.750          31.2504
 20  2 19  0 55  0.0000000  0 10G08G20G22G01G10G31G14G32G18G11
 129021447.157 6 100536192.802 6  24551967.277    24551967.102    24551971.723
  24551970.913          39.500          40.000
 119254332.349 7  92925455.73345  22693342.007    22693340.821
  22693342.683          43.750          32.5004
 131571309.244 6 102523094.82543  25037188.501    25037186.593
  25037187.905          37.750          23.0004
 123101727.304 6  95923427.476 7  23425479.375    23425479.664    23425483.546
  23425484.099          41.250          44.000
 110216489.544 8  85882984.157 8  20973496.445    20973496.348    20973499.527
  20973500.162          51.750          52.750
 122036518.903 6  95093389.506 7  23222777.115    23222777.175    23222778.397
  23222778.173          40.000          42.250
 110182261.574 8  85856310.52047  20966986.116    20966985.938
  20966987.205          48.750          43.2504
 106459131.402 8  82955170.889 9  20258496.292    20258496.325    20258499.636
  20258499.497          52.500          56.000
 113276844.530 7  88267666.33046  21555865.397    21555865.063
  21555867.365          46.250          39.0004
 116291527.027 7  90616775.01745  22129541.948    22129541.661
  22129541.780          47.000          31.7504
 20  2 19  0 55 30.0000000  0 11G08G20G22G01G10G31G14G32G24G18G11
 129093472.131 6 100592316.168 6  24565672.456    24565672.272    24565677.050
  24565676.904          38.250          39.250
 119340424.110 7  92992540.20245  22709725.077    22709724.107
  22709725.425          43.750          32.0004
 131480298.736 6 102452177.56343  25019869.355    25019868.248
  25019868.824          38.250          23.0004
 123013229.684 7  95854468.298 7  23408638.953    23408639.200    23408642.860
  23408643.341          42.000          43.750
 110256243.653 8  85913961.380 8  20981061.439    20981061.329    20981064.866
  20981065.232          52.250          53.000
 121922631.299 6  95004645.931 7  23201105.389    23201105.590    23201105.648
  23201106.300          41.750          42.500
 110146215.303 8  85828222.52247  20960126.864    20960126.613
  20960127.881          48.750          43.0004
 106464886.625 8  82959655.488 9  20259591.247    20259591.397    20259594.784
  20259594.684          52.750          56.000
 126567216.833 6  98623805.770 6  24084941.409    24084941.362    24084944.627
  24084945.124          37.250          37.250
 113225193.091 7  88227418.45546  21546036.383    21546036.399
  21546038.219          46.750          39.0004
 116284264.960 7  90611116.26645  22128159.441    22128159.387
  22128160.074          46.500          31.0004
 20  2 19  0 56  0.0000000  0 11G08G20G22G01G10G31G14G32G24G18G11
 129165724.905 6 100648617.031 6  24579421.005    24579420.863    24579426.042
  24579425.919          36.750          39.500
 119426739.161 7  93059798.69445  22726150.848    22726149.285
  22726151.036          44.500          31.5004
 131389288.077 6 102381260.15743  25002550.559    25002549.310
  25002550.024          38.000          22.7504
 122925079.616 7  95785779.922 7  23391865.104    23391865.137    23391867.985
  23391869.175          42.250          43.750
 110296328.271 8  85945196.135 8  20988689.257    20988689.158    20988692.584
  20988693.080          52.250          53.000
 121808914.654 6  94916035.552 7  23179465.969    23179466.022    23179466.757
  23179466.909          41.500          43.000
 110110520.500 8  85800408.40047  20953334.261    20953334.112
  20953335.283          48.500          43.0004
 106471013.350 8  82964429.559 9  20260757.060    20260757.297    20260760.704
  20260760.511          53.000          56.000
 126663742.276 6  98699020.411 6  24103309.732    24103309.422    24103312.758
  24103312.863          36.750          40.500
 113174124.211 7  88187624.52146  21536318.308    21536318.067
  21536319.852          46.500          39.0004
 116277641.698 7  90605955.28245  22126899.458    22126898.774
  22126899.321          47.000          31.0004
 20  2 19  0 56 30.0000000  0 10G08G20G22G01G10G31G14G32G18G11
 129238202.245 6 100705092.847 6  24593213.074    24593213.156    24593218.826
  24593218.097          36.250          40.500
 119513277.061 7  93127230.80245  22742617.919    22742616.899
  22742617.702          43.750          31.7504
 131298278.074 6 102310343.26743  24985231.444    24985231.501
  24985229.938          37.500          20.0004
 122837279.927 7  95717364.597 7  23375156.795    23375157.272    23375160.590
  23375161.385          42.000          43.750
 110336743.746 8  85976688.712 8  20996380.104    20996380.068    20996383.310
  20996383.948          52.500          52.750
 121695371.938 7  94827560.736 7  23157859.770    23157859.336    23157860.623
  23157860.320          42.500          43.000
 110075177.188 8  85772868.16247  20946608.784    20946608.454
  20946609.626          49.000          43.2504
 106477510.905 8  82969492.597 9  20261993.662    20261993.790    20261997.177
  20261996.978          53.250          56.000
 113123640.324 7  88148286.43046  21526711.582    21526711.567
  21526713.445          47.000          39.5004
 116271657.326 7  90601292.13545  22125760.362    22125759.972
  22125761.186          46.500          30.7504
 20  2 19  0 57  0.0000000  0  9G20G22G01G10G31G14G32G18G11
 119600037.126 7  93194836.02145  22759127.250    22759126.002
  22759127.883          42.750          31.2504
 131207270.346 6 102239428.13943  24967913.553    24967912.645
  24967911.787          37.250          20.0004
 122749833.511 6  95649224.536 7  23358515.823    23358516.516    23358520.369
  23358520.668          41.750          44.000
 110377490.282 8  86008439.247 8  21004134.017    21004133.833    21004137.180
  21004137.763          52.000          53.000
 121582006.459 6  94739224.004 7  23136286.424    23136286.438    23136287.112
  23136287.213          41.250          42.000
 110040185.446 8  85745601.88247  20939950.200    20939949.668
  20939951.000          48.750          43.5004
 106484378.489 8  82974843.961 9  20263300.578    20263300.655    20263303.958
  20263303.861          53.500          55.750
 113073743.354 7  88109405.68046  21517216.689    21517216.443
  21517218.236          47.000          39.2504
 116266311.564 7  90597126.61045  22124743.403    22124742.747
  22124743.606          46.750          30.2504
 20  2 19  0 57 30.0000000  0  9G20G22G01G10G31G14G32G18G11
 119687017.832 7  93262613.16745  22775679.551    22775678.518
  22775679.857          43.500          32.2504
 131116264.742 6 102168514.71943  24950594.930    24950594.915
  24950595.215          36.500          21.2504
 122662742.134 7  95581361.138 7  23341943.164    23341943.517    23341946.891
  23341947.850          42.000          43.750
 110418567.063 8  86040447.121 8  21011950.648    21011950.519    21011954.028
  21011954.379          52.000          53.000
 121468819.980 6  94651026.767 7  23114747.173    23114747.438    23114748.348
  23114748.585          39.250          42.250
 110005543.972 8  85718608.53347  20933357.974    20933357.915
  20933358.772          48.500          43.2504
 106491614.288 8  82980482.247 9  20264677.551    20264677.606    20264680.971
  20264680.784          53.500          56.000
 113024434.366 7  88070983.08846  21507833.322    21507833.406
  21507835.182          47.250          39.2504
 116261603.633 7  90593458.09045  22123847.168    22123846.936
  22123847.784          46.000          30.2504
 20  2 19  0 58  0.0000000  0 10G20G08G22G01G10G31G14G32G18G11
 119774219.882 7  93330562.81145  22792273.422    22792272.202
  22792273.444          43.250          32.0004
 129456961.009 6 100875556.486 5  24634841.716    24634841.285    24634846.378
  24634845.825          38.000          35.000
 131025263.378 6 102097604.60043  24933279.340    24933277.583
  24933278.375          38.250          23.2504
 122576010.528 7  95513778.070 7  23325439.256    23325439.009    23325442.883
  23325443.138          42.000          43.500
 110459976.189 8  86072713.968 8  21019830.400    21019830.417    21019833.807
  21019834.312          51.500          53.000
 121355817.579 6  94562972.974 7  23093244.225    23093244.087    23093245.168
  23093245.133          41.500          42.250
 109971254.877 8  85691889.76647  20926833.136    20926832.814
  20926833.866          48.500          43.2504
 106499219.372 8  82986408.293 9  20266124.617    20266124.749    20266128.045
  20266128.000          53.250          55.750
 112975717.345 7  88033021.77746  21498562.703    21498562.647
  21498564.734          47.000          39.7504
 116257534.887 7  90590287.64345  22123073.268    22123073.029
  22123073.804          46.750          30.7504
 20  2 19  0 58 30.0000000  0 10G20G08G22G01G10G31G14G32G18G11
 119861640.857 7  93398683.05745  22808909.363    22808907.804
  22808909.873          43.500          32.0004
 129530307.987 6 100932709.966 6  24648798.528    24648797.867    24648802.816
  24648802.556          37.000          40.000
 130934266.234 6 102026697.77243  24915962.887    24915962.199
  24915961.646          38.000          23.2504
 122489639.363 7  95446475.868 7  23309003.187    23309003.417    23309006.783
  23309007.536          42.000          44.000
 110501715.749 8  86105238.294 8  21027773.312    21027773.099    21027776.628
  21027777.058          52.000          52.750
 121243000.296 6  94475063.404 7  23071775.417    23071775.960    23071776.941
  23071776.539          41.750          42.250
 109937315.923 8  85665443.83647  20920374.795    20920374.360
  20920375.499          48.500          43.2504
 106507190.788 8  82992619.790 9  20267641.507    20267641.695    20267645.002
  20267644.959          53.500          56.000
 112927592.310 7  87995521.74746  21489404.881    21489404.883
  21489407.037          47.750          39.5004
 116254103.710 7  90587614.00145  22122419.844    22122419.456
  22122420.876          45.750          30.0004
 20  2 19  0 59  0.0000000  0  9G20G08G01G10G31G14G32G18G11
 119949280.399 6  93466973.58945  22825585.917    22825584.741
  22825586.522          41.750          31.0004
 129603864.972 6 100990027.110 6  24662795.746    24662795.742    24662800.525
  24662800.241          36.250          39.500
 122403631.957 6  95379457.116 7  23292636.260    23292636.424    23292640.284
  23292640.682          41.750          44.000
 110543786.479 8  86138020.681 8  21035779.082    21035779.037    21035782.207
  21035782.739          52.000          52.750
 121130371.781 7  94387300.921 7  23050343.434    23050343.224    23050343.886
  23050344.005          42.000          42.250
 109903727.360 8  85639270.93647  20913983.160    20913982.588
  20913983.801          48.000          43.2504
 106515528.275 8  82999116.530 9  20269228.064    20269228.245    20269231.826
  20269231.523          52.750          56.250
 112880061.553 7  87958484.80146  21480359.969    21480360.242
  21480362.002          47.750          39.5004
 116251310.126 7  90585437.18544  22121888.850    22121888.402
  22121888.957          46.250          29.7504
 20  2 19  0 59 30.0000000  0  8G20G01G10G31G14G32G18G11
 120037138.599 7  93535434.49345  22842305.096    22842304.346
  22842305.398          42.500          31.0004
 122317992.118 6  95312724.780 7  23276339.200    23276339.548    23276343.127
  23276343.596          41.500          43.500
 110586189.481 8  86171061.972 8  21043848.253    21043848.042    21043851.301
  21043851.762          52.000          52.500
 121017935.933 7  94299688.584 7  23028947.581    23028947.506    23028948.718
  23028948.565          42.000          42.500
 109870489.852 8  85613371.59347  20907657.884    20907657.781
  20907658.694          48.000          43.2504
 106524231.982 8  83005898.645 9  20270884.237    20270884.510    20270887.810
  20270887.804          53.250          56.250
 112833128.335 8  87921913.45846  21471428.991    21471429.109
  21471431.230          48.000          39.7504
 116249155.094 7  90583757.93444  22121478.354    22121478.045
  22121478.957          45.500          29.5004
 20  2 19  1  0  0.0000000  0 10G20G24G22G01G10G31G14G32G18G11
 120125213.163 7  93604064.02145  22859064.756    22859063.904
  22859065.913          42.000          30.7504
 127446478.968 6  99308946.090 6  24252257.956    24252258.608    24252262.202
  24252262.386          37.500          38.500
 130661316.321 6                  24864021.853
                        37.750
 122232721.051 7  95246279.789 7  23260113.117    23260113.374    23260116.742
  23260117.166          42.750          43.000
 110628923.373 8  86204361.112 8  21051980.220    21051980.171    21051983.400
  21051983.744          52.500          52.750
 120905694.231 7  94212227.528 6  23007588.353    23007588.576    23007589.065
  23007589.167          42.500          41.500
 109837601.853 8  85587744.59247  20901399.428    20901399.416
  20901400.667          48.250          43.2504
 106533299.442 8  83012964.208 9  20272609.638    20272609.938    20272613.362
  20272613.314          53.250          56.000
 112786792.704 7  87885807.77346  21462611.711    21462611.757
  21462613.842          47.750          39.7504
 116247636.577 7  90582574.66944  22121189.610    22121188.967
  22121190.001          44.750          29.7504
 20  2 19  1  0 30.0000000  0 11G20G24G22G01G10G31G14G32G12G18G11
 120213502.197 7  93672860.61945  22875865.546    22875865.336
  22875866.861          42.500          31.0004
 127545593.036 6  99386177.824 6  24271120.252    24271118.710    24271122.375
  24271122.977          36.500          41.000
 130570345.187 6 101743126.82144  24846710.956    24846709.601
  24846709.439          37.750          26.5004
 122147820.225 7  95180123.300 7  23243956.845    23243957.425    23243960.765
  23243961.085          42.000          43.750
 110671987.021 8  86237917.196 8  21060174.803    21060174.766    21060178.096
  21060178.579          52.250          52.750
 120793648.662 7  94124919.294 7  22986267.075    22986267.067    22986268.047
  22986267.697          43.500          42.750
 109805062.135 7  85562388.97047  20895207.730    20895207.119
  20895208.405          47.500          43.2504
 106542728.503 8  83020311.536 9  20274403.932    20274404.236    20274407.620
  20274407.586          53.750          56.000
 130979287.030 6                  24924529.867
                        40.000
 112741055.563 8  87850168.44446  21453908.202    21453908.062
  21453910.221          48.750          39.7504
 116246753.380 7  90581886.47344  22121021.971    22121021.029
  22121021.734          44.250          29.7504
 20  2 19  1  1  0.0000000  0 11G20G24G22G01G10G31G14G32G12G18G11
 120302007.135 7  93741825.50645  22892708.425    22892707.237
  22892708.062          43.000          30.5004
 127644981.584 6  99463623.418 6  24290032.765    24290032.012    24290035.883
  24290036.118          36.500          40.500
 130479383.614 6 101672247.70244  24829401.201    24829399.579
  24829399.311          36.500          24.2504
 122063294.771 7  95114259.315 7  23227871.879    23227872.393    23227875.755
  23227876.530          42.000          43.500
 110715382.883 8  86271732.144 8  21068432.937    21068432.733    21068436.082
  21068436.555          52.000          52.750
 120681804.435 7  94037767.943 7  22964983.759    22964983.488    22964984.834
  22964984.380          43.000          42.750
 109772872.753 8  85537306.35247  20889082.021    20889081.801
  20889082.884          48.000          43.2504
 106552520.686 8  83027941.812 9  20276267.513    20276267.672    20276271.096
  20276270.992          53.500          56.250
 130924004.650 6 102018702.638 6  24914009.794    24914008.854    24914011.963
  24914011.193          41.250          37.000
 112695920.949 8  87814998.61146  21445319.312    21445319.371
  21445321.040          48.250          39.5004
 116246507.679 7  90581695.01344  22120974.840    22120974.550
  22120974.774          45.000          29.7504
 20  2 19  1  1 30.0000000  0  9G20G01G10G31G14G32G12G18G11
 120390727.738 7  93810958.42345  22909590.270    22909589.863
  22909591.610          42.000          30.2504
 121979147.728 7  95048690.211 7  23211859.265    23211859.800    23211863.717
  23211863.933          42.250          43.250
 110759111.424 8  86305806.326 8  21076754.133    21076754.081    21076757.263
  21076757.824          52.500          52.500
 120570164.863 7  93950776.094 7  22943738.950    22943739.168    22943740.275
  22943740.237          42.000          43.250
 109741033.784 8  85512496.76547  20883023.633    20883023.003
  20883024.202          48.250          43.5004
 106562675.420 8  83035854.598 9  20278199.817    20278200.063    20278203.395
  20278203.338          53.500          56.250
 130869111.776 7 101975928.952 6  24903563.574    24903564.036    24903565.388
  24903564.885          42.000          36.250
 112651391.104 8  87780300.03746  21436845.616    21436845.466
  21436847.372          48.750          39.5004
 116246899.128 7  90582000.04244  22121049.031    22121048.720
  22121050.070          44.500          29.5004
 20  2 19  1  2  0.0000000  0  9G20G01G10G31G14G32G12G18G11
 120479662.545 6  93880258.24044  22926514.588    22926513.424
  22926515.534          41.500          29.7504
 121895381.245 7  94983417.624 7  23195919.287    23195919.537    23195922.712
  23195923.669          42.250          43.500
 110803172.094 8  86340139.310 8  21085138.605    21085138.476    21085141.768
  21085142.306          52.500          52.500
 120458732.412 7  93863945.630 7  22922533.846    22922534.256    22922535.430
  22922535.265          42.250          43.000
 109709544.414 7  85487959.60547  20877031.005    20877030.709
  20877031.939          47.750          43.5004
 106573191.151 9  83044048.680 9  20280200.848    20280201.133    20280204.470
  20280204.364          54.000          56.000
 130814611.211 7 101933461.005 5  24893192.814    24893192.992    24893194.070
  24893194.521          42.500          35.500
 112607467.379 8  87746073.75846  21428487.025    21428487.039
  21428488.911          49.250          39.2504
 116247926.734 7  90582800.78844  22121244.806    22121244.764
  22121245.603          45.000          29.7504
 20  2 19  1  2 30.0000000  0 10G20G22G01G10G31G14G32G12G18G11
 120568808.149 6  93949722.33844  22943477.871    22943478.086
  22943478.698          41.250          29.2504
 130206562.567 6 101459658.19043  24777484.991    24777484.174
  24777483.858          38.750          23.7504
 121811995.670 7  94918441.861 7  23180052.224    23180051.837    23180055.001
  23180056.018          42.500          43.750
 110847562.718 8  86374729.396 8  21093585.983    21093585.829    21093589.146
  21093589.617          52.000          52.500
 120347508.005 7  93777277.275 7  22901369.515    22901369.105    22901369.869
  22901370.072          43.750          43.500
 109678402.106 7  85463692.88647  20871105.021    20871104.662
  20871105.837          47.500          43.5004
 106584064.697 8  83052521.575 9  20282270.234    20282270.318    20282273.726
  20282273.535          53.750          56.250
 130760503.947 6 101891299.521 5  24882896.732    24882897.079    24882898.361
  24882897.559          40.500          34.750
 112564149.121 8  87712319.27046  21420243.955    21420244.112
  21420245.752          48.500          39.7504
 116249588.070 7  90584095.31344  22121561.222    22121560.698
  22121561.105          47.000          29.7504
 20  2 19  1  3  0.0000000  0 10G20G22G01G10G31G14G32G12G18G11
 120658166.468 7  94019352.18145  22960482.177    22960482.163
  22960483.599          42.000          30.2504
 130115647.463 6 101388815.25443  24760184.308    24760184.004
  24760182.708          38.250          23.7504
 121728996.334 7  94853767.062 7  23164257.365    23164257.652    23164261.304
  23164261.823          42.750          43.750
 110892285.906 8  86409578.632 8  21102096.595    21102096.296    21102099.876
  21102100.198          52.500          52.500
 120236496.748 7  93690775.014 7  22880244.439    22880244.279    22880245.339
  22880244.926          43.750          43.250
 109647609.133 8  85439698.36747  20865245.092    20865244.642
  20865246.018          48.250          43.2504
 106595297.658 8  83061274.530 9  20284407.673    20284407.913    20284411.322
  20284411.114          53.500          56.000
 130706794.285 6 101849447.863 5  24872676.013    24872675.375    24872677.492
  24872676.279          38.500          35.250
 112521440.554 8  87679039.86846  21412116.893    21412116.941
  21412118.874          49.500          39.7504
 116251884.893 7  90585885.05044  22121997.543    22121997.478
  22121998.531          46.500          29.0004
 20  2 19  1  3 30.0000000  0 10G20G22G01G10G31G14G32G12G18G11
 120747735.683 7  94089146.34945  22977527.707    22977526.563
  22977527.718          42.500          30.5004
 130024746.198 6 101317983.13444  24742886.758    24742886.125
  24742885.134          38.750          25.0004
 121646384.754 7  94789394.404 7  23148536.613    23148536.976    23148540.560
  23148541.081          42.250          43.500
 110937340.597 8  86444686.173 8  21110669.922    21110669.921    21110673.490
  21110673.815          52.500          52.750
 120125700.847 7  93604440.537 7  22859160.592    22859160.814    22859161.802
  22859161.648          43.250          43.250
 109617164.196 7  85415975.04747  20859451.542    20859451.370
  20859452.513          47.500          43.2504
 106606887.976 8  83070305.951 9  20286613.261    20286613.439    20286616.766
  20286616.648          53.750          56.000
 130653484.279 6 101807907.599 5  24862530.791    24862531.357    24862533.137
  24862532.844          39.000          34.500
 112479342.471 8  87646236.16046  21404105.949    21404105.700
  21404107.543          49.500          39.7504
 116254815.996 7  90588169.02144  22122555.764    22122555.797
  22122556.178          47.000          29.0004
 20  2 19  1  4  0.0000000  0 10G20G22G01G10G31G14G32G12G18G11
 120837514.342 7  94159103.75845  22994611.661    22994611.182
  22994612.841          43.250          31.2504
 129933859.267 6 101247162.18244  24725590.667    24725590.538
  24725589.150          38.250          24.5004
 121564163.300 7  94725325.747 7  23132890.767    23132890.978    23132894.424
  23132895.070          42.250          43.250
 110982726.488 8  86480051.792 8  21119306.795    21119306.685    21119309.924
  21119310.443          52.500          52.500
 120015122.901 7  93518275.915 7  22838118.339    22838117.930    22838118.972
  22838119.186          42.750          43.250
 109587066.813 7  85392522.55247  20853724.359    20853724.147
  20853725.301          47.500          43.2504
 106618834.399 8  83079614.856 9  20288886.629    20288886.768    20288890.172
  20288890.001          53.500          56.000
 130600576.632 6 101766680.834 5  24852463.170    24852463.115    24852463.869
  24852463.302          40.250          34.000
 112437856.302 8  87613909.27246  21396211.086    21396211.349
  21396213.052          49.000          39.7504
 116258380.191 7  90590946.32244  22123233.514    22123233.566
  22123234.327          46.500          29.0004
 20  2 19  1  4 30.0000000  0 10G20G22G01G10G31G14G32G12G18G11
 120927502.557 7  94229224.43945  23011736.000    23011734.895
  23011736.695          42.250          30.2504
 129842988.523 6 101176353.83943  24708298.960    24708297.601
  24708296.795          38.000          23.2504
 121482335.597 7  94661563.900 7  23117319.233    23117319.782    23117322.985
  23117323.404          42.750          43.250
 111028444.589 8  86515676.280 8  21128006.793    21128006.536    21128010.145
  21128010.295          52.750          52.500
 119904766.821 7  93432284.182 7  22817117.510    22817117.989    22817119.116
  22817119.107          42.500          43.000
 109557317.415 7  85369341.21347  20848063.220    20848062.788
  20848063.964          47.500          43.5004
 106631136.905 8  83089201.236 9  20291227.507    20291227.824    20291231.005
  20291231.052          53.750          56.000
 130548074.723 6 101725770.240 6  24842472.425    24842473.037    24842474.057
  24842473.702          41.250          36.250
 112396984.584 8  87582061.18346  21388433.564    21388433.392
  21388435.256          49.000          39.5004
 116262577.985 7  90594217.32644  22124033.094    22124032.751
  22124033.412          47.250          29.0004
 20  2 19  1  5  0.0000000  0 10G20G22G01G10G31G14G32G12G18G11
 121017700.213 6  94299508.30244  23028900.038    23028899.223
  23028901.109          41.750          29.7504
 129752135.556 6 101105559.33843  24691010.111    24691009.508
  24691008.162          38.750          23.5004
 121400904.963 7  94598111.459 7  23101823.165    23101823.391    23101827.179
  23101827.802          42.500          43.250
 111074495.597 8  86551560.185 8  21136769.972    21136769.745    21136773.135
  21136773.486          53.000          52.500
 119794636.174 7  93346468.088 7  22796161.108    22796160.946    22796161.667
  22796161.927          43.750          43.000
 109527916.440 7  85346431.36447  20842468.353    20842468.233
  20842469.316          47.750          43.2504
 106643795.196 8  83099064.839 9  20293636.456    20293636.665    20293639.946
  20293639.822          53.250          56.000
 130495981.990 6 101685178.482 6  24832559.640    24832559.787    24832560.878
  24832560.664          40.500          37.750
 112356729.774 8  87550693.79546  21380773.375    21380773.272
  21380775.375          49.500          39.5004
 116267409.665 7  90597982.27444  22124952.369    22124952.401
  22124952.501          46.750          29.2504
 20  2 19  1  5 30.0000000  0 10G20G22G01G10G31G14G32G12G18G11
 121108105.043 6  94369953.55444  23046101.950    23046102.063
  23046104.895          39.750          29.5004
 129661300.053 6 101034778.44244  24673724.768    24673724.042
  24673723.186          39.500          24.5004
 121319872.542 7  94534969.319 7  23086403.756    23086404.074    23086407.525
  23086408.078          42.500          43.500
 111120877.995 8  86587702.302 8  21145595.988    21145595.897    21145599.581
  21145599.664          52.500          52.250
 119684732.569 7  93260828.922 7  22775246.628    22775246.846    22775247.139
  22775247.823          43.250          42.250
 109498861.979 8  85323791.53047  20836939.391    20836939.241
  20836940.296          48.000          43.5004
 106656806.791 8  83109203.742 9  20296112.412    20296112.643    20296115.993
  20296115.840          53.500          56.000
 130444299.974 6 101644906.823 6  24822724.883    24822724.471    24822725.676
  24822725.988          39.250          36.750
 112317091.701 8  87519806.98746  21373230.543    21373230.488
  21373232.333          49.750          39.5004
 116272873.002 7  90602239.41344  22125992.040    22125991.488
  22125992.401          47.000          29.0004
 20  2 19  1  6  0.0000000  0 10G20G22G01G10G31G14G32G12G18G11
 121198714.618 6  94440558.39244  23063345.478    23063344.420
  23063346.893          41.250          29.7504
 129570481.739 6 100964010.92244  24656442.868    24656441.489
  24656441.749          39.750          24.7504
 121239239.680 7  94472138.511 7  23071060.187    23071059.998    23071063.840
  23071064.055          42.750          44.000
 111167590.525 8  86624101.666 8  21154484.955    21154485.004    21154488.240
  21154488.842          52.250          52.000
 119575057.706 7  93175367.991 7  22754376.492    22754376.603    22754377.220
  22754377.494          43.750          43.250
 109470152.826 7  85301420.77547  20831476.295    20831475.780
  20831477.218          47.500          43.5004
 106670169.439 8  83119616.203 9  20298655.321    20298655.463    20298658.641
  20298658.697          53.000          55.750
 130393029.344 6 101604955.672 5  24812968.554    24812968.318    24812969.909
  24812970.074          39.750          35.750
 112278071.008 8  87489401.25946  21365805.006    21365805.136
  21365806.859          49.500          39.7504
 116278965.736 7  90606987.01244  22127151.116    22127150.791
  22127151.799          47.250          28.7504
 20  2 19  1  6 30.0000000  0 10G20G22G01G10G31G14G32G12G18G11
 121289529.882 7  94511323.50844  23080627.383    23080626.921
  23080627.743          42.500          29.7504
 129479683.453 6 100893259.02844  24639163.966    24639163.010
  24639162.729          38.750          25.0004
 121159010.976 7  94409622.649 7  23055793.162    23055793.104    23055796.792
  23055797.121          43.000          43.750
 111214635.112 8  86660759.773 8  21163437.595    21163437.326    21163440.789
  21163441.207          52.250          52.250
 119465616.340 7  93090089.001 7  22733550.326    22733550.593    22733551.474
  22733551.394          44.000          43.500
 109441790.376 8  85279320.17447  20826079.376    20826078.624
  20826079.937          48.000          43.5004
 106683884.098 8  83130302.953 9  20301265.225    20301265.253    20301268.831
  20301268.508          53.000          55.750
 130342175.045 6 101565328.925 6  24803290.977    24803291.169    24803292.372
  24803291.637          39.500          36.000
 112239671.006 8  87459479.18246  21358497.565    21358497.631
  21358499.575          49.500          40.0004
 116285689.779 7  90612226.51944  22128430.513    22128430.195
  22128431.460          47.000          28.5004
 20  2 19  1  7  0.0000000  0 10G20G22G01G10G31G14G32G12G18G11
 121380551.122 7  94582249.15245  23097948.314    23097947.641
  23097949.286          42.250          30.0004
 129388907.319 6 100822524.43044  24621890.605    24621889.053
  24621889.327          39.500          25.7504
 121079190.110 7  94347424.562 7  23040603.465    23040603.753    23040606.727
  23040607.910          43.000          43.750
 111262012.815 8  86697677.454 8  21172453.264    21172452.955    21172456.698
  21172456.985          53.000          52.750
 119356412.566 7  93004995.158 7  22712769.932    22712769.858    22712770.589
  22712770.726          44.500          43.750
 109413775.593 8  85257490.47547  20820748.178    20820747.823
  20820748.901          48.000          43.5004
 106697950.808 8  83141264.025 9  20303941.781    20303942.023    20303945.443
  20303945.297          53.250          55.750
 130291740.830 6 101526029.558 6  24793693.794    24793694.149    24793695.551
  24793694.325          37.750          37.250
 112201894.361 8  87430042.83146  21351309.551    21351309.032
  21351311.029          50.250          40.0004
 116293045.035 7  90617957.88344  22129830.369    22129829.956
  22129830.535          46.250          28.5004
 20  2 19  1  7 30.0000000  0 10G20G22G01G10G31G14G32G12G18G11
 121471775.665 7  94653333.19444  23115307.556    23115307.137
  23115307.939          42.000          29.5004
 129298152.507 6 100751806.40044  24604619.989    24604619.170
  24604618.679          39.500          25.2504
 120999777.904 7  94285544.926 7  23025491.197    23025491.789    23025495.290
  23025496.012          42.250          44.000
 111309721.840 8  86734853.306 8  21181531.934    21181531.899    21181535.360
  21181535.696          53.000          52.250
 119247447.431 7  92920087.282 7  22692033.943    22692034.299    22692035.684
  22692035.254          43.500          44.000
 109386106.090 8  85235929.83547  20815482.994    20815482.372
  20815483.702          48.000          43.5004
 106712366.827 8  83152497.293 9  20306685.206    20306685.321    20306688.687
  20306688.541          53.000          55.750
 130241727.427 6 101487058.119 6  24784176.015    24784176.341    24784178.624
  24784178.393          38.500          37.000
 112164740.834 8  87401092.03246  21344239.136    21344239.031
  21344240.842          50.000          40.2504
 116301029.194 7  90624179.30344  22131349.749    22131349.632
  22131350.483          46.750          28.7504
 20  2 19  1  8  0.0000000  0 11G20G22G01G10G31G14G32G24G12G18G11
 121563203.189 6  94724575.40244  23132705.136    23132704.909
  23132706.090          41.500          29.7504
 129207420.457 6 100681106.11744  24587353.363    24587353.945
  24587352.679          39.500          24.7504
 120920777.262 7  94223985.991 7  23010458.182    23010458.593    23010462.366
  23010462.736          42.750          44.000
 111357762.449 8  86772287.541 8  21190673.791    21190673.671    21190677.250
  21190677.523          53.250          52.250
 119138724.354 7  92835368.001 7  22671345.667    22671345.140    22671345.772
  22671345.856          44.250          43.750
 109358781.614 8  85214638.03847  20810283.072    20810282.669
  20810283.812          48.250          43.2504
 106727131.430 8  83164002.188 9  20309494.772    20309494.912    20309498.253
  20309498.166          53.750          55.750
 129063625.268 6                  24559992.060
                        36.750
 130192137.874 6 101448416.873 6  24774738.846    24774739.119    24774740.705
  24774741.290          37.250          36.250
 112128212.020 8  87372628.02546  21337288.009    21337287.806
  21337289.707          50.250          40.2504
 116309641.820 7  90630890.44544  22132988.324    22132988.576
  22132989.157          46.750          28.7504
 20  2 19  1  8 30.0000000  0 11G20G22G01G10G31G14G32G24G12G18G11
 121654832.362 6  94795974.72844  23150142.023    23150141.124
  23150143.227          41.250          29.0004
 129116712.102 6 100610424.30944  24570092.798    24570092.225
  24570092.047          39.750          26.2504
 120842190.750 7  94162749.755 7  22995503.960    22995504.155    22995507.614
  22995508.227          43.500          44.000
 111406134.573 8  86809980.101 8  21199878.725    21199878.521    21199881.660
  21199882.366          52.500          52.000
 119030246.182 7  92750839.565 7  22650702.065    22650702.245    22650703.495
  22650703.174          43.500          44.000
 109331802.067 8  85193615.01947  20805149.074    20805148.721
  20805149.798          48.500          43.5004
 106742243.591 8  83175777.899 9  20312370.556    20312370.724    20312373.924
  20312373.913          53.250          56.000
 129166787.915 6 100649447.667 6  24579622.744    24579623.487    24579626.192
  24579625.973          36.500          41.000
 130142974.657 6 101410107.872 6  24765384.470    24765383.996    24765385.324
  24765385.905          37.000          37.500
 112092309.552 8  87344652.08246  21330456.039    21330455.942
  21330457.494          50.500          40.7504
 116318882.083 7  90638090.63744  22134747.343    22134746.761
  22134747.543          47.000          28.5004
 20  2 19  1  9  0.0000000  0 11G20G22G01G10G31G14G32G24G12G18G11
 121746662.510 7  94867530.63544  23167616.742    23167615.941
  23167617.569          42.000          28.0004
 129026028.784 6 100539761.99344  24552836.977    24552836.450
  24552835.730          41.000          27.5004
 120764021.179 7  94101838.394 7  22980628.760    22980629.178    22980632.794
  22980633.107          43.000          44.250
 111454838.369 8  86847931.105 8  21209146.601    21209146.545    21209149.704
  21209150.408          52.750          51.750
 118922016.175 7  92666504.510 7  22630106.550    22630106.764    22630108.021
  22630107.768          43.750          44.000
 109305167.176 8  85172860.57047  20800080.778    20800080.244
  20800081.466          48.250          43.5004
 106757702.527 8  83187823.825 9  20315312.214    20315312.455    20315315.751
  20315315.657          53.750          55.750
 129270180.549 6 100730013.312 6  24599297.768    24599297.821    24599299.881
  24599301.527          36.250          39.500
 130094240.771 6 101372133.420 6  24756110.547    24756110.312    24756113.162
  24756112.200          37.000          38.000
 112057035.093 8  87317165.49146  21323743.516    21323743.236
  21323745.063          49.750          40.2504
 116328749.284 7  90645779.37644  22136624.850    22136624.241
  22136625.404          46.500          28.5004
 20  2 19  1  9 30.0000000  0  9G20G22G01G10G31G14G32G18G11
 121838692.543 6  94939242.32644  23185129.504    23185128.595
  23185129.962          41.500          28.5004
 128935370.888 6 100469119.50544  24535584.721    24535584.256
  24535584.026          40.000          26.5004
 120686270.851 7  94041253.724 7  22965834.025    22965833.849    22965836.994
  22965837.779          44.000          44.250
 111503873.482 8  86886140.271 8  21218477.601    21218477.561    21218480.884
  21218481.600          51.750          52.000
 118814036.956 7  92582364.884 7  22609558.904    22609559.134    22609560.340
  22609560.226          44.500          44.250
 109278876.394 8  85152374.24947  20795077.766    20795077.315
  20795078.427          48.500          43.5004
 106773506.873 8  83200138.900 9  20318319.967    20318319.973    20318323.200
  20318323.142          53.500          56.000
 112022389.740 8  87290169.11046  21317150.662    21317150.499
  21317152.324          50.250          40.2504
 116339242.353 7  90653955.79044  22138621.613    22138621.425
  22138621.643          47.250          28.7504
 20  2 19  1 10  0.0000000  0  9G20G22G01G10G31G14G32G18G11
 121930921.497 7  95011109.02844  23202681.035    23202680.291
  23202680.388          42.750          28.2504
 128844740.089 6 100398498.12544  24518338.084    24518337.019
  24518337.764          39.500          26.2504
 120608942.448 7  93980997.835 7  22951118.548    22951118.715    22951122.228
  22951122.553          43.500          44.000
 111553240.022 8  86924607.696 8  21227871.966    21227871.821    21227875.139
  21227875.672          52.500          52.250
 118706311.451 7  92498422.935 7  22589059.682    22589059.822    22589060.562
  22589060.448          45.000          44.250
 109252929.583 8  85132155.96547  20790139.930    20790139.647
  20790140.855          48.250          43.5004
 106789655.822 9  83212722.499 9  20321392.939    20321393.099    20321396.303
  20321396.128          54.500          56.000
 111988375.020 8  87263664.13946  21310678.114    21310678.068
  21310679.741          50.000          40.5004
 116350360.369 7  90662619.18944  22140737.207    22140737.180
  22140737.563          46.500          28.5004
 20  2 19  1 10 30.0000000  0 10G20G08G22G01G10G31G14G32G18G11
 122023348.197 6  95083129.81844  23220268.469    23220267.159
  23220269.910          41.500          27.2504
 131346678.496 6 102348063.419 6  24994441.896    24994442.485    24994448.172
  24994447.688          37.000          40.750
 128754137.114 6 100327898.40944  24501097.328    24501096.552
  24501095.882          40.000          26.2504
 120532038.360 7  93921072.568 7  22936484.068    22936484.227    22936487.911
  22936488.343          43.250          44.250
 111602937.704 8  86963333.149 8  21237328.993    21237328.859    21237332.213
  21237332.808          52.000          52.000
 118598842.264 7  92414680.701 7  22568608.932    22568608.985    22568610.065
  22568609.735          45.000          44.250
 109227325.866 8  85112205.02047  20785268.079    20785267.549
  20785268.577          48.750          43.5004
 106806148.128 9  83225573.649 9  20324531.243    20324531.431    20324534.544
  20324534.513          54.000          55.500
 111954992.107 8  87237651.48046  21304325.392    21304325.326
  21304326.955          50.000          40.7504
 116362102.434 7  90671768.84044  22142971.360    22142971.647
  22142972.171          46.000          28.2504
 20  2 19  1 11  0.0000000  0 10G20G08G22G01G10G31G14G32G18G11
 122115973.177 6  95155305.10644  23237894.152    23237893.411
  23237894.945          41.500          26.7504
 131424369.633 6 102408601.903 6  25009225.906    25009226.151    25009231.774
  25009231.745          36.500          38.750
 128663564.345 6 100257322.25744  24483862.088    24483861.208
  24483861.258          40.000          27.0004
 120455562.616 7  93861481.082 7  22921931.062    22921931.163    22921935.126
  22921935.475          43.250          44.250
 111652967.971 8  87002317.762 8  21246849.369    21246849.303    21246852.499
  21246853.341          52.000          51.750
 118491634.084 7  92331141.871 7  22548207.533    22548207.563    22548208.951
  22548208.509          44.250          43.750
 109202066.523 8  85092522.42847  20780460.977    20780460.952
  20780462.051          48.500          43.5004
 106822984.271 8  83238692.725 9  20327735.081    20327735.187    20327738.561
  20327738.306          53.500          55.750
 111922243.994 8  87212133.46946  21298093.585    21298093.547
  21298095.110          49.500          40.5004
 116374469.109 7  90681405.22044  22145324.920    22145324.870
  22145325.222          46.500          28.2504
 20  2 19  1 11 30.0000000  0 10G20G08G22G01G10G31G14G32G18G11
 122208793.263 6  95227632.41844  23255557.759    23255556.530
  23255558.855          41.750          27.2504
 131502196.241 6 102469248.504 5  25024036.578    25024035.888    25024040.966
  25024040.769          36.500          32.750
 128573020.521 6 100186768.63744  24466631.716    24466631.771
  24466630.653          39.000          26.5004
 120379515.366 7  93802223.479 7  22907459.729    22907460.029    22907463.881
  22907463.998          43.250          44.750
 111703328.320 8  87041559.581 8  21256432.819    21256432.752    21256436.020
  21256436.570          53.000          51.750
 118384687.548 7  92247806.901 7  22527856.966    22527856.799    22527857.287
  22527857.411          45.000          44.500
 109177148.797 8  85073106.02047  20775719.584    20775719.160
  20775720.318          48.500          43.5004
 106840160.807 8  83252077.040 9  20331003.689    20331003.759    20331007.003
  20331006.935          53.750          55.500
 111890129.238 8  87187108.98446  21291982.354    21291982.381
  21291984.090          49.500          40.7504
 116387456.937 7  90691525.60144  22147796.304    22147796.401
  22147796.442          45.500          28.7504
 20  2 19  1 12  0.0000000  0  9G20G22G01G10G31G14G32G18G11
 122301808.791 6  95300112.03444  23273257.472    23273256.376
  23273257.856          41.500          26.7504
 128482508.548 6 100116239.84744  24449408.244    24449407.904
  24449406.613          39.250          26.7504
 120303900.839 7  93743303.076 7  22893070.863    22893070.878    22893074.531
  22893075.144          43.000          44.750
 111754020.341 8  87081059.847 8  21266079.148    21266079.102    21266082.186
  21266082.950          52.250          51.750
 118278007.239 7  92164679.405 7  22507555.624    22507555.913    22507557.255
  22507557.038          44.250          44.500
 109152573.952 8  85053956.80147  20771042.951    20771042.658
  20771043.753          48.750          43.5004
 106857678.385 8  83265727.108 9  20334337.190    20334337.287    20334340.453
  20334340.389          53.250          55.500
 111858651.089 8  87162580.56246  21285992.249    21285992.067
  21285993.886          49.000          40.5004
 116401066.708 7  90702130.61544  22150386.442    22150386.226
  22150386.514          46.500          28.2504
 20  2 19  1 12 30.0000000  0  9G20G22G01G10G31G14G32G18G11
 122395018.629 6  95372743.06744  23290994.909    23290993.858
  23290995.675          41.250          28.0004
 128392028.986 6 100045736.31844  24432190.057    24432189.717
  24432189.145          39.250          27.5004
 120228721.021 7  93684721.407 7  22878764.925    22878765.003    22878768.261
  22878768.893          43.500          44.750
 111805043.386 8  87120818.058 8  21275788.750    21275788.511    21275791.664
  21275792.365          52.000          51.750
 118171595.182 7  92081760.936 7  22487306.273    22487306.247    22487307.236
  22487307.699          44.500          44.750
 109128340.997 8  85035073.98947  20766431.633    20766431.373
  20766432.326          49.000          43.2504
 106875535.450 8  83279641.701 9  20337735.118    20337735.334    20337738.508
  20337738.433          53.000          55.500
 111827810.019 8  87138548.55446  21280123.390    21280123.185
  21280125.065          48.750          41.0004
 116415296.754 7  90713218.96144  22153093.809    22153094.197
  22153094.919          47.000          29.0004
 20  2 19  1 13  0.0000000  0  9G20G22G01G10G31G14G32G18G11
 122488422.492 7  95445525.26544  23308769.354    23308768.805
  23308770.080          42.750          29.2504
 128301583.309 6  99975259.17844  24414979.134    24414979.049
  24414978.108          40.000          27.7504
 120153979.042 7  93626480.907 7  22864541.657    22864541.961    22864545.502
  22864546.014          43.500          44.750
 111856397.971 8  87160834.611 8  21285560.968    21285560.927    21285564.185
  21285564.818          51.750          52.000
 118065455.027 7  91999054.331 7  22467108.285    22467108.870    22467109.420
  22467109.711          45.000          44.750
 109104450.085 8  85016457.69447  20761885.728    20761884.935
  20761886.153          48.500          43.2504
 106893731.529 8  83293820.465 9  20341197.647    20341197.953    20341201.306
  20341201.047          52.750          55.750
 111797608.259 8  87115014.71246  21274376.263    21274375.898
  21274378.005          49.500          41.0004
 116430146.998 7  90724790.58144  22155920.152    22155919.823
  22155920.736          45.250          28.7504
 20  2 19  1 13 30.0000000  0  9G20G22G01G10G31G14G32G18G11
 122582018.014 7  95518456.82344  23326579.972    23326579.544
  23326581.151          42.750          29.5004
 128211171.159 6  99904808.16844  24397774.644    24397773.878
  24397773.804          40.500          28.2504
 120079676.097 7  93568582.506 7  22850402.269    22850402.383    22850406.088
  22850406.498          43.500          45.000
 111908082.672 8  87201108.388 8  21295396.506    21295396.056    21295399.562
  21295400.005          52.500          51.750
 117959588.669 7  91916561.062 7  22446962.864    22446963.250    22446963.758
  22446963.989          45.500          44.750
 109080899.284 8  84998106.42447  20757403.762    20757403.343
  20757404.541          48.500          43.2504
 106912264.313 9  83308261.590 9  20344724.411    20344724.597    20344727.926
  20344727.787          54.000          55.750
 111768045.397 8  87091978.72146  21268750.420    21268750.065
  21268752.294          49.250          41.0004
 116445614.675 7  90736843.33244  22158863.356    22158863.414
  22158863.887          46.750          28.7504
 20  2 19  1 14  0.0000000  0  9G20G22G01G10G31G14G32G18G11
 122675804.967 7  95591537.53444  23344426.983    23344426.912
  23344427.866          42.250          28.7504
 128120794.939 6  99834385.15544  24380576.767    24380575.551
  24380575.714          40.250          28.0004
 120005815.884 7  93511029.085 7  22836346.952    22836347.186    22836350.639
  22836351.448          43.500          45.000
 111960098.535 8  87241640.215 8  21305294.895    21305294.446    21305297.750
  21305298.313          52.000          51.750
 117853999.964 7  91834284.156 7  22426869.949    22426870.422    22426871.413
  22426871.219          45.250          45.250
 109057689.545 8  84980020.91947  20752987.301    20752986.701
  20752987.884          49.000          43.0004
 106931133.943 8  83322965.199 9  20348315.175    20348315.339    20348318.634
  20348318.486          53.500          55.500
 111739123.891 8  87069442.48046  21263246.690    21263246.903
  21263248.913          49.000          41.0004
 116461699.533 7  90749376.99444  22161924.188    22161924.063
  22161924.962          46.500          28.5004
 20  2 19  1 14 30.0000000  0 10G20G22G01G10G31G14G32G24G18G11
 122769782.461 6  95664766.72144  23362310.145    23362309.773
  23362311.306          41.500          28.2504
 128030455.852 6  99763991.05044  24363385.708    24363384.944
  24363384.207          40.500          27.5004
 119932400.671 7  93453822.442 7  22822376.785    22822376.799    22822380.637
  22822380.861          43.500          45.000
 112012445.277 8  87282429.874 8  21315255.644    21315255.725    21315259.160
  21315259.651          51.500          51.750
 117748691.604 7  91752225.701 7  22406830.439    22406830.754    22406831.535
  22406831.612          45.500          45.000
 109034820.384 8  84962200.80147  20748635.027    20748634.951
  20748636.000          48.750          43.5004
 106950339.178 8  83337930.320 9  20351969.751    20351969.910    20351973.156
  20351973.155          53.250          55.250
 130421850.359 6                  24818453.775
                        37.000
 111710844.892 8  87047406.89246  21257865.489    21257865.429
  21257867.603          49.750          41.0004
 116478400.964 7  90762391.11444  22165102.379    22165102.457
  22165102.814          46.750          28.5004
 20  2 19  1 15  0.0000000  0 10G20G22G01G10G31G14G32G24G18G11
 122863948.562 6  95738142.86644  23380229.854    23380229.036
  23380230.156          40.500          27.5004
 127940153.852 6  99693625.86044  24346201.293    24346201.243
  24346199.973          40.250          27.5004
 119859431.974 7  93396963.721 7  22808491.247    22808491.421    22808494.712
  22808495.341          43.750          44.750
 112065121.706 8  87323476.432 8  21325279.425    21325279.638    21325283.319
  21325283.687          52.000          52.000
 117643665.457 7  91670387.146 7  22386844.856    22386844.860    22386845.716
  22386845.516          45.750          45.000
 109012290.153 8  84944644.77947  20744348.126    20744347.639
  20744348.785          48.750          43.2504
 106969877.922 8  83353155.311 9  20355687.810    20355688.037    20355691.333
  20355691.196          53.500          55.250
 130527781.659 6 101709962.848 6  24838611.263    24838610.663    24838614.296
  24838615.345          36.750          37.750
 111683208.214 8  87025871.81646  21252606.383    21252606.304
  21252608.512          49.000          40.7504
 116495716.593 7  90775883.81944  22168397.253    22168397.077
  22168397.921          46.250          28.0004
 20  2 19  1 15 30.0000000  0 11G20G22G01G10G31G14G32G24G12G18G11
 122958304.020 6  95811666.54344  23398184.439    23398182.973
  23398186.379          40.000          27.2504
 127849892.065 6  99623292.03444  24329025.024    24329024.226
  24329023.816          40.250          27.5004
 119786913.951 7  93340456.173 7  22794691.333    22794691.536    22794695.029
  22794695.588          43.250          45.000
 112118129.442 8  87364781.150 8  21335366.815    21335366.799    21335370.311
  21335370.750          52.000          51.750
 117538926.092 7  91588772.067 7  22366913.594    22366913.274    22366914.714
  22366914.443          45.250          45.000
 108990100.146 7  84927353.87847  20740124.963    20740124.860
  20740126.004          47.750          43.2504
 106989750.903 8  83368640.748 9  20359469.374    20359469.695    20359472.926
  20359472.866          52.750          55.250
 130633907.157 6 101792658.012 6  24858806.405    24858806.270    24858810.374
  24858810.416          37.250          37.500
 129500893.102 6 100909783.110 5  24643198.698    24643198.572    24643200.731
  24643200.863          36.250          32.500
 111656216.655 8  87004839.43246  21247470.205    21247470.287
  21247472.048          49.500          41.2504
 116513646.970 7  90789855.54144  22171809.491    22171809.367
  22171810.197          43.750          27.7504
 20  2 19  1 16  0.0000000  0 11G20G22G01G10G31G14G32G24G12G18G11
 123052847.027 6  95885336.36944  23416175.291    23416174.981
  23416176.912          40.000          27.7504
 127759670.578 6  99552989.56844  24311857.225    24311855.584
  24311855.267          41.250          28.5004
 119714848.478 7  93284301.262 7  22780977.763    22780977.990    22780981.636
  22780981.933          43.500          45.000
 112171467.699 8  87406343.422 8  21345516.682    21345516.619    21345519.936
  21345520.607          51.750          51.500
 117434475.970 7  91507382.360 7  22347036.965    22347037.307    22347038.299
  22347038.217          45.750          45.000
 108968249.513 8  84910327.41247  20735967.159    20735966.919
  20735967.982          48.500          43.2504
 107009956.439 8  83384385.327 9  20363314.516    20363314.747    20363318.042
  20363317.862          53.250          55.500
 130740224.291 6 101875502.483 6  24879036.946    24879037.699    24879041.527
  24879042.072          37.250          37.250
 129458428.363 6 100876693.732 5  24635118.385    24635118.740    24635120.358
  24635119.594          37.750          35.250
 111629870.993 8  86984310.34846  21242457.016    21242456.665
  21242458.651          50.250          41.0004
 116532190.146 7  90804304.78044  22175338.450    22175337.875
  22175338.795          46.750          27.5004
 20  2 19  1 16 30.0000000  0 12G20G25G22G01G10G31G14G32G24G12G18G11
 123147576.446 6  95959151.44844  23434202.156    23434201.501
  23434202.914          41.000          27.2504
 128898839.195 6 100440653.995 5  24528634.293    24528632.286    24528637.615
  24528638.090          39.250          34.500
 127669490.100 6  99482719.08044  24294695.625    24294694.747
  24294694.501          41.000          28.5004
 119643237.718 7  93228500.657 7  22767350.181    22767350.693    22767355.005
  22767354.989          43.000          45.500
 112225136.047 8  87448162.895 8  21355729.696    21355729.406    21355733.036
  21355733.376          52.000          51.500
 117330317.512 7  91426219.930 7  22327216.369    22327216.542    22327217.210
  22327217.506          45.000          45.000
 108946737.169 8  84893564.55247  20731873.458    20731873.226
  20731874.366          48.750          43.2504
 107030493.175 8  83400387.978 9  20367222.634    20367222.744    20367225.995
  20367225.891          53.250          55.500
 130846729.956 6 101958493.886 6  24899305.472    24899305.651    24899309.045
  24899308.220          37.250          37.750
 129416429.583 6 100843967.441 6  24627125.870    24627126.206    24627127.770
  24627128.241          37.250          37.000
 111604171.715 8  86964284.93446  21237566.270    21237566.144
  21237568.465          50.000          41.2504
 116551344.326 7  90819230.09644  22178983.141    22178982.785
  22178983.535          46.500          26.7504
 20  2 19  1 17  0.0000000  0 12G20G25G22G01G10G31G14G32G24G12G18G11
 123242490.567 6  96033110.49444  23452263.646    23452263.152
  23452264.613          40.750          25.7504
 128822386.989 6 100381080.840 6  24514084.844    24514084.517    24514088.561
  24514089.398          40.750          38.750
 127579351.794 6  99412481.42544  24277542.977    24277542.062
  24277541.736          41.500          28.0004
 119572083.692 7  93173055.970 7  22753810.432    22753810.687    22753814.230
  22753814.694          43.250          45.250
 112279133.950 8  87490239.173 8  21366005.168    21366005.083    21366008.501
  21366008.805          52.250          51.500
 117226453.517 7  91345286.953 7  22307452.384    22307452.118    22307453.009
  22307452.780          46.500          45.000
 108925562.190 8  84877064.57547  20727844.110    20727843.694
  20727844.922          49.000          43.2504
 107051359.725 8  83416647.627 9  20371193.413    20371193.510    20371196.966
  20371196.738          53.000          55.500
 130953420.635 6 102041629.449 6  24919608.231    24919607.911    24919611.707
  24919612.196          36.750          38.250
 129374898.848 6 100811605.838 5  24619222.893    24619222.867    24619223.876
  24619224.744          38.000          35.000
 111579119.741 8  86944763.91546  21232799.056    21232798.912
  21232800.953          50.250          40.7504
 116571108.488 7  90834630.76544  22182744.271    22182743.821
  22182744.098          46.750          26.7504
 20  2 19  1 17 30.0000000  0 12G20G25G22G01G10G31G14G32G24G12G18G11
 123337588.109 6  96107212.44744  23470360.587    23470360.393
  23470361.614          41.500          27.5004
 128746177.430 6 100321696.757 6  24499582.383    24499582.504    24499587.486
  24499587.508          40.750          38.500
 127489256.242 6  99342277.09844  24260398.322    24260397.279
  24260397.032          41.500          28.2504
 119501388.428 7  93117968.759 7  22740357.777    22740358.064    22740361.482
  22740362.069          43.750          45.500
 112333460.727 8  87532571.717 8  21376342.933    21376342.939    21376346.173
  21376346.754          51.750          51.000
 117122886.047 7  91264585.023 7  22287743.658    22287743.793    22287744.857
  22287744.588          46.250          45.250
 108904723.808 7  84860826.88047  20723878.285    20723878.178
  20723879.532          47.750          43.5004
 107072554.484 8  83433163.021 9  20375226.626    20375226.789    20375230.063
  20375229.952          53.500          55.250
 131060293.630 6 102124907.056 6  24939945.158    24939944.646    24939948.683
  24939948.515          36.500          38.250
 129333837.621 6 100779610.085 6  24611409.851    24611410.116    24611411.404
  24611410.751          39.500          36.250
 111554715.358 8  86925747.51446  21228155.243    21228154.972
  21228157.017          50.250          40.7504
 116591480.434 7  90850504.94544  22186620.841    22186620.580
  22186621.579          46.500          26.7504
 20  2 19  1 18  0.0000000  0 11G20G25G22G01G10G31G14G32G12G18G11
 123432870.979 6  96181458.78644  23488492.381    23488491.476
  23488493.422          41.000          26.7504
 128670216.724 6 100262506.585 6  24485128.008    24485127.568    24485132.774
  24485132.281          38.250          38.000
 127399207.453 6  99272109.24844  24243262.195    24243261.346
  24243261.513          40.750          28.7504
 119431157.216 7  93063243.137 7  22726993.188    22726993.364    22726996.407
  22726997.299          43.750          45.000
 112388119.124 8  87575162.654 8  21386744.368    21386744.123    21386747.501
  21386747.937          51.750          51.000
 117019621.053 7  91184118.791 7  22268092.881    22268093.130    22268094.315
  22268094.129          46.500          45.500
 108884224.797 8  84844853.62747  20719977.901    20719977.380
  20719978.697          48.750          43.5004
 107094079.372 8  83449935.662 9  20379322.541    20379322.759    20379326.189
  20379326.053          53.500          55.500
 129293250.878 6 100747984.084 5  24603686.083    24603686.759    24603687.454
  24603687.477          39.250          35.000
 111530962.490 8  86907238.78146  21223635.062    21223635.015
  21223637.182          50.000          40.7504
 116612461.774 7  90866854.07844  22190613.619    22190613.080
  22190612.785          46.750          26.0004
 20  2 19  1 18 30.0000000  0 11G20G22G01G10G31G14G32G25G12G18G11
 123528334.669 6  96255846.04544  23506657.987    23506658.139
  23506659.358          41.750          26.2504
 127309203.381 6  99201976.22244  24226135.673    24226134.687
  24226134.130          41.500          28.2504
 119361389.093 7  93008878.374 7  22713716.766    22713716.973    22713720.228
  22713720.758          43.500          45.250
 112443105.580 8  87618009.229 8  21397207.856    21397207.814    21397211.210
  21397211.618          51.500          51.000
 116916658.093 7  91103887.935 7  22248499.907    22248499.735    22248500.743
  22248500.959          46.750          45.750
 108864060.870 8  84829141.47947  20716140.497    20716140.399
  20716141.557          49.000          43.5004
 107115929.888 8  83466962.033 9  20383480.557    20383480.740    20383484.110
  20383484.015          52.750          55.250
 128594505.101 6                  24470721.969
                        36.500
 129253137.924 6 100716727.246 6  24596052.844    24596053.284    24596053.960
  24596054.270          40.000          36.250
 111507858.872 8  86889235.96446  21219238.890    21219238.592
  21219240.662          50.750          41.0004
 116634047.854 7  90883674.39244  22194721.045    22194720.621
  22194721.763          46.000          24.2504
 20  2 19  1 19  0.0000000  0 11G20G22G01G10G31G14G32G25G12G18G11
 123623979.855 6  96330374.71844  23524858.640    23524858.135
  23524859.912          41.000          24.5004
 127219246.551 6  99131879.96244  24209017.638    24209017.013
  24209015.943          40.750          28.0004
 119292088.053 7  92954877.558 7  22700529.232    22700529.358    22700532.530
  22700533.216          43.500          45.250
 112498421.488 8  87661112.518 8  21407734.150    21407734.008    21407737.339
  21407737.835          51.750          51.000
 116814001.231 7  91023895.576 7  22228964.777    22228965.123    22228965.845
  22228965.749          47.000          45.500
 108844233.378 8  84813691.48347  20712367.570    20712367.576
  20712368.456          48.250          43.5004
 107138106.608 8  83484242.595 9  20387700.674    20387700.806    20387704.278
  20387704.146          53.000          55.500
 128519047.158 6 100144712.365 6  24456361.653    24456360.783    24456366.020
  24456365.860          38.250          39.250
 129213502.423 6 100685842.509 5  24588511.071    24588510.725    24588511.147
  24588511.308          39.000          34.250
 111485406.811 8  86871740.85446  21214966.135    21214966.234
  21214968.217          51.000          41.0004
 116656238.726 7                  22198943.610
                        46.250
 20  2 19  1 19 30.0000000  0 11G20G22G01G10G31G14G32G25G12G18G11
 123719805.198 7  96405043.81944  23543094.350    23543093.646
  23543094.442          42.500          25.2504
 127129338.355 6  99061821.63944  24191908.504    24191907.201
  24191906.881          41.500          28.7504
 119223256.393 7  92901242.496 7  22687431.069    22687431.245    22687434.458
  22687435.173          43.500          45.750
 112554066.574 8  87704472.309 8  21418323.004    21418322.921    21418326.329
  21418326.775          51.000          50.750
 116711653.723 7  90944144.261 7  22209489.053    22209488.775    22209489.943
  22209489.898          47.000          45.750
 108824741.548 8  84798503.05447  20708658.676    20708658.263
  20708659.410          48.500          43.2504
 107160608.384 8  83501776.439 9  20391982.688    20391982.856    20391986.227
  20391986.086          53.000          55.500
 128443845.566 6 100086113.694 6  24442051.053    24442050.132    24442055.493
  24442055.477          37.250          40.500
 129174346.798 6 100655331.628 6  24581059.128    24581058.262    24581060.400
  24581060.095          39.250          36.000
 111463607.279 8  86854754.19746  21210818.027    21210817.911
  21210819.549          50.750          40.7504
 116679033.547 7  90918724.25044  22203281.703    22203281.913
  22203281.605          46.750          25.2504
 20  2 19  1 20  0.0000000  0 10G20G22G01G10G31G14G32G12G18G11
 123815810.014 6  96479852.72644  23561362.894    23561362.894
  23561363.490          41.500          25.5004
 127039479.460 6  98991801.74844  24174808.539    24174808.110
  24174807.539          40.500          29.0004
 119154896.473 7  92847975.030 7  22674422.539    22674422.768    22674426.206
  22674426.728          43.500          46.000
 112610040.603 8  87748088.422 8  21428974.376    21428974.412    21428978.011
  21428978.409          50.250          51.250
 116609618.025 7  90864635.933 7  22190072.031    22190072.114    22190073.358
  22190073.274          47.500          45.750
 108805584.811 7  84783575.73047  20705013.002    20705012.673
  20705013.968          47.500          43.0004
 107183434.103 8  83519562.715 9  20396326.340    20396326.527    20396329.687
  20396329.715          53.250          55.250
 129135672.653 6 100625195.990 5  24573699.558    24573699.923    24573700.209
  24573701.237          39.750          35.000
 111442461.085 8  86838276.63446  21206793.811    21206793.922
  21206795.561          49.750          40.7504
 116702430.402 7  90936955.53444  22207734.235    22207733.463
  22207733.960          46.250          25.5004
 20  2 19  1 20 30.0000000  0 11G20G22G01G10G31G14G32G25G12G18G11
 123911993.069 7  96554800.53844  23579667.189    23579666.046
  23579667.300          43.250          27.5004
 126949671.778 6  98921821.74644  24157718.650    24157717.828
  24157717.322          41.500          29.0004
 119087010.981 7  92795077.249 7  22661504.131    22661504.357    22661507.962
  22661508.524          42.750          45.750
 112666343.682 8  87791960.929 8  21439688.541    21439688.570    21439692.193
  21439692.541          50.500          51.500
 116507897.447 7  90785373.146 7  22170715.451    22170715.371    22170716.319
  22170716.368          47.000          45.750
 108786762.812 8  84768909.24147  20701431.252    20701431.089
  20701432.209          49.000          43.2504
 107206583.023 8  83537600.828 9  20400731.482    20400731.616    20400734.993
  20400734.848          53.250          55.250
 128294222.522 6                  24413578.903
                        36.750
 129097482.718 6 100595437.629 6  24566432.444    24566432.441    24566433.580
  24566433.136          38.750          36.000
 111421969.281 8  86822308.99046  21202894.444    21202894.339
  21202896.086          50.750          41.0004
 116726428.136 7  90955655.00244  22212300.931    22212301.753
  22212301.581          46.750          26.2504
 20  2 19  1 21  0.0000000  0 11G20G22G01G10G31G14G32G25G12G18G11
 124008352.985 6  96629886.17144  23598002.658    23598001.508
  23598004.373          41.000          26.0004
 126859915.499 6  98851881.78844  24140638.859    24140638.466
  24140637.404          41.500          29.0004
 119019601.447 7  92742550.338 7  22648676.921    22648677.151    22648680.851
  22648681.051          43.500          46.000
 112722974.794 8  87836089.049 8  21450464.950    21450465.273    21450468.248
  21450468.970          50.500          51.000
 116406494.220 7  90706357.639 7  22151419.163    22151419.024    22151420.196
  22151419.709          47.250          45.500
 108768274.793 7  84754502.99647  20697913.008    20697912.929
  20697914.076          47.500          43.2504
 107230053.302 8  83555889.356 9  20405197.752    20405197.778    20405201.210
  20405201.091          53.250          55.250
 128219810.316 6  99911542.191 7  24399419.071    24399418.349    24399423.908
  24399423.413          36.500          43.500
 129059778.495 6 100566057.753 5  24559257.587    24559256.937    24559258.400
  24559258.919          39.000          34.250
 111402131.799 8  86806851.21146  21199119.496    21199119.387
  21199121.474          49.750          40.7504
 116751024.496 7  90974821.06144  22216981.282    22216980.999
  22216981.551          46.250          26.2504
 20  2 19  1 21 30.0000000  0 11G20G22G01G10G31G14G32G25G12G18G11
 124104888.811 6  96705108.81444  23616373.572    23616371.964
  23616374.758          41.250          26.7504
 126770212.677 6  98781983.49444  24123568.600    24123567.734
  24123567.627          41.000          29.5004
 118952670.741 7  92690396.540 7  22635939.807    22635940.392    22635943.483
  22635944.386          43.500          45.500
 112779934.142 8  87880472.951 8  21461304.256    21461304.254    21461307.839
  21461308.053          50.000          51.000
 116305411.426 7  90627591.826 7  22132183.052    22132183.458    22132184.327
  22132184.423          47.000          45.750
 108750120.265 7  84740356.61247  20694458.528    20694458.085
  20694459.313          45.500          43.2504
 107253844.332 8  83574427.818 9  20409724.881    20409725.136    20409728.412
  20409728.342          53.000          55.250
 128145667.667 6  99853768.751 7  24385310.763    24385310.058    24385315.009
  24385315.000          40.000          42.000
 129022562.566 6 100537058.334 6  24552176.033    24552175.952    24552177.410
  24552176.812          40.000          36.500
 111382949.970 8  86791904.32446  21195469.396    21195469.274
  21195471.205          49.000          40.7504
 116776218.532 7  90994452.71144  22221775.811    22221775.217
  22221775.763          46.000          26.7504
 20  2 19  1 22  0.0000000  0 11G20G22G01G10G31G14G32G25G12G18G11
 124201599.985 6  96780468.13744  23634776.986    23634775.646
  23634777.726          40.750          26.2504
 126680564.629 6  98712127.89044  24106509.330    24106508.588
  24106508.620          40.500          29.7504
 118886221.647 7  92638618.027 7  22623295.380    22623295.594    22623298.689
  22623299.466          43.250          45.750
 112837222.020 8  87925112.831 8  21472205.953    21472205.785    21472208.913
  21472209.661          49.750          51.000
 116204652.477 7  90549078.368 7  22113009.675    22113009.713    22113010.755
  22113010.769          46.750          45.750
 108732299.394 7  84726470.22647  20691067.407    20691067.108
  20691068.203          47.500          43.2504
 107277955.538 8  83593215.766 9  20414313.227    20414313.363    20414316.605
  20414316.469          52.750          55.000
 128071798.505 6  99796208.301 6  24371253.632    24371252.589    24371257.253
  24371257.599          39.500          40.500
 128985837.641 6 100508441.552 5  24545187.128    24545187.190    24545187.242
  24545187.659          39.250          33.500
 111364425.065 8  86777469.32346  21191943.944    21191943.796
  21191945.833          50.750          40.5004
 116802009.339 7  91014549.48544  22226683.443    22226683.253
  22226684.057          44.750          27.2504
 20  2 19  1 22 30.0000000  0 11G20G22G01G10G31G14G32G25G12G18G11
 124298485.460 6  96855963.23144  23653212.708    23653212.233
  23653215.238          39.750          25.7504
 126590972.493 6  98642315.86144  24089460.888    24089460.079
  24089459.915          41.500          29.7504
 118820256.326 7  92587216.472 7  22610742.450    22610742.554    22610746.376
  22610746.732          42.750          46.250
 112894838.006 8  87970008.383 8  21483169.557    21483169.721    21483172.964
  21483173.540          49.750          50.750
 116104219.989 7  90470819.276 7  22093897.522    22093898.200    22093899.026
  22093898.903          47.000          46.000
 108714811.467 8  84712843.27047  20687739.116    20687739.084
  20687740.302          48.500          43.2504
 107302385.692 8  83612252.250 9  20418962.004    20418962.237    20418965.644
  20418965.393          52.250          55.500
 127998205.751 6  99738863.292 6  24357249.427    24357248.604    24357253.793
  24357253.770          41.000          41.500
 128949605.490 6 100480208.703 5  24538292.817    24538292.583    24538293.463
  24538293.747          38.750          35.750
 111346557.735 8  86763546.73046  21188544.493    21188543.900
  21188546.027          50.750          40.7504
 116828394.871 7  91035109.65644  22231704.133    22231703.871
  22231704.587          43.250          27.0004
 20  2 19  1 23  0.0000000  0 12G20G22G01G10G31G14G32G25G12G18G11G24
 124395542.877 6  96931592.31344  23671682.776    23671682.196
  23671683.545          41.250          26.7504
 126501436.755 6  98572547.76644  24072422.222    24072421.657
  24072421.490          41.250          29.7504
 118754775.928 7  92536192.792 7  22598281.900    22598282.170    22598286.190
  22598286.545          42.500          46.500
 112952780.738 8  88015158.559 8  21494195.830    21494195.867    21494199.188
  21494199.675          49.750          50.500
 116004115.520 8  90392815.788 7  22074849.191    22074849.088    22074849.658
  22074849.648          48.250          46.000
 108697654.727 8  84699474.38147  20684474.639    20684474.394
  20684475.481          48.750          43.2504
 107327132.584 8  83631535.540 9  20423671.166    20423671.372    20423674.895
  20423674.655          53.000          55.250
 127924891.607 6  99681735.350 6  24343297.699    24343297.490    24343302.978
  24343302.992          40.500          41.500
 128913867.000 6 100452360.513 5  24531491.866    24531491.167    24531491.857
  24531492.236          38.000          34.250
 111329347.309 8  86750136.00346  21185269.082    21185269.092
  21185270.868          51.000          40.2504
 116855372.675 7  91056131.29344  22236837.749    22236837.621
  22236837.851          44.500          28.0004
 132247230.560 6 103049793.281 5  25165812.386    25165812.098    25165817.456
  25165816.537          37.500          33.750
 20  2 19  1 23 30.0000000  0 12G20G22G01G10G31G14G32G25G12G18G11G24
 124492772.601 7  97007355.68744  23690185.339    23690184.962
  23690186.567          42.000          27.2504
 126411959.361 6  98502825.12245  24055395.236    24055394.955
  24055394.013          41.000          30.0004
 118689784.218 7  92485549.897 7  22585913.883    22585914.737    22585918.541
  22585918.966          43.000          47.000
 113011051.156 8  88060564.068 8  21505284.575    21505284.407    21505287.239
  21505288.295          50.000          50.500
 115904343.572 8  90315071.413 7  22055862.740    22055863.080    22055863.997
  22055863.800          48.000          46.250
 108680830.086 8  84686364.27647  20681273.114    20681272.610
  20681273.745          48.250          43.2504
 107352196.553 8  83651065.904 9  20428440.717    20428440.892    20428444.224
  20428444.168          53.500          55.250
 127851860.608 6  99624828.044 6  24329400.461    24329399.991    24329404.821
  24329405.284          41.000          40.250
 128878625.922 6 100424899.966 6  24524785.284    24524785.572    24524787.436
  24524786.766          38.250          36.250
 111312796.047 8  86737238.91546  21182119.381    21182119.193
  21182121.257          51.000          40.5004
 116882942.408 7  91077614.22844  22242084.157    22242083.782
  22242084.255          44.500          27.2504
 132356094.475 6 103134622.259 5  25186528.273    25186528.746    25186531.833
  25186532.160          38.000          35.750
 20  2 19  1 24  0.0000000  0 12G20G22G01G10G31G14G32G25G12G18G11G24
 124590172.712 6  97083251.81144  23708719.726    23708719.131
  23708721.268          41.500          26.2504
 126322541.206 6  98433148.66844  24038379.682    24038379.119
  24038378.666          41.250          29.7504
 118625282.552 7  92435288.850 7  22573640.415    22573640.497    22573644.090
  22573644.441          42.750          46.000
 113069648.512 8  88106224.331 8  21516435.162    21516435.136    21516438.480
  21516438.921          49.750          50.750
 115804906.003 7  90237587.590 7  22036940.594    22036940.699    22036941.986
  22036941.661          47.750          46.750
 108664336.014 8  84673511.75247  20678134.401    20678133.966
  20678135.236          48.000          43.5004
 107377575.676 8  83670841.837 9  20433270.219    20433270.382    20433273.827
  20433273.650          53.250          55.000
 127779115.202 6  99568143.276 6  24315557.457    24315557.037    24315562.332
  24315562.165          41.500          40.750
 128843883.354 6 100397827.788 5  24518174.824    24518174.539    24518174.957
  24518174.466          37.250          34.750
 111296903.590 8  86724855.18446  21179095.102    21179094.970
  21179097.014          50.750          40.5004
 116911101.790 7  91099556.58444  22247442.892    22247442.902
  22247443.361          45.000          27.7504
 132465106.690 6 103219566.796 5  25207272.943    25207272.766    25207277.030
  25207276.359          37.750          35.000
 20  2 19  1 24 30.0000000  0 12G20G22G01G10G31G14G32G25G12G18G11G24
 124687742.561 7  97159280.21444  23727287.041    23727286.272
  23727287.760          42.500          27.0004
 126233183.678 6  98363519.40645  24021375.780    24021375.571
  24021374.330          41.250          30.0004
 118561273.707 7  92385411.838 7  22561460.104    22561459.880    22561463.110
  22561463.875          42.750          46.000
 113128572.780 8  88152139.332 8  21527647.979    21527647.880    21527651.313
  21527651.799          49.500          50.750
 115705805.870 7  90160366.707 7  22018082.552    22018082.407    22018083.063
  22018083.319          47.250          46.250
 108648172.685 7  84660916.95347  20675058.589    20675058.288
  20675059.385          45.250          43.2504
 107403269.350 8  83690862.881 9  20438159.566    20438159.746    20438163.200
  20438163.012          52.750          55.500
 127706659.002 7  99511683.833 6  24301769.675    24301769.696    24301773.905
  24301774.048          42.000          39.000
 128809641.803 6 100371146.101 6  24511657.453    24511657.955    24511659.885
  24511659.468          37.250          36.250
 111281671.254 8  86712985.82346  21176196.469    21176196.418
  21176198.663          48.250          41.0004
 116939849.512 7  91121957.41344  22252913.675    22252913.072
  22252914.090          43.750          28.5004
 132574265.591 6 103304625.620 5  25228044.586    25228046.631    25228048.101
  25228049.551          36.250          35.000
 20  2 19  1 25  0.0000000  0 11G20G22G01G10G31G14G32G25G12G18G11
 124785480.639 7  97235439.70444  23745885.695    23745885.041
  23745887.124          42.250          26.0004
 126143887.759 6  98293938.19744  24004382.583    24004382.571
  24004382.111          40.500          29.7504
 118497759.511 7  92335920.265 7  22549373.576    22549373.592    22549377.213
  22549377.657          43.000          46.250
 113187823.275 8  88198308.528 8  21538923.224    21538922.879    21538926.615
  21538926.851          49.250          51.000
 115607045.529 7  90083410.594 7  21999288.548    21999288.792    21999289.953
  21999289.854          47.000          46.000
 108632339.039 7  84648579.05147  20672045.448    20672045.102
  20672046.233          47.750          43.2504
 107429276.054 8  83711127.842 9  20443108.644    20443108.676    20443112.131
  20443111.911          53.000          55.250
 127634494.824 6  99455451.990 6  24288037.168    24288036.569    24288042.168
  24288042.072          40.000          40.750
 128775902.581 6 100344855.723 6  24505237.809    24505238.344    24505239.780
  24505239.098          37.750          37.000
 111267098.979 8  86701630.79446  21173423.455    21173423.251
  21173425.476          50.500          40.7504
 116969183.365 7  91144814.96844  22258495.542    22258494.844
  22258495.795          44.500          28.0004
 20  2 19  1 25 30.0000000  0 11G20G22G01G10G31G14G32G25G18G12G11
 124883386.877 7  97311730.28744  23764516.993    23764516.126
  23764517.967          42.250          26.0004
 126054656.059 6  98224406.99645  23987402.735    23987402.601
  23987401.488          40.750          30.0004
 118434743.094 7  92286816.569 7  22537381.880    22537381.973    22537385.473
  22537385.989          43.000          46.750
 113247400.642 8  88244732.435 8  21550260.364    21550260.145    21550263.703
  21550264.145          49.000          50.750
 115508628.841 7  90006722.272 7  21980560.647    21980560.613    21980561.172
  21980561.696          47.000          46.500
 108616835.274 8  84636498.19447  20669095.250    20669094.969
  20669096.121          48.750          43.2504
 107455595.675 8  83731636.636 9  20448117.018    20448117.184    20448120.417
  20448120.419          52.500          55.250
 127562626.811 6  99399450.873 6  24274360.949    24274360.612    24274365.829
  24274365.661          40.250          39.000
 111253188.165 8  86690791.20046  21170776.501    21170776.460
  21170778.445          51.500          41.2504
 128742658.908 6 100318957.381 5  24498913.292    24498914.508    24498915.976
  24498914.754          37.250          32.500
 116999102.660 7  91168128.70144  22264189.188    22264188.111
  22264189.139          43.500          28.2504
 20  2 19  1 26  0.0000000  0 11G20G22G01G10G31G14G32G25G18G12G11
 124981459.607 6  97388150.52944  23783179.689    23783178.648
  23783181.417          41.500          24.2504
 125965488.599 6  98154925.88945  23970435.085    23970433.855
  23970433.417          40.500          30.0004
 118372225.785 6  92238101.785 7  22525484.918    22525485.162    22525488.972
  22525489.344          41.750          46.250
 113307303.654 8  88291410.088 8  21561659.469    21561659.291    21561662.456
  21561663.393          48.750          50.250
 115410557.614 7  89930303.143 7  21961897.912    21961898.397    21961899.547
  21961899.425          47.500          46.500
 108601660.102 7  84624673.38747  20666207.691    20666207.381
  20666208.285          46.500          43.5004
 107482226.211 8  83752387.702 9  20453184.580    20453184.874    20453187.964
  20453188.031          53.250          55.250
 127491057.121 6  99343682.270 6  24260741.960    24260741.480    24260745.923
  24260746.868          39.250          39.250
 111239938.657 8  86680466.90346  21168255.062    21168255.000
  21168257.008          49.500          41.0004
 128709931.636 6 100293455.544 6  24492685.740    24492685.725    24492688.444
  24492687.898          36.500          39.500
 117029604.883 7  91191896.64844  22269992.865    22269992.646
  22269993.911          43.750          27.5004
 20  2 19  1 26 30.0000000  0 10G20G22G01G10G31G14G32G25G18G11
 125079697.552 6  97464699.54543  23801872.301    23801872.029
  23801875.247          39.000          23.7504
 125876387.384 6  98085496.37045  23953479.505    23953479.230
  23953478.443          41.250          31.0004
 118310210.605 7  92189778.272 7  22513683.656    22513684.294    22513687.703
  22513688.285          42.250          46.500
 113367532.775 8  88338341.863 8  21573120.519    21573120.529    21573123.701
  21573124.555          48.750          50.750
 115312835.808 7  89854156.282 7  21943302.531    21943302.642    21943303.544
  21943303.451          47.500          46.500
 108586813.679 8  84613104.75147  20663382.482    20663382.018
  20663383.141          48.500          43.5004
 107509167.339 8  83773380.789 9  20458311.516    20458311.575    20458314.984
  20458314.704          52.750          55.250
 127419789.913 6  99288149.321 6  24247180.279    24247179.605    24247184.867
  24247184.812          38.250          37.750
 111227351.733 8  86670658.91046  21165859.940    21165859.754
  21165861.810          51.250          41.0004
 117060689.101 7  91216118.14844  22275908.524    22275908.056
  22275908.700          44.500          27.7504
 20  2 19  1 27  0.0000000  0 10G20G22G01G10G31G14G32G25G18G11
 125178099.469 6  97541376.29243  23820599.237    23820597.823
  23820600.223          40.000          23.7504
 125787353.283 6  98016119.17445  23936537.028    23936536.445
  23936535.817          41.000          30.5004
 118248699.161 7  92141847.270 7  22501978.765    22501978.997    22501982.712
  22501983.129          42.250          46.750
 113428087.140 8  88385527.068 8  21584643.781    21584643.805    21584646.967
  21584647.631          49.000          50.250
 115215465.164 7  89778283.053 7  21924773.771    21924773.700    21924774.451
  21924774.541          47.500          46.500
 108572294.629 8  84601791.20747  20660619.419    20660619.372
  20660620.148          48.750          43.2504
 107536417.467 8  83794614.645 9  20463496.867    20463497.106    20463500.262
  20463500.191          52.500          55.000
 127348827.664 6  99232854.016 6  24233676.787    24233676.514    24233681.578
  24233681.142          36.750          38.000
 111215426.965 8  86661366.88846  21163590.574    21163590.489
  21163592.659          50.750          41.2504
 117092352.587 7  91240790.98044  22281933.545    22281933.252
  22281934.158          45.000          27.7504
 20  2 19  1 27 30.0000000  0  9G20G22G01G10G31G14G32G18G11
 125276663.947 6  97618179.71343  23839354.743    23839354.180
  23839355.014          39.750          22.0004
 125698386.987 6  97946794.80145  23919607.376    23919606.410
  23919605.806          40.750          30.0004
 118187693.230 7  92094310.185 7  22490369.723    22490370.051    22490373.368
  22490374.120          42.000          46.750
 113488966.021 8  88432965.143 8  21596228.760    21596228.732    21596232.124
  21596232.501          49.250          50.750
 115118448.180 7  89702685.402 7  21906312.172    21906312.016    21906312.256
  21906312.711          47.750          46.000
 108558102.493 8  84590732.40247  20657918.901    20657918.651
  20657919.535          49.000          43.5004
 107563975.084 8  83816088.109 9  20468740.875    20468741.157    20468744.452
  20468744.268          52.500          55.250
 111204164.680 8  86652591.06646  21161447.620    21161447.441
  21161449.550          51.250          41.5004
 117124593.465 7  91265913.74444  22288069.140    22288068.460
  22288069.228          46.000          27.7504
 20  2 19  1 28  0.0000000  0  9G20G22G01G10G31G14G32G18G11
 125375390.522 6  97695109.45843  23858142.140    23858141.982
  23858143.572          40.000          23.5004
 125609490.163 6  97877524.56044  23902690.442    23902690.086
  23902689.169          40.250          29.2504
 118127195.579 7  92047169.163 7  22478857.352    22478857.611    22478861.102
  22478861.712          42.250          46.750
 113550169.639 8  88480656.263 8  21607875.650    21607875.244    21607878.580
  21607879.191          49.250          50.500
 115021787.954 7  89627365.740 7  21887917.694    21887917.891    21887918.946
  21887918.955          47.000          46.500
 108544236.956 8  84579928.08647  20655280.292    20655280.013
  20655280.928          48.250          43.5004
 107591839.717 8  83837800.810 9  20474043.363    20474043.594    20474046.948
  20474046.787          52.500          55.250
 111193565.786 8  86644332.18546  21159430.632    21159430.553
  21159432.662          50.250          41.0004
 117157410.295 7  91291485.29344  22294313.587    22294313.597
  22294314.304          45.000          28.0004
 20  2 19  1 28 30.0000000  0  9G20G22G01G10G31G14G32G18G11
 125474278.352 6  97772164.84043  23876959.122    23876960.180
  23876960.548          39.500          23.0004
 125520665.042 6  97808310.18444  23885788.304    23885786.818
  23885786.581          40.250          29.7504
 118067208.924 7  92000426.309 7  22467442.591    22467442.667    22467446.055
  22467446.674          42.250          47.000
 113611698.291 8  88528600.652 8  21619583.888    21619583.734    21619587.086
  21619587.650          49.500          50.250
 114925487.998 7  89552326.818 7  21869592.260    21869592.566    21869593.870
  21869593.686          47.000          46.750
 108530697.960 8  84569378.21947  20652704.020    20652703.766
  20652704.598          48.250          43.5004
 107620010.874 8  83859752.354 9  20479404.101    20479404.324    20479407.627
  20479407.526          52.250          55.000
 111183631.299 8  86636591.02646  21157540.410    21157540.121
  21157541.920          50.500          41.0004
 117190802.083 7  91317504.86144  22300667.921    22300667.647
  22300668.677          44.750          28.0004
 20  2 19  1 29  0.0000000  0  9G20G22G01G10G31G14G32G18G11
 125573325.664 6  97849344.49444  23895808.209    23895807.454
  23895809.800          40.500          25.2504
 125431912.410 6  97739152.30144  23868898.729    23868897.286
  23868897.290          40.000          29.2504
 118007734.425 7  91954082.541 7  22456124.734    22456125.012    22456128.691
  22456129.103          42.750          47.000
 113673550.625 8  88576797.267 8  21631353.935    21631353.705    21631357.148
  21631357.688          49.250          50.250
 114829550.107 7  89477570.036 7  21851336.117    21851336.293    21851337.855
  21851337.406          47.000          47.000
 108517484.042 8  84559081.66547  20650189.433    20650189.091
  20650189.950          49.250          43.5004
 107648486.504 8  83881941.161 9  20484822.961    20484823.120    20484826.485
  20484826.249          52.250          55.250
 111174360.535 8  86629367.05546  21155776.167    21155776.052
  21155778.158          50.750          41.2504
 117224765.983 7  91343970.24144  22307131.650    22307130.778
  22307131.538          46.250          28.5004
 20  2 19  1 29 30.0000000  0  9G20G22G01G10G31G14G32G18G11
 125672531.146 6  97926647.41844  23914686.435    23914685.629
  23914687.764          41.500          25.7504
 125343232.557 6  97670051.10345  23852023.167    23852022.625
  23852022.016          40.500          30.0004
 117948774.064 7  91908139.400 7  22444905.021    22444905.126    22444908.972
  22444909.447          42.500          47.500
 113735726.096 8  88625245.655 8  21643185.276    21643185.237    21643188.896
  21643189.496          48.500          50.500
 114733976.465 7  89403097.077 7  21833149.638    21833149.448    21833150.296
  21833150.201          47.500          47.000
 108504594.288 8  84549037.70347  20647736.687    20647736.239
  20647737.142          49.250          43.5004
 107677265.309 8  83904366.198 9  20490299.361    20490299.518    20490302.717
  20490302.616          52.000          55.250
 111165753.573 8  86622660.33146  21154138.452    21154138.268
  21154140.280          50.750          41.5004
 117259299.843 7  91370879.73844  22313702.840    22313702.125
  22313703.175          45.750          28.5004
 20  2 19  1 30  0.0000000  0  9G20G22G01G10G31G14G32G18G11
 125771893.648 6  98004072.66244  23933594.057    23933593.063
  23933595.075          40.750          25.2504
 125254627.633 6  97601008.33245  23835162.487    23835161.862
  23835160.835          40.750          30.7504
 117890330.210 7  91862598.735 7  22433783.643    22433783.737    22433786.967
  22433787.726          42.750          46.750
 113798224.649 8  88673945.814 8  21655079.052    21655078.615    21655081.821
  21655082.507          49.000          50.000
 114638770.428 7  89328910.555 7  21815032.269    21815032.442    21815032.859
  21815033.129          47.250          46.750
 108492028.522 8  84539246.20147  20645345.586    20645345.060
  20645346.003          49.000          43.5004
 107706346.552 8  83927026.906 9  20495833.328    20495833.495    20495836.849
  20495836.750          52.000          55.250
 111157810.908 8  86616471.23146  21152626.649    21152626.622
  21152628.834          50.000          41.2504
 117294401.948 7  91398232.01844  22320382.246    22320382.244
  22320382.789          45.250          28.0004
 20  2 19  1 30 30.0000000  0  9G20G22G01G10G31G14G32G18G11
 125871413.027 6  98081620.12644  23952532.829    23952531.774
  23952532.780          41.000          24.2504
 125166099.868 6  97532025.67845  23818316.290    23818315.536
  23818314.538          40.750          30.7504
 117832406.031 7  91817463.014 7  22422760.681    22422760.877    22422764.641
  22422765.081          43.000          46.500
 113861046.954 8  88722898.248 8  21667033.523    21667033.384    21667036.388
  21667037.202          49.250          49.500
 114543935.715 7  89255013.377 7  21796985.774    21796986.053    21796986.707
  21796986.719          47.250          47.000
 108479787.303 8  84529707.58847  20643016.097    20643015.671
  20643016.628          48.750          43.7504
 107735730.190 8  83949923.238 9  20501424.778    20501425.022    20501428.312
  20501428.291          51.250          55.000
 111150534.238 8  86610801.10146  21151241.919    21151241.886
  21151244.040          50.500          41.2504
 117330071.360 7  91426026.36444  22327170.103    22327169.476
  22327170.464          46.250          28.2504
 20  2 19  1 31  0.0000000  0  9G20G22G01G10G31G14G32G18G11
 125971086.354 6  98159287.61144  23971499.328    23971499.688
  23971500.456          41.250          25.2504
 125077648.864 6  97463102.82445  23801484.900    23801483.648
  23801483.530          41.250          30.7504
 117775001.769 7  91772732.422 7  22411837.235    22411837.396    22411840.694
  22411841.343          43.250          46.750
 113924190.795 8  88772101.233 8  21679049.300    21679049.213    21679052.374
  21679053.158          49.750          49.750
 114449473.164 7  89181406.185 7  21779009.746    21779010.169    21779010.701
  21779011.065          46.750          47.000
 108467867.833 8  84520419.69947  20640747.897    20640747.472
  20640748.404          49.000          43.5004
 107765413.343 8  83973052.962 9  20507073.441    20507073.527    20507076.693
  20507076.720          51.750          54.750
 111143921.706 8  86605648.47146  21149983.657    21149983.729
  21149985.729          50.250          41.5004
 117366304.409 7  91454259.90344  22334064.834    22334064.532
  22334064.954          45.750          28.2504
 20  2 19  1 31 30.0000000  0 10G20G22G01G10G31G14G25G32G18G11
 126070915.826 6  98237076.73843  23990496.649    23990496.144
  23990497.937          40.250          23.0004
 124989278.803 6  97394243.03645  23784668.264    23784667.333
  23784666.615          40.500          30.7504
 117718122.540 7  91728410.942 7  22401013.385    22401013.771    22401017.071
  22401017.574          43.750          46.750
 113987658.854 8  88821556.842 8  21691126.971    21691126.940    21691130.662
  21691130.869          50.000          50.750
 114355388.668 7  89108093.597 7  21761106.747    21761106.606    21761107.314
  21761107.442          47.500          47.000
 108456273.004 8  84511384.76347  20638541.223    20638541.025
  20638542.238          48.750          43.5004
 126724420.070 6  98746301.000 6  24114855.149    24114854.752    24114860.588
  24114860.759          37.750          38.250
 107795397.980 8  83996417.606 9  20512779.234    20512779.431    20512782.766
  20512782.575          52.500          55.000
 111137976.534 8  86601015.87346  21148852.648    21148852.495
  21148854.297          50.500          41.5004
 117403102.041 7  91482933.38744  22341067.376    22341067.143
  22341067.322          45.750          28.2504
 20  2 19  1 32  0.0000000  0 10G20G22G01G10G31G14G25G32G18G11
 126170897.318 6  98314984.29943  24009521.993    24009522.153
  24009523.401          40.250          23.0004
 124900988.178 6  97325445.16545  23767866.995    23767866.583
  23767866.051          40.750          31.0004
 117661767.640 7  91684498.031 7  22390289.452    22390289.720    22390293.204
  22390293.694          43.500          46.750
 114051447.990 8  88871262.649 8  21703265.508    21703265.522    21703269.050
  21703269.543          49.500          50.250
 114261681.843 7  89035075.300 7  21743274.625    21743274.490    21743275.406
  21743275.517          46.250          47.000
 108444999.248 8  84502600.02247  20636396.055    20636395.889
  20636396.827          48.750          43.2504
 126656683.353 6  98693519.179 6  24101965.747    24101965.304    24101970.966
  24101970.422          40.000          41.500
 107825680.264 8  84020014.190 9  20518541.847    20518541.981    20518545.150
  20518545.134          51.750          54.750
 111132696.114 8  86596901.25746  21147847.576    21147847.635
  21147849.373          50.250          41.5004
 117440459.817 7  91512043.33544  22348176.325    22348175.741
  22348176.993          45.750          28.2504
 20  2 19  1 32 30.0000000  0 10G20G22G01G10G31G14G25G32G18G11
 126271029.972 6  98393009.68943  24028577.802    24028576.308
  24028576.819          41.000          22.2504
 124812779.230 6  97256710.94445  23751081.918    23751080.856
  23751080.552          41.750          30.7504
 117605939.362 7  91640995.484 7  22379665.804    22379665.866    22379669.126
  22379669.785          44.000          46.250
 114115558.050 8  88921218.513 8  21715465.509    21715465.137    21715468.708
  21715469.310          49.750          50.500
 114168355.829 7  88962353.735 7  21725515.202    21725515.506    21725516.169
  21725516.192          46.750          47.000
 108434046.236 8  84494065.20247  20634311.815    20634311.384
  20634312.446          48.750          43.7504
 126589285.980 6  98641001.767 6  24089140.894    24089139.954    24089144.563
  24089145.174          40.250          41.000
 107856259.423 8  84043842.098 9  20524360.883    20524360.984    20524364.280
  20524364.228          52.000          55.000
 111128080.988 8  86593305.05346  21146969.223    21146969.201
  21146971.140          49.250          41.0004
 117478375.628 7  91541588.11244  22355391.486    22355391.302
  22355391.761          46.000          28.7504
 20  2 19  1 33  0.0000000  0 10G20G22G01G10G31G14G25G32G18G11
 126371313.237 6  98471152.44943  24047660.587    24047659.220
  24047661.009          40.250          21.5004
 124724653.261 6  97188041.36545  23734311.825    23734311.249
  23734310.667          41.500          30.7504
 117550640.120 7  91597905.156 7  22369142.780    22369142.858    22369146.177
  22369146.744          44.500          46.750
 114179989.029 8  88971424.454 8  21727725.833    21727725.973    21727729.477
  21727729.985          49.500          49.750
 114075413.573 7  88889931.198 7  21707829.039    21707829.199    21707829.685
  21707829.751          46.500          47.000
 108423413.555 8  84485780.00147  20632288.487    20632288.123
  20632289.010          48.500          43.7504
 126522231.449 6  98588751.554 6  24076379.717    24076379.600    24076385.539
  24076384.816          40.000          41.250
 107887134.723 8  84067900.771 9  20530236.016    20530236.331    20530239.549
  20530239.607          51.750          55.000
 111124131.494 8  86590227.51746  21146217.933    21146217.678
  21146219.797          50.000          41.2504
 117516847.826 7  91571566.44044  22362712.691    22362712.573
  22362713.130          46.750          29.2504
 20  2 19  1 33 30.0000000  0 10G20G22G01G10G31G14G25G32G18G11
 126471745.434 6  98549411.19843  24066771.842    24066771.098
  24066773.207          39.500          21.7504
 124636611.787 6  97119437.61845  23717557.916    23717557.387
  23717556.598          41.000          30.7504
 117495871.843 7  91555228.579 7  22358720.477    22358720.817    22358724.176
  22358724.714          44.500          46.750
 114244740.430 8  89021880.073 8  21740048.029    21740047.822    21740051.570
  21740051.762          49.750          50.000
 113982857.597 7  88817809.656 7  21690216.137    21690216.411    21690217.140
  21690216.919          47.000          47.250
 108413100.580 8  84477743.91447  20630325.818    20630325.473
  20630326.552          48.750          43.5004
 126455522.822 7  98536770.835 6  24063686.007    24063685.916    24063690.907
  24063690.964          42.250          41.750
 107918305.069 8  84092189.340 9  20536167.757    20536167.864    20536171.375
  20536171.120          52.000          54.750
 111120847.663 8  86587668.68046  21145592.837    21145592.951
  21145594.866          48.750          41.2504
 117555874.381 7  91601976.75244  22370138.729    22370138.481
  22370139.429          45.500          28.5004
 20  2 19  1 34  0.0000000  0 10G20G22G01G10G31G14G25G32G18G11
 126572327.189 6  98627786.53643  24085911.203    24085912.262
  24085912.971          39.250          21.5004
 124548657.557 6  97050901.87945  23700820.394    23700819.745
  23700819.295          40.500          30.0004
 117441638.006 7  91512968.439 7  22348399.941    22348400.519    22348403.783
  22348404.204          45.250          46.500
 114309813.323 8  89072586.198 8  21752430.445    21752430.731    21752434.603
  21752434.646          49.500          50.000
 113890692.146 7  88745992.422 7  21672677.820    21672677.755    21672678.611
  21672678.506          46.750          47.250
 108403108.294 8  84469957.72147  20628424.636    20628424.142
  20628425.122          48.750          43.7504
 126389164.546 7  98485063.150 6  24051058.745    24051057.927    24051062.618
  24051062.858          42.500          41.750
 107949770.861 8  84116708.139 9  20542155.345    20542155.549    20542159.163
  20542158.900          52.000          55.000
 111118231.160 8  86585629.84546  21145095.425    21145095.059
  21145096.669          49.500          41.0004
 117595454.542 7  91632818.41444  22377670.568    22377670.567
  22377670.930          46.500          28.7504
 20  2 19  1 34 30.0000000  0 10G20G22G01G10G31G14G25G32G18G11
 126673055.080 6  98706275.72443  24105079.217    24105079.630
  24105080.766          38.500          21.2504
 124460789.685 6  96982433.40745  23684100.322    23684099.539
  23684098.406          41.250          30.5004
 117387938.386 7  91471124.571 7  22338181.444    22338181.677    22338185.221
  22338185.566          45.250          46.500
 114375205.100 8  89123540.806 8  21764874.263    21764874.499    21764877.913
  21764878.354          49.250          50.000
 113798917.663 7  88674479.842 7  21655213.690    21655213.505    21655213.863
  21655214.312          46.250          47.000
 108393433.944 8  84462419.26147  20626583.342    20626583.116
  20626584.158          48.250          43.5004
 126323157.611 7  98433629.195 7  24038497.693    24038497.248    24038503.045
  24038502.907          42.000          42.750
 107981528.842 8  84141454.606 9  20548198.669    20548198.965    20548202.322
  20548202.237          51.750          54.750
 111116279.913 8  86584109.39146  21144723.815    21144723.731
  21144725.630          48.500          41.5004
 117635584.268 7  91664088.33944  22385307.380    22385307.235
  22385307.787          46.250          29.0004
 20  2 19  1 35  0.0000000  0 10G20G22G01G10G31G14G25G32G18G11
 126773928.272 6  98784878.15143  24124275.690    24124274.825
  24124277.504          38.250          21.2504
 124373010.434 6  96914034.01145  23667396.467    23667395.415
  23667394.709          41.750          31.0004
 117334775.397 7  91429698.863 7  22328064.950    22328065.081    22328068.804
  22328068.941          45.500          46.500
 114440915.763 8  89174743.899 8  21777378.797    21777378.998    21777382.022
  21777382.733          49.500          49.250
 113707537.237 7  88603274.312 7  21637824.360    21637824.489    21637825.524
  21637825.414          46.000          47.750
 108384077.143 8  84455128.24247  20624802.790    20624802.578
  20624803.642          48.250          43.7504
 126257505.451 7  98382471.713 6  24026004.863    24026004.408    24026008.439
  24026008.778          42.500          41.500
 108013578.398 8  84166428.280 9  20554297.640    20554297.811    20554301.174
  20554301.030          51.500          55.000
 111114993.980 8  86583107.36346  21144478.930    21144478.872
  21144481.078          48.500          41.5004
 117676261.698 7  91695785.03744  22393047.933    22393047.778
  22393048.157          45.750          28.7504
 20  2 19  1 35 30.0000000  0 11G20G22G01G10G31G14G25G32G18G12G11
 126874946.997 6  98863593.96443  24143499.036    24143498.092
  24143501.298          38.750          21.2504
 124285322.218 6  96845705.53945  23650709.386    23650708.739
  23650708.227          41.250          31.0004
 117282152.206 7  91388693.773 7  22318050.721    22318051.209    22318054.429
  22318055.187          45.500          46.750
 114506946.097 8  89226196.093 8  21789944.366    21789944.147    21789947.152
  21789948.077          50.250          49.250
 113616554.756 7  88532378.878 7  21620511.093    21620511.175    21620512.050
  21620511.966          46.000          47.750
 108375038.608 8  84448085.22547  20623082.997    20623082.787
  20623083.591          48.250          43.7504
 126192212.424 6  98331594.041 7  24013579.252    24013579.185    24013584.701
  24013584.730          41.250          42.500
 108045919.741 8  84191629.316 9  20560451.898    20560452.120    20560455.497
  20560455.376          51.500          54.500
 111114374.850 7  86582624.90946  21144361.121    21144361.145
  21144363.036          46.500          41.2504
 128186894.519 6  99885892.024 5  24393154.710    24393155.909    24393156.059
  24393156.839          38.000          33.500
 117717486.282 7  91727908.08144  22400892.945    22400892.529
  22400893.474          46.500          29.0004
 20  2 19  1 36  0.0000000  0 11G20G22G01G10G31G14G25G32G18G12G11
 126976109.376 6  98942421.68143  24162749.870    24162748.261
  24162751.530          38.000          20.5004
 124197725.680 7  96777448.50845  23634041.098    23634040.152
  23634039.287          42.500          31.0004
 117230070.192 7  91348110.383 7  22308139.926    22308140.376    22308143.954
  22308144.328          45.750          46.500
 114573295.159 8  89277896.640 8  21802570.095    21802569.790    21802573.743
  21802573.955          50.000          50.250
 113525971.931 7  88461794.854 8  21603273.778    21603273.844    21603274.913
  21603274.929          46.250          48.500
 108366317.150 8  84441289.28847  20621423.214    20621423.006
  20621423.956          48.500          43.5004
 126127281.058 6  98280998.184 6  24001223.535    24001223.431    24001228.334
  24001227.880          41.500          41.250
 108078551.222 8  84217056.435 9  20566661.667    20566661.768    20566665.217
  20566664.978          51.750          54.750
 111114422.031 7  86582661.67446  21144370.250    21144370.228
  21144371.661          46.500          41.2504
 128164687.657 6  99868587.959 6  24388929.190    24388929.061    24388930.139
  24388930.507          38.500          38.250
 117759255.203 7  91760455.27744  22408840.685    22408840.805
  22408841.592          46.000          28.5004
 20  2 19  1 36 30.0000000  0 11G20G22G01G10G31G14G25G32G18G12G11
 127077413.724 6  99021360.04443  24182026.552    24182026.239
  24182028.328          37.750          20.2504
 124110221.878 6  96709263.72345  23617389.392    23617388.719
  23617387.749          41.250          30.5004
 117178530.699 7  91307949.744 7  22298332.751    22298332.843    22298336.455
  22298336.663          46.250          47.000
 114639961.893 8  89329844.733 8  21815255.968    21815256.017    21815259.447
  21815260.233          49.750          49.500
 113435791.213 7  88391524.165 7  21586112.540    21586112.937    21586113.546
  21586113.636          45.750          47.250
 108357911.535 8  84434739.45047  20619823.711    20619823.387
  20619824.605          48.750          43.5004
 126062713.837 6  98230686.083 7  23988936.820    23988936.475    23988941.320
  23988941.794          40.500          42.250
 108111471.266 8  84242708.414 9  20572926.031    20572926.245    20572929.656
  20572929.426          51.500          54.750
 111115134.660 8  86583216.96146  21144506.173    21144505.983
  21144507.375          48.500          41.5004
 128143023.941 6  99851707.100 6  24384805.709    24384806.535    24384808.563
  24384808.770          37.750          39.250
 117801565.494 7  91793424.32644  22416892.439    22416892.381
  22416892.972          46.500          29.0004
 20  2 19  1 37  0.0000000  0 11G20G22G01G10G31G14G25G32G18G12G11
 127178859.210 6  99100408.37043  24201331.120    24201330.964
  24201332.643          38.250          21.2504
 124022812.832 6  96641152.77445  23600756.040    23600755.292
  23600754.372          41.750          31.0004
 117127535.853 7  91268213.487 7  22288628.557    22288628.780    22288632.680
  22288632.595          46.000          46.750
 114706946.054 8  89382040.140 8  21828002.309    21828002.653    21828005.948
  21828006.798          49.500          49.750
 113346015.475 7  88321569.043 8  21569029.022    21569029.298    21569030.283
  21569030.281          46.250          48.000
 108349821.575 8  84428435.58947  20618284.467    20618284.204
  20618284.814          49.000          43.7504
 125998514.073 6  98180660.274 6  23976719.633    23976719.383    23976724.459
  23976724.430          40.000          41.000
 108144679.016 8  84268584.573 9  20579245.367    20579245.478    20579248.651
  20579248.712          52.000          54.500
 111116512.892 8  86584290.90947  21144768.271    21144768.270
  21144769.972          48.500          42.2504
 128121905.091 6  99835250.833 6  24380788.533    24380788.053    24380790.234
  24380789.978          39.250          39.000
 117844415.031 7  91826813.57944  22425046.413    22425046.270
  22425046.908          46.250          28.7504
 20  2 19  1 37 30.0000000  0 11G20G22G01G10G31G14G25G32G18G12G11
 127280445.200 6  99179566.21843  24220663.342    24220662.325
  24220664.427          39.750          23.2504
 123935500.162 7  96573116.93345  23584141.072    23584140.398
  23584139.582          42.000          31.2504
 117077088.181 7  91228903.609 7  22279028.766    22279029.006    22279032.530
  22279032.883          46.250          47.000
 114774247.863 8  89434483.086 8  21840809.669    21840809.742    21840813.420
  21840813.939          49.250          49.500
 113256647.531 7  88251931.683 8  21552022.829    21552022.916    21552023.857
  21552023.997          46.000          48.000
 108342047.132 8  84422377.57547  20616805.003    20616804.651
  20616805.617          49.000          43.7504
 125934685.396 6  98130923.621 6  23964573.977    23964573.732    23964579.594
  23964578.525          40.250          41.750
 108178174.111 8  84294684.644 9  20585619.360    20585619.390    20585622.780
  20585622.663          52.250          54.750
 111118557.374 7  86585883.99846  21145157.157    21145156.895
  21145159.050          47.500          41.5004
 128101333.254 6  99819220.829 6  24376873.378    24376874.085    24376875.571
  24376875.188          40.000          39.000
 117887802.358 7  91860621.88444  22433302.811    22433302.590
  22433303.526          46.250          29.2504
 20  2 19  1 38  0.0000000  0 11G20G22G01G10G31G14G25G32G18G12G11
 127382169.587 6  99258831.91243  24240020.856    24240021.027
  24240022.404          39.750          22.5004
 123848284.748 6  96505156.88445  23567543.780    23567543.971
  23567542.864          41.250          31.2504
 117027188.587 7  91190020.808 7  22269533.409    22269533.538    22269536.578
  22269537.327          46.250          47.000
 114841865.827 8  89487172.387 8  21853677.318    21853677.196    21853680.510
  21853681.039          49.750          49.750
 113167689.356 7  88182613.625 7  21535094.840    21535094.919    21535095.645
  21535095.503          46.000          47.500
 108334586.501 8  84416564.09547  20615385.255    20615385.039
  20615385.918          48.250          43.5004
 125871229.910 6  98081477.783 6  23952497.845    23952498.023    23952503.169
  23952502.503          39.000          39.500
 108211954.518 8  84321007.028 9  20592047.308    20592047.621    20592050.968
  20592050.826          51.500          54.750
 111121266.666 7  86587995.12646  21145672.527    21145672.395
  21145674.691          46.500          41.5004
 128081309.046 6  99803617.531 6  24373063.153    24373062.655    24373064.489
  24373064.005          38.750          38.750
 117931724.056 7  91894846.57845  22441660.977    22441660.756
  22441661.806          46.750          30.0004
 20  2 19  1 38 30.0000000  0 11G20G22G01G10G31G14G25G32G18G12G11
 127484031.972 6  99338205.12643  24259404.486    24259403.172
  24259405.417          38.750          21.7504
 123761168.768 6  96437274.32245  23550966.934    23550966.161
  23550965.293          40.500          30.7504
 116977839.938 7  91151567.306 7  22260142.537    22260142.714    22260145.941
  22260146.664          46.250          47.000
 114909800.579 8  89540108.551 8  21866604.953    21866604.890    21866608.383
  21866608.625          50.000          48.750
 113079144.449 7  88113617.587 8  21518245.171    21518245.156    21518246.346
  21518246.203          45.500          48.000
 108327440.338 8  84410995.65647  20614025.353    20614024.962
  20614026.060          48.500          43.5004
 125808151.710 6  98032325.904 6  23940494.269    23940494.405    23940500.564
  23940500.334          38.000          41.000
 108246020.253 8  84347551.748 9  20598529.909    20598530.090    20598533.525
  20598533.299          51.750          54.750
 111124642.016 7  86590625.25846  21146315.160    21146314.822
  21146316.412          47.500          41.5004
 128061834.540 6  99788442.598 6  24369356.732    24369356.777    24369358.528
  24369358.087          39.750          38.500
 117976179.537 7  91929487.18744  22450120.537    22450120.708
  22450120.675          46.750          29.5004
 20  2 19  1 39  0.0000000  0 11G20G22G01G10G31G14G25G32G18G12G11
 127586029.999 6  99417683.99643  24278814.298    24278813.149
  24278815.196          40.750          22.5004
 123674152.584 7  96369469.49545  23534408.118    23534407.305
  23534406.685          42.000          30.7504
 116929042.836 7  91113543.585 7  22250856.854    22250856.955    22250860.411
  22250860.928          46.250          47.000
 114978050.360 8  89593290.172 8  21879592.090    21879592.241    21879595.387
  21879596.234          49.250          49.000
 112991014.215 7  88044944.668 8  21501474.455    21501474.636    21501476.036
  21501475.774          46.000          48.750
 108320606.403 8  84405670.50947  20612724.869    20612724.556
  20612725.674          48.500          43.5004
 125745452.521 6  97983469.344 6  23928564.103    23928563.448    23928569.151
  23928568.168          39.250          39.250
 108280369.011 8  84374317.003 9  20605066.273    20605066.405    20605069.774
  20605069.673          51.000          54.750
 111128681.789 7  86593773.12446  21147084.013    21147083.887
  21147085.411          47.000          41.7504
 128042910.373 6  99773696.473 6  24365756.491    24365756.386    24365758.356
  24365757.328          41.000          39.750
 118021165.057 7  91964540.84644  22458680.803    22458680.929
  22458681.993          46.500          29.5004
 20  2 19  1 39 30.0000000  0 11G20G22G01G10G31G14G25G32G18G12G11
 127688163.173 6  99497268.23843  24298248.842    24298248.380
  24298250.515          38.750          23.0004
 123587238.303 7  96301744.08045  23517868.751    23517868.522
  23517867.092          43.000          30.7504
 116880799.935 7  91075951.704 7  22241676.067    22241676.640    22241680.066
  22241680.567          46.250          47.500
 115046615.495 8  89646717.530 8  21892639.955    21892639.794    21892643.170
  21892643.671          49.250          49.000
 112903301.886 7  87976597.402 8  21484783.656    21484783.540    21484784.533
  21484784.445          46.750          48.500
 108314084.848 8  84400588.77747  20611483.559    20611483.437
  20611484.380          48.500          43.5004
 125683136.255 6  97934911.178 6  23916705.763    23916705.112    23916711.280
  23916710.499          38.500          40.000
 108315000.630 8  84401302.672 9  20611656.389    20611656.609    20611660.144
  20611659.885          51.750          54.750
 111133386.488 7  86597439.12747  21147979.138    21147979.106
  21147980.824          47.750          42.0004
 128024538.528 6  99759380.760 6  24362260.067    24362260.583    24362262.077
  24362261.545          40.250          39.750
 118066678.680 7  92000005.99244  22467341.572    22467341.149
  22467342.251          46.250          29.5004
 20  2 19  1 40  0.0000000  0 11G20G22G01G10G31G14G25G32G18G12G11
 127790430.588 6  99576957.08143  24317710.624    24317710.193
  24317711.771          39.750          21.7504
 123500428.117 7  96234099.79245  23501349.324    23501348.606
  23501347.975          43.000          30.2504
 116833113.061 7  91038793.095 7  22232601.394    22232602.084    22232605.452
  22232605.980          46.500          46.750
 115115495.598 8  89700390.312 8  21905747.512    21905747.294    21905751.540
  21905751.293          49.500          49.750
 112816010.032 7  87908577.769 8  21468172.732    21468172.465    21468173.717
  21468173.553          46.750          48.250
 108307875.515 8  84395750.33147  20610302.317    20610301.874
  20610302.841          48.500          43.5004
 125621205.950 6  97886653.724 6  23904920.245    23904919.506    23904925.103
  23904925.173          37.750          39.500
 108349914.112 8  84428507.975 9  20618299.935    20618300.347    20618303.798
  20618303.642          51.500          54.500
 111138755.871 8  86601623.05347  21149000.830    21149000.599
  21149002.839          49.000          42.0004
 128006720.401 7  99745496.512 6  24358870.374    24358870.690    24358870.608
  24358870.585          42.500          37.750
 118112718.717 7  92035881.30245  22476102.943    22476102.493
  22476103.764          46.500          30.0004
 20  2 19  1 40 30.0000000  0 11G20G22G01G10G31G14G25G32G18G12G11
 127892830.328 6  99656749.01343  24337195.626    24337195.267
  24337197.892          38.250          21.5004
 123413721.904 7  96166536.53644  23484849.680    23484849.643
  23484849.108          43.000          29.5004
 116785983.044 7  91002068.392 7  22223633.154    22223633.319    22223636.643
  22223637.444          46.250          46.750
 115184689.147 8  89754307.335 8  21918913.959    21918914.123    21918918.194
  21918918.592          48.750          49.750
 112729140.297 7  87840887.057 8  21451641.919    21451641.626    21451642.538
  21451642.722          47.000          48.250
 108301976.828 8  84391153.95147  20609179.782    20609179.441
  20609180.428          48.000          43.5004
 125559663.700 6  97838698.722 6  23893209.561    23893209.137    23893213.786
  23893214.482          39.000          39.500
 108385107.492 8  84455931.377 9  20624997.226    20624997.459    20625000.945
  20625000.793          51.750          54.500
 111144788.911 7  86606324.10346  21150148.727    21150148.519
  21150150.857          47.750          41.7504
 127989456.514 6  99732044.098 6  24355584.583    24355584.556    24355586.090
  24355585.602          41.500          39.250
 118159281.780 7  92072164.20644  22484963.846    22484963.695
  22484964.009          47.000          29.5004
 20  2 19  1 41  0.0000000  0 11G20G22G01G10G31G14G25G32G18G12G11
 127995361.667 6  99736643.45443  24356706.735    24356707.144
  24356708.025          37.250          20.5004
 123327122.594 7  96099056.54645  23468370.339    23468369.869
  23468368.850          43.500          31.0004
 116739412.556 7  90965779.695 7  22214771.119    22214771.350    22214774.413
  22214775.260          46.750          46.750
 115254196.582 8  89808468.941 8  21932140.507    21932140.955    21932145.081
  21932145.427          48.000          49.750
 112642696.172 7  87773528.003 8  21435191.919    21435192.020    21435192.864
  21435192.938          47.250          48.500
 108296388.852 8  84386799.67747  20608116.463    20608116.002
  20608117.105          48.500          43.5004
 125498513.364 6  97791049.088 6  23881573.330    23881572.578    23881578.315
  23881577.768          39.000          40.500
 108420580.616 8  84483572.769 9  20631747.481    20631747.768    20631751.232
  20631751.045          52.000          54.500
 111151485.925 8  86611542.53946  21151423.390    21151423.362
  21151425.155          49.000          41.7504
 127972748.911 7  99719025.176 6  24352405.960    24352405.088    24352406.903
  24352406.212          42.750          39.500
 118206366.269 7  92108853.42844  22493924.158    22493923.400
  22493923.851          46.750          29.2504
 20  2 19  1 41 30.0000000  0 11G20G22G01G10G31G14G25G32G18G12G11
 128098023.775 6  99816639.81943  24376244.207    24376243.019
  24376245.122          36.500          19.0004
 123240631.667 7  96031660.99945  23451911.583    23451910.929
  23451910.611          43.250          30.5004
 116693403.497 7  90929928.466 7  22206015.793    22206016.115    22206019.647
  22206020.134          46.750          47.000
 115324017.517 8  89862874.853 8  21945427.693    21945427.697    21945431.106
  21945431.834          49.000          49.250
 112556680.161 7  87706502.539 8  21418823.610    21418823.624    21418824.937
  21418824.742          46.500          48.750
 108291111.124 7  84382687.15747  20607111.875    20607111.662
  20607112.859          47.500          43.0004
 125437758.123 6  97743707.334 6  23870012.406    23870011.119    23870015.741
  23870016.272          39.500          39.750
 108456332.653 8  84511431.480 9  20638551.231    20638551.187    20638554.598
  20638554.461          51.750          54.250
 111158846.800 8  86617278.28346  21152824.071    21152824.281
  21152825.528          48.500          41.7504
 127956599.269 6  99706441.013 6  24349331.644    24349331.720    24349333.186
  24349332.557          41.250          38.000
 118253969.866 7  92145947.12645  22502982.399    22502982.215
  22502983.034          46.500          30.0004
 20  2 19  1 42  0.0000000  0 10G22G01G10G31G14G25G32G18G12G11
 123154250.135 7  95964350.71545  23435473.644    23435473.490
  23435472.054          44.000          30.7504
 116647956.933 7  90894515.555 7  22197367.896    22197367.998    22197371.653
  22197371.962          47.500          47.250
 115394150.784 8  89917524.124 8  21958773.500    21958773.726    21958777.282
  21958777.774          49.000          49.500
 112471094.332 7  87639812.285 8  21402536.703    21402537.080    21402538.173
  21402538.114          46.750          48.250
 108286142.173 8  84378815.24347  20606166.308    20606166.132
  20606167.284          48.000          43.2504
 125377400.235 6  97696675.263 6  23858525.749    23858525.734    23858530.934
  23858530.640          39.500          40.750
 108492361.897 8  84539506.213 9  20645406.958    20645407.373    20645410.651
  20645410.540          51.750          54.250
 111166870.531 8  86623530.54447  21154350.717    21154350.894
  21154352.734          49.250          42.0004
 127941008.183 7  99694292.107 6  24346365.178    24346365.478    24346366.686
  24346366.141          42.250          38.250
 118302089.666 7  92183443.04944  22512138.700    22512139.049
  22512139.476          45.750          29.2504
 20  2 19  1 42 30.0000000  0 10G22G01G10G31G14G25G32G18G12G11
 123067979.317 7  95897126.72845  23419057.238    23419056.517
  23419055.610          43.250          31.2504
 116603074.705 7  90859542.379 7  22188826.790    22188827.223    22188831.012
  22188831.191          47.000          47.500
 115464596.000 8  89972416.484 8  21972179.362    21972179.156    21972182.630
  21972182.939          49.750          49.500
 112385941.077 7  87573459.094 8  21386333.036    21386333.038    21386333.755
  21386333.913          47.000          48.500
 108281481.598 8  84375183.62147  20605279.487    20605279.475
  20605280.348          48.000          43.2504
 125317442.861 6  97649955.235 6  23847115.899    23847115.819    23847120.726
  23847121.354          39.250          40.000
 108528667.547 8  84567796.316 9  20652315.979    20652316.073    20652319.284
  20652319.338          52.250          54.250
 111175556.747 8  86630299.01146  21156003.463    21156003.402
  21156005.939          48.000          41.7504
 127925977.073 6  99682579.514 6  24343504.410    24343504.549    24343506.238
  24343505.705          41.750          38.750
 118350723.483 7  92221339.52844  22521393.855    22521393.510
  22521394.422          46.000          29.5004
 20  2 19  1 43  0.0000000  0 10G22G01G10G31G14G25G32G18G12G11
 122981821.237 7  95829990.55645  23402661.630    23402660.798
  23402659.881          42.250          31.5004
 116558758.843 7  90825010.532 7  22180394.101    22180394.286    22180397.444
  22180398.137          47.000          47.250
 115535352.981 8  90027551.772 8  21985644.067    21985643.631    21985647.091
  21985647.511          49.500          48.750
 112301223.388 7  87507445.298 8  21370211.836    21370211.857    21370212.649
  21370212.713          47.000          48.500
 108277129.298 8  84371792.21347  20604451.448    20604451.031
  20604452.165          48.000          43.2504
 125257889.164 6  97603549.788 6  23835783.954    23835783.206    23835788.214
  23835788.356          40.500          40.250
 108565248.861 8  84596301.233 9  20659277.140    20659277.292    20659280.641
  20659280.507          52.250          54.500
 111184905.654 8  86637583.84647  21157782.769    21157782.513
  21157784.754          48.250          42.0004
 127911507.515 7  99671304.468 6  24340751.127    24340751.283    24340752.607
  24340752.910          42.000          39.250
 118399869.202 7  92259634.88244  22530746.214    22530746.358
  22530746.268          46.000          29.2504
 20  2 19  1 43 30.0000000  0 10G22G01G10G31G14G25G32G18G12G11
 122895776.305 7  95762942.57445  23386287.753    23386286.961
  23386286.841          44.000          31.7504
 116515009.590 7  90790920.197 7  22172068.960    22172068.984    22172072.512
  22172073.056          47.500          47.500
 115606419.777 8  90082928.471 8  21999167.339    21999167.116    21999170.433
  21999171.101          48.750          49.000
 112216942.120 7  87441771.592 8  21354173.797    21354173.766    21354174.591
  21354174.655          47.750          48.750
 108273082.993 8  84368639.24947  20603681.216    20603680.964
  20603682.234          48.250          43.2504
 125198740.717 6  97557460.143 6  23824528.453    23824527.811    23824533.763
  23824532.891          40.500          41.000
 108602103.439 8  84625019.080 9  20666290.168    20666290.490    20666293.750
  20666293.696          52.250          54.000
 111194914.937 8  86645383.27447  21159687.876    21159687.837
  21159689.479          49.500          42.2504
 127897599.358 7  99660466.927 6  24338105.152    24338105.114    24338104.899
  24338104.818          42.750          37.750
 118449522.846 7  92298326.02644  22540194.188    22540194.013
  22540195.656          45.250          29.2504
 20  2 19  1 44  0.0000000  0 10G22G01G10G31G14G25G32G18G12G11
 122809847.294 7  95695984.89345  23369935.843    23369935.419
  23369934.729          44.000          32.0004
 116471829.971 7  90757273.733 7  22163851.736    22163852.200    22163855.596
  22163856.102          47.500          47.500
 115677797.234 7  90138547.241 8  22012749.695    22012749.731    22012753.722
  22012753.974          47.750          49.000
 112133101.269 7  87376441.057 8  21338219.337    21338219.343    21338220.071
  21338220.162          47.750          48.250
 108269343.488 7  84365725.34747  20602969.910    20602969.346
  20602970.606          47.750          43.2504
 125140001.855 6  97511689.609 6  23813350.296    23813350.150    23813354.979
  23813354.974          40.750          41.000
 108639231.687 8  84653950.168 9  20673355.621    20673355.707    20673359.086
  20673359.023          52.250          54.000
 111205585.720 8  86653698.16946  21161718.103    21161718.114
  21161720.098          49.250          41.7504
 127884254.786 7  99650068.540 6  24335564.890    24335564.418    24335567.064
  24335567.033          42.000          38.750
 118499683.619 7  92337412.31444  22549740.269    22549739.406
  22549740.283          45.750          29.7504
 20  2 19  1 44 30.0000000  0 11G22G20G01G10G31G14G25G32G18G12G11
 122724035.204 7  95629118.33145  23353606.792    23353605.845
  23353605.516          43.750          32.7504
 128716664.598 6 100298701.90543  24493966.994    24493966.248
  24493966.969          38.250          22.7504
 116429221.072 7  90724071.987 8  22155743.603    22155744.006    22155747.674
  22155748.094          47.500          48.000
 115749484.070 8  90194407.107 8  22026391.459    22026391.125    22026395.554
  22026395.554          48.250          49.750
 112049702.595 7  87311455.074 8  21322349.007    21322349.092    21322350.346
  21322349.983          47.250          48.750
 108265909.466 7  84363049.47447  20602316.303    20602316.126
  20602317.201          47.500          43.2504
 125081674.832 6  97466240.020 6  23802251.814    23802251.067    23802255.770
  23802255.636          40.750          41.000
 108676631.949 8  84683093.221 9  20680472.592    20680472.842    20680476.152
  20680476.063          52.000          54.000
 111216916.765 8  86662527.55146  21163874.207    21163874.182
  21163876.160          49.000          41.5004
 127871474.660 7  99640109.974 6  24333132.901    24333133.355    24333135.146
  24333134.481          42.750          38.000
 118550348.430 7  92376891.38644  22559381.051    22559380.751
  22559381.512          45.500          29.2504
 20  2 19  1 45  0.0000000  0 11G22G20G01G10G31G14G25G32G18G12G11
 122638341.026 7  95562343.65345  23337299.648    23337298.801
  23337297.946          44.750          32.5004
 128820202.791 6 100379380.93943  24513670.006    24513668.918
  24513671.235          37.000          19.7504
 116387184.204 8  90691315.963 8  22147744.705    22147744.846    22147748.179
  22147748.811          48.000          48.000
 115821479.617 8  90250507.489 8  22040091.503    22040091.481    22040095.640
  22040096.008          48.000          49.500
 111966748.333 8  87246815.394 8  21306563.558    21306563.491    21306564.394
  21306564.362          48.000          48.750
 108262780.198 7  84360611.07947  20601720.786    20601720.698
  20601721.574          47.500          43.2504
 125023762.299 6  97421113.409 6  23791230.503    23791230.523    23791234.903
  23791235.638          39.750          41.500
 108714302.969 8  84712447.244 9  20687641.393    20687641.399    20687644.703
  20687644.594          52.750          54.000
 111228907.379 8  86671870.86147  21166156.208    21166155.957
  21166158.132          49.750          42.2504
 127859259.796 7  99630591.871 6  24330809.496    24330809.089    24330809.630
  24330810.279          43.000          38.250
 118601514.203 7  92416760.79944  22569117.867    22569117.303
  22569118.103          45.750          29.5004
 20  2 19  1 45 30.0000000  0 10G22G01G10G31G14G25G32G18G12G11
 122552767.127 7  95495662.70045  23321015.447    23321014.379
  23321013.562          44.250          32.2504
 116345721.517 7  90659007.375 7  22139854.455    22139854.883    22139857.919
  22139858.468          47.500          47.750
 115893783.747 8  90306848.351 8  22053850.879    22053850.543    22053854.432
  22053854.945          48.250          49.000
 111884241.349 7  87182524.232 8  21290862.845    21290862.789    21290863.475
  21290863.749          47.250          48.500
 108259955.656 7  84358410.12847  20601183.262    20601183.222
  20601184.168          47.500          43.2504
 124966267.731 6  97376312.483 7  23780290.392    23780289.721    23780294.856
  23780294.675          40.750          42.500
 108752244.358 8  84742011.956 9  20694861.107    20694861.304    20694864.704
  20694864.643          52.250          54.000
 111241557.340 8  86681727.96947  21168563.537    21168563.369
  21168565.530          50.000          42.2504
 127847612.235 7  99621515.819 6  24328592.614    24328592.785    24328592.968
  24328593.046          42.250          37.000
 118653179.299 7  92457019.30845  22578949.346    22578948.892
  22578950.190          45.750          30.0004
 20  2 19  1 46  0.0000000  0 10G22G01G10G31G14G25G32G18G12G11
 122467315.326 7  95429076.87345  23304754.983    23304754.123
  23304753.227          45.250          33.2504
 116304834.351 8  90627147.239 7  22132073.837    22132074.177    22132077.604
  22132077.964          48.000          47.750
 115966395.713 8  90363429.074 8  22067668.463    22067668.272    22067671.865
  22067672.475          48.250          48.500
 111802183.745 8  87118583.243 8  21275247.707    21275247.876    21275248.981
  21275248.516          48.000          48.750
 108257434.500 7  84356445.58747  20600703.552    20600703.367
  20600704.367          47.250          43.0004
 124909193.750 6  97331839.275 7  23769428.325    23769428.693    23769434.136
  23769433.885          39.250          42.500
 108790454.852 8  84771786.355 9  20702132.502    20702132.639    20702135.955
  20702135.917          52.750          54.000
 111254865.911 8  86692098.26846  21171095.690    21171095.662
  21171097.919          49.500          41.7504
 127836532.495 7  99612882.258 6  24326484.032    24326483.819    24326485.614
  24326484.764          42.750          38.250
 118705340.934 7  92497664.72245  22588875.224    22588875.004
  22588876.284          45.750          30.0004
 20  2 19  1 46 30.0000000  0 10G22G01G10G31G14G25G32G18G12G11
 122381987.344 7  95362587.54845  23288517.065    23288516.582
  23288515.715          44.500          32.7504
 116264524.839 7  90595737.227 7  22124403.304    22124403.426    22124406.825
  22124407.194          47.750          47.500
 116039315.518 8  90420249.698 8  22081545.029    22081544.595    22081548.948
  22081548.626          49.250          49.000
 111720578.664 8  87054994.864 8  21259718.964    21259719.023    21259719.901
  21259719.701          48.750          48.750
 108255217.153 7  84354717.77347  20600281.678    20600281.401
  20600282.431          46.250          43.5004
 124852543.813 6  97287696.476 7  23758649.106    23758648.271    23758653.411
  23758653.501          39.500          43.000
 108828934.074 8  84801770.153 9  20709454.675    20709454.938    20709458.286
  20709458.282          52.500          54.250
 111268832.907 8  86702981.63346  21173753.319    21173753.359
  21173755.743          49.500          41.7504
 127826022.377 7  99604692.510 6  24324484.910    24324484.275    24324485.628
  24324485.083          43.250          38.500
 118757996.846 7  92538695.28344  22598895.238    22598895.223
  22598896.283          45.500          29.7504
 20  2 19  1 47  0.0000000  0 10G22G01G10G31G14G25G32G18G12G11
 122296784.110 7  95296195.40445  23272303.297    23272303.025
  23272302.097          44.500          32.5004
 116224793.894 7  90564778.032 8  22116842.635    22116842.833    22116846.524
  22116846.882          47.500          48.000
 116112541.892 8  90477309.194 8  22095478.818    22095479.293    22095482.822
  22095483.337          48.250          48.250
 111639428.156 8  86991760.706 8  21244276.299    21244276.320    21244277.605
  21244277.245          48.250          49.000
 108253302.013 7  84353225.44847  20599917.092    20599916.817
  20599918.006          46.000          43.0004
 124796320.149 6  97243885.869 7  23747949.805    23747949.435    23747954.881
  23747954.913          39.500          43.250
 108867680.358 8  84831962.047 8  20716828.122    20716828.151    20716831.467
  20716831.431          53.000          53.750
 111283457.165 8  86714377.14746  21176536.898    21176536.812
  21176538.593          50.000          41.7504
 127816082.192 7  99596946.913 5  24322592.952    24322593.483    24322593.396
  24322593.012          42.750          35.750
 118811144.114 7  92580108.71044  22609008.893    22609008.823
  22609009.819          45.000          29.7504
 20  2 19  1 47 30.0000000  0 10G22G01G10G31G14G25G32G18G12G11
 122211707.630 7  95229902.03645  23256113.906    23256113.472
  23256112.755          45.250          33.0004
 116185643.017 7  90534270.856 7  22109392.707    22109392.757    22109395.862
  22109396.697          47.750          47.750
 116186074.264 8  90534607.117 8  22109472.212    22109471.981    22109475.340
  22109476.109          49.500          48.500
 111558734.093 8  86928882.216 8  21228921.136    21228920.932    21228922.023
  21228921.657          48.500          49.000
 108251688.713 7  84351968.32747  20599610.427    20599609.911
  20599611.095          45.000          43.2504
 124740525.609 6  97200409.614 7  23737332.245    23737331.893    23737337.364
  23737337.429          39.500          43.250
 108906692.782 8  84862361.326 9  20724251.737    20724252.066    20724255.400
  20724255.214          52.500          54.000
 111298737.820 8  86726284.14247  21179444.715    21179444.601
  21179446.735          50.750          42.0004
 127806712.702 7  99589646.020 6  24320809.484    24320809.842    24320810.305
  24320810.111          42.250          37.500
 118864780.184 7  92621903.04044  22619215.721    22619215.537
  22619215.908          45.750          29.7504
 20  2 19  1 48  0.0000000  0 10G22G01G10G31G14G25G32G18G12G11
 122126759.048 7  95163708.33745  23239948.728    23239947.789
  23239947.641          45.250          33.2504
 116147073.546 7  90504216.717 8  22102052.627    22102053.085    22102056.828
  22102057.224          47.250          48.250
 116259911.882 7  90592142.907 8  22123522.110    22123522.653    22123525.966
  22123526.817          47.750          48.000
 111478498.785 7  86866361.188 8  21213652.350    21213652.598    21213653.324
  21213653.481          47.750          49.000
 108250376.249 7  84350945.62247  20599360.478    20599360.339
  20599361.357          45.750          43.2504
 124685162.871 6  97157269.843 7  23726796.976    23726796.652    23726803.080
  23726802.495          38.250          43.500
 108945970.183 8  84892967.084 8  20731726.161    20731726.265    20731729.739
  20731729.522          52.500          53.750
 111314674.122 8  86738702.02646  21182476.692    21182476.984
  21182479.268          50.250          41.7504
 127797914.938 7  99582790.584 6  24319135.442    24319135.539    24319136.567
  24319136.758          42.000          38.250
 118918902.322 7  92664076.11145  22629514.669    22629514.465
  22629515.392          45.000          30.0004
 20  2 19  1 48 30.0000000  0 10G22G01G10G31G14G25G32G18G12G11
 122041939.323 7  95097615.05145  23223808.281    23223807.398
  23223806.987          45.250          33.2504
 116109086.356 7  90474616.301 8  22094824.086    22094824.299    22094828.380
  22094828.482          47.250          48.500
 116334053.528 8  90649915.593 8  22137631.517    22137631.358    22137635.013
  22137635.436          48.750          48.750
 111398723.796 8  86804198.868 8  21198472.001    21198471.995    21198472.919
  21198472.804          48.000          49.250
 108249363.462 7  84350156.42947  20599168.072    20599167.434
  20599168.527          46.000          43.2504
 124630234.176 6  97114468.268 7  23716344.845    23716344.310    23716349.280
  23716349.207          38.750          42.750
 108985511.015 8  84923778.109 8  20739250.349    20739250.640    20739253.768
  20739253.856          52.500          53.500
 111331264.790 8  86751629.79946  21185634.190    21185633.944
  21185636.071          50.000          41.2504
 127789689.448 7  99576381.106 6  24317570.216    24317569.851    24317570.870
  24317570.716          42.000          37.000
 118973507.423 7  92706625.52945  22639906.066    22639905.940
  22639905.977          45.250          30.0004
 20  2 19  1 49  0.0000000  0 10G22G01G10G31G14G25G32G18G12G11
 121957252.514 7  95031625.31945  23207692.471    23207691.673
  23207691.584          45.750          33.2504
 116071685.046 7  90445472.407 8  22087706.840    22087707.143    22087711.026
  22087711.305          47.500          48.500
 116408500.750 8  90707926.389 8  22151798.267    22151798.115    22151801.370
  22151802.247          48.750          48.000
 111319414.123 8  86742399.117 8  21183379.612    21183379.902    21183380.751
  21183380.700          48.250          49.250
 108248651.804 7  84349601.88747  20599032.213    20599032.119
  20599033.219          46.750          43.7504
 124575744.404 6  97072008.730 7  23705975.729    23705974.844    23705981.038
  23705980.357          38.250          42.500
 109025316.419 8  84954795.297 8  20746825.313    20746825.391    20746828.813
  20746828.602          52.750          53.750
 111348511.298 8  86765068.61946  21188916.316    21188916.236
  21188917.829          51.000          41.7504
 127782039.299 6  99570419.942 6  24316113.944    24316114.559    24316115.326
  24316114.393          41.000          36.750
 119028594.739 7  92749550.70044  22650388.302    22650388.217
  22650388.717          44.750          29.5004
 20  2 19  1 49 30.0000000  0 10G22G01G10G31G14G25G32G18G12G11
 121872698.546 7  94965739.10245  23191603.217    23191602.296
  23191601.504          46.250          34.0004
 116034869.503 7  90416784.970 8  22080700.983    22080701.393    22080705.142
  22080705.625          47.000          48.500
 116483251.345 8  90766173.583 8  22166022.855    22166022.671    22166026.927
  22166027.021          48.500          48.750
 111240570.503 8  86680962.533 8  21168376.448    21168376.443    21168377.239
  21168377.287          48.500          49.500
 108248239.124 7  84349280.30847  20598953.954    20598953.665
  20598954.642          46.500          43.5004
 124521694.940 6  97029892.273 7  23695690.543    23695690.036    23695695.060
  23695695.108          39.500          42.250
 109065383.931 8  84986016.726 8  20754449.701    20754449.898    20754453.196
  20754453.187          52.250          53.500
 111366411.063 8  86779016.49346  21192322.470    21192322.467
  21192324.296          51.000          41.7504
 127774963.705 6  99564906.446 6  24314767.727    24314767.601    24314769.550
  24314769.233          40.500          38.250
 119084160.444 7  92792848.61744  22660962.253    22660961.928
  22660963.020          44.750          29.7504
 20  2 19  1 50  0.0000000  0 10G22G01G10G31G14G25G32G18G12G11
 121788278.549 7  94899957.27945  23175537.798    23175537.513
  23175536.342          45.750          34.2504
 115998640.219 7  90388554.348 8  22073807.073    22073807.328    22073810.756
  22073811.480          47.500          48.750
 116558303.810 8  90824655.995 8  22180305.159    22180304.825    22180308.599
  22180308.975          49.250          48.000
 111162193.901 8  86619889.853 8  21153461.322    21153461.720    21153462.620
  21153462.687          48.250          49.500
 108248123.943 7  84349190.55447  20598931.879    20598931.605
  20598932.528          46.500          43.0004
 124468087.558 6  96988120.266 7  23685489.485    23685488.838    23685494.007
  23685494.031          39.250          42.250
 109105711.644 8  85017440.904 8  20762123.879    20762124.110    20762127.462
  20762127.248          53.000          53.500
 111384962.451 8  86793472.09946  21195852.646    21195852.459
  21195854.679          51.000          41.5004
 127768462.821 6  99559840.784 6  24313531.110    24313530.562    24313531.941
  24313531.494          40.000          37.500
 119140200.944 7  92836516.54844  22671625.888    22671625.930
  22671626.862          44.000          29.2504
 20  2 19  1 50 30.0000000  0 10G22G01G10G31G14G25G32G18G12G11
 121703994.029 7  94834281.02945  23159498.995    23159498.441
  23159497.989          46.000          34.0004
 115962998.797 7  90360781.795 8  22067024.696    22067025.011    22067028.469
  22067029.054          47.250          48.750
 116633657.625 8  90883373.227 7  22194644.382    22194644.343    22194647.014
  22194648.323          49.250          47.500
 111084286.814 7  86559183.034 8  21138636.469    21138636.342    21138637.609
  21138637.521          47.750          49.750
 108248305.529 7  84349332.03547  20598966.553    20598966.317
  20598967.183          46.250          43.2504
 124414925.209 6  96946695.034 7  23675372.952    23675372.564    23675377.790
  23675378.011          39.750          42.250
 109146298.778 8  85049067.233 9  20769847.396    20769847.516    20769850.844
  20769850.772          52.500          54.000
 111404164.570 8  86808434.76446  21199506.550    21199506.444
  21199508.667          50.750          41.7504
 127762537.711 6  99555223.814 6  24312403.804    24312403.483    24312404.619
  24312404.103          40.750          36.750
 119196713.564 7  92880552.32944  22682380.723    22682380.474
  22682380.793          44.250          29.7504
 20  2 19  1 51  0.0000000  0 10G22G01G10G31G14G25G32G18G12G11
 121619847.888 7  94768712.59945  23143486.676    23143486.323
  23143485.750          46.250          34.2504
 115927947.440 7  90333469.030 8  22060354.615    22060354.956    22060358.338
  22060359.023          47.250          48.500
 116709313.066 8  90942325.496 8  22209040.936    22209041.235    22209044.651
  22209045.197          49.500          48.000
 111006852.490 8  86498844.593 8  21123901.181    21123901.364    21123902.419
  21123902.159          48.500          49.500
 108248784.458 7  84349705.22647  20599057.771    20599057.349
  20599058.336          46.000          43.5004
 124362211.549 6  96905619.455 6  23665341.927    23665341.678    23665346.762
  23665346.389          39.750          41.750
 109187145.300 8  85080895.685 8  20777620.165    20777620.308    20777623.623
  20777623.653          52.750          53.750
 111424017.697 8  86823904.71646  21203284.604    21203284.481
  21203286.620          51.000          41.2504
 127757190.275 6  99551056.963 6  24311386.213    24311386.003    24311387.659
  24311387.418          40.750          38.000
 119253696.599 7  92924954.68744  22693223.515    22693223.347
  22693224.826          43.750          29.5004
 20  2 19  1 51 30.0000000  0 10G22G01G10G31G14G25G32G18G12G11
 121535841.116 7  94703252.77945  23127500.703    23127499.971
  23127499.699          46.250          34.2504
 115893487.029 7  90306616.755 8  22053797.058    22053797.250    22053800.883
  22053801.302          47.000          48.500
 116785269.012 8  91001511.921 8  22223495.018    22223495.070    22223499.010
  22223499.098          48.750          48.250
 110929892.766 8  86438875.976 8  21109256.040    21109256.320    21109257.102
  21109257.211          48.250          49.750
 108249559.190 7  84350308.90447  20599205.231    20599204.804
  20599205.878          45.000          43.2504
 124309948.880 6  96864895.288 6  23655396.492    23655396.004    23655400.618
  23655400.965          39.250          41.750
 109228249.723 8  85112925.088 8  20785441.994    20785442.238    20785445.695
  20785445.598          52.750          53.750
 111444520.154 8  86839880.65046  21207186.179    21207186.138
  21207187.996          50.750          41.2504
 127752420.343 6  99547340.069 6  24310478.085    24310478.535    24310479.035
  24310480.959          40.750          37.750
 119311146.736 7  92969721.00945  22704156.890    22704156.449
  22704156.997          44.250          30.2504
 20  2 19  1 52  0.0000000  0 10G22G01G10G31G14G25G32G18G12G11
 121451975.138 7  94637902.65245  23111542.050    23111540.928
  23111540.107          46.500          34.2504
 115859618.913 7  90280226.006 8  22047352.104    22047352.421    22047356.117
  22047356.372          46.750          48.250
 116861524.925 8  91060932.106 8  22238006.078    22238005.938    22238009.982
  22238010.205          49.250          48.500
 110853410.031 8  86379279.034 8  21094702.350    21094702.265    21094702.994
  21094703.114          49.000          49.750
 108250629.354 7  84351142.78947  20599409.034    20599408.569
  20599409.478          46.000          43.2504
 124258139.952 6  96824524.676 6  23645537.687    23645537.146    23645542.147
  23645542.234          39.500          41.250
 109269611.149 8  85145154.767 8  20793312.762    20793313.047    20793316.652
  20793316.330          52.250          53.500
 111465671.155 8  86856361.93146  21211210.917    21211211.000
  21211212.967          50.750          41.2504
 127748228.883 6  99544073.980 6  24309680.225    24309680.259    24309681.879
  24309680.594          39.250          36.000
 119369061.773 7  93014849.59445  22715177.319    22715177.081
  22715178.064          44.000          30.5004
 20  2 19  1 52 30.0000000  0 10G22G01G10G31G14G25G32G18G12G11
 121368251.321 7  94572663.30145  23095609.192    23095608.415
  23095608.518          46.000          34.0004
 115826343.983 7  90254297.473 8  22041019.891    22041020.395    22041023.763
  22041024.403          47.000          48.750
 116938079.480 8  91120584.960 8  22252574.014    22252573.871    22252577.346
  22252578.086          48.750          48.000
 110777405.936 8  86320055.061 8  21080238.882    21080238.984    21080239.981
  21080239.980          48.750          49.750
 108251993.742 7  84352205.93847  20599668.429    20599667.978
  20599669.136          47.500          43.2504
 124206786.981 6  96784509.399 6  23635765.607    23635765.000    23635770.910
  23635770.204          40.250          41.500
 109311228.202 8  85177583.621 8  20801232.409    20801232.608    20801235.973
  20801235.873          52.750          53.500
 111487469.290 8  86873347.47246  21215359.488    21215359.121
  21215361.105          51.500          41.5004
 127744616.501 6  99541259.159 6  24308992.417    24308992.598    24308994.017
  24308995.600          39.250          37.250
 119427438.240 7  93060337.72645  22726286.085    22726285.809
  22726286.985          43.750          30.2504
 20  2 19  1 53  0.0000000  0 10G22G01G10G31G14G25G32G18G12G11
 121284672.702 7  94507537.12145  23079705.138    23079704.671
  23079703.425          46.750          34.5004
 115793664.726 7  90228833.100 8  22034801.696    22034801.911    22034805.192
  22034805.862          47.000          48.500
 117014933.330 8  91180471.055 8  22267198.835    22267198.679    22267202.249
  22267202.864          49.000          48.000
 110701883.819 8  86261206.655 8  21065867.380    21065867.707    21065868.570
  21065868.650          49.250          50.000
 108253653.098 7  84353498.93347  20599984.285    20599983.891
  20599984.847          46.500          43.2504
 124155893.971 6  96744852.499 6  23626080.172    23626080.363    23626085.992
  23626085.719          38.750          41.500
 109353101.157 8  85210211.885 8  20809200.600    20809200.822    20809204.434
  20809204.101          53.250          53.500
 111509914.821 8  86890837.47746  21219630.531    21219630.150
  21219632.195          51.000          41.0004
 127741585.090 6  99538896.974 6  24308415.502    24308415.226    24308417.440
  24308415.213          39.250          36.000
 119486274.641 7  93106184.25045  22737481.796    22737481.689
  22737483.275          43.250          30.0004
 20  2 19  1 53 30.0000000  0 10G22G01G10G31G14G25G32G18G12G11
 121201240.136 7  94442524.70745  23063828.862    23063827.833
  23063827.250          46.750          34.5004
 115761581.019 7  90203832.803 8  22028696.302    22028696.576    22028700.329
  22028700.601          46.500          48.750
 117092084.419 8  91240588.769 8  22281880.078    22281880.083    22281883.983
  22281884.414          48.750          48.250
 110626844.605 8  86202734.535 8  21051588.239    21051588.350    21051589.280
  21051589.331          49.500          50.500
 108255605.273 7  84355020.09947  20600356.068    20600355.312
  20600356.361          45.750          43.0004
 124105462.195 6  96705555.021 6  23616484.120    23616483.380    23616489.084
  23616488.342          39.250          41.000
 109395227.742 8  85243037.784 8  20817217.056    20817217.184    20817220.448
  20817220.494          53.000          53.500
 111533005.235 8  86908829.99346  21224024.172    21224024.043
  21224025.897          50.500          40.5004
 127739133.873 6  99536986.930 6  24307949.252    24307948.931    24307950.677
  24307949.675          39.000          36.000
 119545566.843 7  93152385.94444  22748764.547    22748764.840
  22748765.659          42.750          29.7504
 20  2 19  1 54  0.0000000  0 10G22G01G10G31G14G25G32G18G12G11
 121117954.789 7  94377627.03145  23047979.616    23047978.793
  23047978.589          46.250          34.7504
 115730093.999 7  90179297.453 8  22022704.552    22022704.645    22022708.253
  22022708.891          46.750          48.500
 117169531.959 8  91300937.471 7  22296618.243    22296617.828    22296621.184
  22296622.251          48.250          47.750
 110552290.372 8  86144640.327 8  21037401.057    21037401.211    21037402.077
  21037402.059          49.500          50.250
 108257849.892 7  84356769.14447  20600782.938    20600782.638
  20600783.625          46.500          43.2504
 124055494.193 6  96666618.901 6  23606974.772    23606974.901    23606980.448
  23606980.509          39.750          41.250
 109437606.884 8  85276060.476 8  20825281.458    20825281.744    20825285.180
  20825285.013          53.000          53.500
 111556739.483 8  86927324.19646  21228540.760    21228540.782
  21228542.870          50.750          40.7504
 127737263.939 6  99535529.817 6  24307593.803    24307593.979    24307594.822
  24307593.969          41.250          36.000
 119605312.459 7  93198940.93744  22760134.504    22760133.881
  22760134.984          43.500          29.7504
 20  2 19  1 54 30.0000000  0 10G22G01G10G31G14G25G32G18G12G11
 121034818.954 7  94312845.86645  23032159.297    23032158.897
  23032157.926          46.250          34.5004
 115699205.724 7  90155228.642 8  22016826.941    22016826.857    22016830.717
  22016831.066          46.500          48.750
 117247276.072 8  91361517.281 8  22311412.162    22311412.100    22311416.411
  22311416.325          48.750          48.250
 110478224.158 8  86086926.386 8  21023306.609    21023306.706    21023307.872
  21023307.682          49.500          50.250
 108260386.558 7  84358745.76347  20601265.308    20601265.207
  20601266.148          46.250          43.0004
 124005993.502 6  96628046.942 6  23597555.866    23597555.448    23597560.130
  23597560.313          40.250          41.250
 109480238.508 8  85309279.917 8  20833394.198    20833394.301    20833397.704
  20833397.627          53.500          53.750
 111581117.142 8  86946319.76446  21233179.619    21233179.442
  21233181.795          50.750          40.5004
 127735976.376 6  99534526.547 5  24307349.510    24307349.247    24307348.405
  24307348.678          40.000          34.750
 119665508.973 7  93245847.30445  22771589.913    22771589.377
  22771590.263          43.250          30.2504
 20  2 19  1 55  0.0000000  0 10G22G01G10G31G14G25G32G18G12G11
 120951833.986 7  94248182.24945  23016368.094    23016367.208
  23016366.266          46.750          35.0004
 115668916.739 7  90131626.830 8  22011063.013    22011063.041    22011066.679
  22011067.176          46.500          48.750
 117325315.472 7  91422327.157 7  22326262.272    22326262.526    22326266.151
  22326266.735          47.750          47.750
 110404647.552 8  86029593.959 8  21009305.705    21009305.617    21009306.613
  21009306.451          50.000          50.000
 108263214.278 7  84360949.16747  20601803.771    20601803.332
  20601804.281          46.500          43.0004
 123956962.084 6  96589840.666 6  23588225.108    23588225.053    23588229.764
  23588230.201          40.500          41.500
 109523120.999 8  85342694.818 8  20841554.264    20841554.515    20841557.992
  20841557.852          53.000          53.500
 111606136.669 8  86965815.47546  21237940.555    21237940.652
  21237942.673          50.250          40.2504
 127735270.916 6  99533976.804 6  24307214.778    24307215.055    24307216.258
  24307216.378          39.250          36.500
 119726152.889 7  93293102.27145  22783129.743    22783129.831
  22783129.986          43.000          30.0004
 20  2 19  1 55 30.0000000  0 10G22G01G10G31G14G25G32G18G12G11
 120869002.190 7  94183637.97245  23000605.883    23000605.144
  23000604.531          47.000          35.5004
 115639228.396 7  90108493.039 8  22005413.087    22005413.474    22005417.249
  22005417.754          45.750          48.750
 117403649.579 7  91483366.698 7  22341168.781    22341168.880    22341172.337
  22341173.287          47.500          47.500
 110331562.735 8  85972644.741 8  20995397.723    20995397.948    20995398.920
  20995398.913          49.250          50.250
 108266332.587 7  84363379.01547  20602396.771    20602396.732
  20602397.714          46.000          43.2504
 123908402.711 6  96552002.181 6  23578985.140    23578984.458    23578989.098
  23578989.425          40.750          41.500
 109566253.664 8  85376304.675 8  20849762.333    20849762.483    20849766.085
  20849765.731          53.500          53.500
 111631797.094 8  86985810.59246  21242823.881    21242823.557
  21242825.496          50.500          40.0004
 127735148.696 6  99533881.576 6  24307191.542    24307192.323    24307193.225
  24307192.759          39.250          36.250
 119787242.177 7  93340704.29945  22794754.558    22794754.138
  22794754.502          43.000          30.0004
