     2.11           OBSERVATION DATA    G (GPS)             RINEX VERSION / TYPE
teqc  2018Jun8                          20200101 02:12:02UTCPGM / RUN BY / DATE
Linux 2.4.20-8|x86|gcc -static|Linux 32|=+                  COMMENT
BIT 2 OF LLI FLAGS DATA COLLECTED UNDER A/S CONDITION       COMMENT
POL2                                                        MARKER NAME
GGN                 JPL                                     OBSERVER / AGENCY
02563                 Javad Delta-3             1s jps      REC # / TYPE / VERS
383-1030            TPSCR.G3                                ANT # / TYPE
  1239971.4511  4530790.0876  4302578.7950                  APPROX POSITION XYZ
        0.0780        0.0000        0.0000                  ANTENNA: DELTA H/E/N
     1     1                                                WAVELENGTH FACT L1/2
     8    L1    L2    C1    P1    C2    P2    S1    S2      # / TYPES OF OBSERV
    30.0000                                                 INTERVAL
Forced Modulo Decimation to 30 seconds                      COMMENT
 SNR is mapped to RINEX snr flag value [0-9]                COMMENT
  L1 & L2: min(max(int(snr_dBHz/6), 0), 9)                  COMMENT
teqc edited: all GLONASS satellites excluded                COMMENT
teqc edited: all SBAS satellites excluded                   COMMENT
teqc edited: all Galileo satellites excluded                COMMENT
teqc edited: all Beidou satellites excluded                 COMMENT
teqc edited: all QZSS satellites excluded                   COMMENT
teqc edited: all IRNSS satellites excluded                  COMMENT
pseudorange smoothing corrections not applied               COMMENT
  2020     1     1     0     0    0.0000000     GPS         TIME OF FIRST OBS
                                                            END OF HEADER
 20  1  1  0  0  0.0000000  0  9G16G21G05G13G10G20G29G26G15
 125553756.230 6  97834096.64744  23892086.243    23892084.867
  23892086.812          41.750          26.0004
 112247252.325 8  87465394.56047  21359940.108    21359939.596
  21359940.829          49.750          45.2504
 127659289.040 7  99474773.539 6  24292753.716    24292754.503    24292756.015
  24292754.559          42.750          41.500
 115943783.393 7  90345806.22146  22063366.491    22063366.055
  22063367.396          46.000          37.5004
 126365484.385 6  98466612.593 7  24046552.758    24046552.146    24046555.426
  24046556.198          41.750          43.500
 112953308.076 7  88015563.40746  21494299.383    21494298.825
  21494300.954          47.250          41.2504
 112497542.329 8  87660428.183 8  21407571.609    21407571.710    21407573.340
  21407573.413          52.750          50.000
 126908407.034 6  98889668.490 7  24149869.054    24149868.406    24149873.876
  24149873.656          40.000          42.250
 109232301.567 9  85116079.682 8  20786214.924    20786215.102    20786216.401
  20786216.271          54.000          52.250
 20  1  1  0  0 30.0000000  0  9G16G21G05G13G10G20G29G26G15
 125567603.773 6  97844886.92944  23894720.722    23894720.322
  23894720.855          41.250          25.5004
 112211780.058 8  87437753.83047  21353189.874    21353189.394
  21353190.763          49.500          45.2504
 127760184.669 6  99553393.479 6  24311952.832    24311953.411    24311954.913
  24311954.589          41.750          41.000
 115968085.498 7  90364742.95246  22067990.442    22067990.446
  22067992.013          45.750          37.0004
 126275038.031 6  98396134.905 7  24029340.737    24029340.877    24029345.060
  24029345.122          41.500          43.500
 112887069.992 7  87963949.32646  21481694.823    21481694.120
  21481695.990          47.000          41.0004
 112578138.666 8  87723230.522 8  21422908.592    21422908.727    21422910.431
  21422910.346          52.750          50.000
 126960904.984 6  98930575.990 7  24159858.312    24159857.839    24159863.701
  24159864.311          38.750          42.250
 109211436.208 9  85099820.967 8  20782244.245    20782244.522    20782245.909
  20782245.779          54.250          52.000
 20  1  1  0  1  0.0000000  0  9G16G21G05G13G10G20G29G26G15
 125582010.870 6  97856113.22444  23897462.557    23897462.088
  23897462.764          41.250          24.7504
 112176490.698 8  87410255.62947  21346474.776    21346474.075
  21346475.350          49.750          45.7504
 127861096.911 7  99632026.395 7  24331156.393    24331156.653    24331159.188
  24331159.063          42.250          42.750
 115993000.704 7  90384157.38646  22072732.134    22072731.785
  22072733.309          46.750          37.0004
 126184752.816 7  98325782.773 7  24012160.213    24012160.212    24012164.328
  24012164.179          42.000          43.250
 112821114.506 7  87912555.44846  21469143.952    21469143.094
  21469145.465          47.000          41.5004
 112659158.817 8  87786363.106 8  21438326.439    21438326.230    21438327.854
  21438328.082          52.500          49.750
 127013770.999 6  98971770.288 7  24169919.563    24169918.997    24169923.544
  24169923.656          40.000          42.250
 109191210.892 9  85084060.991 8  20778395.665    20778395.723    20778397.084
  20778397.050          54.250          52.000
 20  1  1  0  1 30.0000000  0  9G16G21G05G13G10G20G29G26G15
 125596976.209 6  97867774.54144  23900309.647    23900309.280
  23900311.235          41.250          26.0004
 112141385.037 8  87382900.56547  21339794.227    21339793.677
  21339795.030          49.000          45.5004
 127962024.375 7  99710671.160 6  24350362.515    24350362.945    24350363.791
  24350363.621          42.750          40.750
 116018527.954 7  90404048.76346  22077589.548    22077589.619
  22077590.917          46.000          37.2504
 126094629.096 7  98255556.506 7  23995010.216    23995010.540    23995014.392
  23995014.919          42.250          43.500
 112755442.341 7  87861382.33846  21456646.594    21456646.056
  21456648.114          46.750          41.2504
 112740600.675 8  87849824.286 8  21453824.108    21453823.862    21453825.903
  21453825.860          52.250          50.500
 127067002.240 6  99013249.163 7  24180047.551    24180047.524    24180053.758
  24180053.854          38.000          42.500
 109171626.354 9  85068800.325 8  20774668.997    20774668.886    20774670.738
  20774670.309          54.250          52.250
 20  1  1  0  2  0.0000000  0  9G16G21G05G13G10G20G29G26G15
 125612499.537 6  97879870.62144  23903264.808    23903263.444
  23903264.801          41.250          25.0004
 112106464.944 8  87355690.10847  21333149.320    21333148.586
  21333149.971          49.250          45.5004
 128062966.509 6  99789327.353 7  24369570.934    24369571.243    24369574.509
  24369573.554          41.250          42.750
 116044667.293 7  90424417.09246  22082564.235    22082563.742
  22082565.078          46.750          37.0004
 126004668.815 7  98185457.556 7  23977891.885    23977891.486    23977896.042
  23977895.934          43.000          44.000
 112690054.643 7  87810430.89146  21444204.168    21444203.352
  21444205.550          47.250          41.5004
 112822462.999 8  87913613.095 8  21469401.768    21469401.792    21469403.923
  21469403.752          52.000          50.000
 127120597.197 6  99055011.482 7  24190247.577    24190247.379    24190252.283
  24190252.687          39.500          42.250
 109152683.773 9  85054039.881 8  20771064.102    20771064.377    20771065.429
  20771065.648          54.500          52.250
 20  1  1  0  2 30.0000000  0  9G16G21G05G13G10G20G29G26G15
 125628579.391 6  97892400.39044  23906323.261    23906323.120
  23906324.463          40.250          24.7504
 112071731.506 8  87328625.09647  21326539.749    21326539.006
  21326540.296          48.750          45.2504
 128163921.575 7  99867993.607 6  24388782.597    24388782.384    24388783.342
  24388783.713          42.000          40.250
 116071417.973 7  90445261.78246  22087654.669    22087654.559
  22087655.446          46.250          37.2504
 125914872.572 6  98115486.457 7  23960803.608    23960803.811    23960808.380
  23960809.350          41.750          44.750
 112624951.741 7  87759701.36846  21431815.260    21431814.694
  21431816.341          47.000          41.2504
 112904743.366 8  87977727.671 8  21485059.327    21485059.147    21485061.214
  21485061.078          51.750          49.750
 127174553.211 6  99097055.150 6  24200513.930    24200515.118    24200518.738
  24200520.139          38.500          41.750
 109134384.296 9  85039780.563 8  20767581.820    20767582.047    20767583.652
  20767583.187          54.750          52.000
 20  1  1  0  3  0.0000000  0  9G16G21G05G13G10G20G29G26G15
 125645213.706 6  97905362.16944  23909488.588    23909488.300
  23909490.214          41.000          25.0004
 112037184.014 8  87301704.97547  21319965.581    21319964.886
  21319966.268          48.750          45.5004
 128264887.440 6  99946668.316 6  24407996.170    24407994.880    24407997.617
  24407997.690          41.250          41.750
 116098777.819 7  90466581.14046  22092860.867    22092860.945
  22092861.606          46.500          37.2504
 125825239.910 7  98045642.832 7  23943747.630    23943747.609    23943750.803
  23943752.317          42.000          44.000
 112560133.209 7  87709193.43446  21419480.686    21419479.843
  21419482.023          47.000          41.2504
 112987438.857 8  88042165.697 8  21500795.752    21500795.769    21500797.699
  21500797.903          51.500          50.250
 127228866.441 6  99139377.145 6  24210850.224    24210849.614    24210854.352
  24210854.323          38.750          40.750
 109116726.972 9  85026021.619 8  20764221.772    20764221.829    20764223.515
  20764223.092          54.500          52.000
 20  1  1  0  3 30.0000000  0  9G16G21G05G13G10G20G29G26G15
 125662402.802 6  97918756.27544  23912760.593    23912759.698
  23912761.080          41.500          26.2504
 112002825.203 8  87274931.87747  21313427.268    21313426.758
  21313427.991          49.000          45.5004
 128365864.145 6 100025351.420 6  24427210.798    24427210.583    24427212.160
  24427211.515          40.250          40.750
 116126747.039 7  90488375.35546  22098183.072    22098182.944
  22098184.170          46.750          37.2504
 125735773.227 6  97975928.512 7  23926722.345    23926722.404    23926726.769
  23926726.526          41.500          44.250
 112495600.848 7  87658908.47846  21407200.411    21407199.750
  21407202.077          47.250          41.5004
 113070548.917 8  88106926.775 8  21516611.196    21516611.159    21516613.197
  21516612.915          51.750          49.750
 127283535.873 6  99181976.714 7  24221253.698    24221253.309    24221258.615
  24221259.021          40.000          42.500
 109099714.174 9  85012764.910 8  20760984.243    20760984.338    20760985.863
  20760985.630          54.750          52.000
 20  1  1  0  4  0.0000000  0  9G16G21G05G13G10G20G29G26G15
 125680144.160 6  97932580.70644  23916135.169    23916135.858
  23916137.021          40.500          25.5004
 111968654.985 8  87248305.73547  21306925.228    21306924.152
  21306925.504          49.000          45.7504
 128466849.128 6 100104041.053 6  24446426.867    24446427.347    24446429.579
  24446429.052          38.750          39.750
 116155324.143 7  90510643.22246  22103621.449    22103620.912
  22103622.316          46.500          37.0004
 125646472.166 7  97906343.267 7  23909729.439    23909729.239    23909732.813
  23909733.531          42.000          44.000
 112431354.063 7  87608846.06346  21394974.795    21394974.250
  21394976.375          47.000          41.7504
 113154070.250 8  88172008.333 8  21532504.961    21532504.627    21532506.730
  21532506.515          51.750          49.750
 127338557.921 6  99224851.034 7  24231722.324    24231723.061    24231729.253
  24231729.737          38.250          42.500
 109083345.142 9  85000009.828 8  20757869.265    20757869.463    20757870.862
  20757870.685          55.000          52.250
 20  1  1  0  4 30.0000000  0 10G16G21G05G13G10G20G27G29G26G15
 125698437.007 6  97946834.87543  23919617.109    23919616.470
  23919617.606          40.250          23.7504
 111934674.693 8  87221827.59047  21300458.809    21300458.026
  21300459.188          48.750          45.7504
 128567842.014 6 100182736.815 6  24465645.171    24465644.748    24465647.264
  24465646.851          39.500          40.250
 116184508.713 7  90533384.45146  22109175.069    22109174.581
  22109175.925          46.500          36.7504
 125557338.267 6  97836888.269 7  23892767.930    23892767.189    23892771.658
  23892772.162          41.250          44.750
 112367394.079 7  87559007.12546  21382803.592    21382803.085
  21382804.743          47.000          41.5004
 130988360.513 6                  24926256.691
                        36.750
 113238001.750 8  88237409.487 8  21548476.494    21548476.370    21548478.340
  21548478.280          51.250          49.750
 127393930.619 6  99267998.596 6  24242260.640    24242259.699    24242265.116
  24242265.734          39.500          41.250
 109067621.356 9  84987757.538 8  20754877.280    20754877.361    20754878.614
  20754878.504          54.500          52.250
 20  1  1  0  5  0.0000000  0  9G16G21G05G13G10G20G29G26G15
 125717280.284 6  97961517.96144  23923202.850    23923202.625
  23923204.141          40.750          24.2504
 111900884.745 8  87195497.76647  21294028.791    21294027.986
  21294029.156          48.750          45.7504
 128668841.056 6 100261437.354 6  24484865.244    24484866.777    24484865.537
  24484865.362          41.000          37.000
 116214298.851 7  90556597.55346  22114843.607    22114843.841
  22114844.605          46.750          37.2504
 125468371.608 6  97767563.596 7  23875837.313    23875837.139    23875841.225
  23875841.743          41.750          43.750
 112303720.822 7  87509391.60646  21370687.097    21370686.333
  21370688.413          47.250          41.5004
 113322340.415 8  88303127.925 8  21564525.594    21564525.533    21564527.603
  21564527.551          51.250          49.750
 127449650.807 6  99311416.926 7  24252862.924    24252862.903    24252869.210
  24252869.406          38.750          42.250
 109052542.548 9  84976007.830 8  20752007.953    20752008.062    20752009.482
  20752009.256          54.500          52.500
 20  1  1  0  5 30.0000000  0  9G16G21G05G13G10G20G29G26G15
 125736672.250 6  97976628.55844  23926891.971    23926892.394
  23926894.301          40.250          25.2504
 111867286.155 8  87169317.05247  21287635.141    21287634.394
  21287635.547          48.750          45.5004
 128769844.914 6 100340141.658 6  24504085.955    24504085.711    24504087.200
  24504086.197          41.500          37.750
 116244694.126 7  90580282.19246  22120627.221    22120627.612
  22120628.792          46.250          37.2504
 125379573.253 7  97698370.037 7  23858940.055    23858940.287    23858943.276
  23858944.200          42.000          44.000
 112240334.915 7  87460000.00646  21358625.058    21358624.361
  21358626.420          47.000          41.7504
 113407084.304 8  88369162.113 8  21580651.762    21580651.655    21580653.661
  21580653.762          50.500          49.750
 127505716.104 6  99355104.176 6  24263533.055    24263532.307    24263537.270
  24263537.771          39.250          41.250
 109038109.512 9  84964761.324 8  20749261.452    20749261.492    20749263.115
  20749262.814          54.500          52.750
 20  1  1  0  6  0.0000000  0  9G16G21G05G13G10G20G29G26G15
 125756611.772 6  97992165.82844  23930687.557    23930686.488
  23930688.050          40.000          25.0004
 111833880.100 8  87143286.36447  21281278.043    21281277.257
  21281278.779          48.250          45.7504
 128870852.492 6 100418848.853 6  24523306.029    24523306.215    24523309.025
  24523308.466          40.250          38.750
 116275692.969 7  90604437.13646  22126526.603    22126526.565
  22126527.220          46.750          36.7504
 125290943.900 7  97629308.199 7  23842075.132    23842074.804    23842078.110
  23842078.992          42.500          44.500
 112177236.583 7  87410832.48346  21346617.898    21346617.241
  21346619.332          46.750          41.7504
 113492231.684 8  88435510.710 8  21596854.763    21596854.686    21596856.527
  21596856.603          50.500          49.750
 127562123.794 6  99399058.213 7  24274266.152    24274265.851    24274271.862
  24274271.819          38.750          42.000
 109024322.906 9  84954018.520 8  20746637.803    20746638.040    20746639.615
  20746639.246          54.750          52.500
 20  1  1  0  6 30.0000000  0  9G16G21G05G13G10G20G29G26G15
 125777097.017 6  98008128.33944  23934585.544    23934584.796
  23934586.462          40.000          24.7504
 111800666.258 8  87117405.45747  21274957.604    21274956.976
  21274958.253          48.000          45.7504
 128971861.835 7 100497557.471 5  24542528.548    24542527.820    24542526.814
  24542527.984          42.500          33.750
 116307293.432 7  90629060.89146  22132539.934    22132539.993
  22132541.288          46.750          37.0004
 125202483.397 6  97560377.913 7  23825240.491    23825241.133    23825245.160
  23825245.202          41.750          45.000
 112114425.772 7  87361889.00546  21334665.328    21334664.683
  21334666.784          46.750          41.7504
 113577779.094 8  88502171.018 8  21613134.001    21613133.956    21613135.996
  21613135.967          50.250          49.750
 127618870.422 6  99443276.376 6  24285064.675    24285065.612    24285070.229
  24285071.401          38.750          41.250
 109011182.116 9  84943778.955 8  20744137.332    20744137.405    20744138.813
  20744138.638          54.750          52.500
 20  1  1  0  7  0.0000000  0  9G16G21G05G13G10G20G29G26G15
 125798127.951 6  98024516.08644  23938587.741    23938587.201
  23938588.196          40.750          25.5004
 111767647.312 7  87091676.41447  21268674.460    21268673.703
  21268675.046          47.750          45.7504
 129072872.667 7 100576267.295 6  24561749.986    24561750.271    24561751.152
  24561751.149          42.250          36.250
 116339496.558 7  90654154.23946  22138667.887    22138668.107
  22138669.445          46.750          37.0004
 125114194.062 7  97491581.029 7  23808439.920    23808440.300    23808444.045
  23808444.192          42.250          45.000
 112051904.236 7  87313170.93647  21322767.736    21322767.227
  21322769.230          46.250          42.0004
 113663726.036 8  88569142.651 8  21629488.982    21629489.282    21629491.167
  21629491.042          50.750          49.500
 127675954.850 6  99487757.736 6  24295928.450    24295927.957    24295933.322
  24295933.586          39.000          41.750
 108998689.229 9  84934044.250 8  20741759.802    20741760.168    20741761.704
  20741761.296          54.750          52.250
 20  1  1  0  7 30.0000000  0  9G16G21G05G13G10G20G29G26G15
 125819701.986 6  98041327.00544  23942693.790    23942692.354
  23942694.711          40.000          25.2504
 111734822.883 8  87066098.94747  21262428.066    21262427.380
  21262428.717          48.500          45.7504
 129173883.126 7 100654976.761 6  24580971.330    24580971.669    24580973.104
  24580972.465          42.250          38.500
 116372300.275 7  90679715.58246  22144910.481    22144910.691
  22144911.433          47.000          36.7504
 125026076.028 7  97422917.631 7  23791671.930    23791672.211    23791675.698
  23791676.052          42.500          45.000
 111989671.888 7  87264678.20347  21310925.259    21310924.608
  21310926.826          47.000          42.0004
 113750070.047 8  88636423.685 8  21645919.516    21645919.695    21645921.950
  21645921.709          50.500          49.250
 127733373.856 6  99532499.810 6  24306854.716    24306854.405    24306860.349
  24306859.815          38.000          41.250
 108986843.826 9  84924814.069 8  20739505.907    20739505.890    20739507.298
  20739507.161          54.250          52.250
 20  1  1  0  8  0.0000000  0  9G16G21G05G13G10G20G29G26G15
 125841818.253 6  98058560.44844  23946901.510    23946901.139
  23946903.070          40.000          25.2504
 111702195.255 8  87040674.83147  21256219.403    21256218.578
  21256219.959          48.000          45.7504
 129274892.162 7 100733685.080 6  24600194.166    24600193.778    24600194.311
  24600194.169          44.250          39.000
 116405703.004 7  90705743.68446  22151267.051    22151266.259
  22151268.013          46.750          36.7504
 124938129.839 7  97354388.115 7  23774936.485    23774936.975    23774940.495
  23774940.095          43.000          44.250
 111927729.324 7  87216411.30047  21299138.064    21299137.423
  21299139.581          46.500          42.0004
 113836808.572 8  88704012.141 8  21662425.732    21662425.739    21662427.362
  21662427.335          50.500          49.000
 127791124.580 6  99577500.373 6  24317844.280    24317843.555    24317849.196
  24317849.034          38.750          40.500
 108975646.292 9  84916088.728 8  20737374.875    20737374.998    20737376.527
  20737376.249          54.250          52.500
 20  1  1  0  8 30.0000000  0  9G16G21G05G13G10G20G29G26G15
 125864475.188 6  98076215.18544  23951212.959    23951212.849
  23951214.241          40.000          25.7504
 111669764.462 7  87015404.09447  21250047.957    21250047.188
  21250048.484          47.750          45.7504
 129375898.270 7 100812391.157 6  24619413.498    24619413.614    24619415.352
  24619414.791          42.500          38.500
 116439703.641 7  90732237.68846  22157736.733    22157736.593
  22157737.678          46.500          36.5004
 124850356.301 7  97285993.149 7  23758233.078    23758233.241    23758236.957
  23758237.878          42.500          44.500
 111866076.675 7  87168370.28147  21287405.925    21287405.374
  21287407.491          46.250          42.2504
 113923939.376 8  88771906.262 8  21679005.828    21679005.978    21679007.948
  21679007.859          50.250          48.750
 127849204.423 6  99622757.430 6  24328896.580    24328895.994    24328901.490
  24328902.088          38.250          41.250
 108965096.970 9  84907868.484 8  20735367.418    20735367.619    20735368.803
  20735368.691          54.500          52.250
 20  1  1  0  9  0.0000000  0  9G16G21G05G13G10G20G29G26G15
 125887671.169 6  98094289.95544  23955627.824    23955626.742
  23955628.132          39.750          25.0004
 111637531.700 7  86990287.66147  21243914.139    21243913.487
  21243914.911          47.750          45.7504
 129476900.662 7 100891094.329 6  24638633.970    24638633.731    24638634.132
  24638633.641          43.000          37.250
 116474301.130 7  90759196.77646  22164320.131    22164320.545
  22164321.570          46.750          36.2504
 124762756.072 7  97217733.236 7  23741563.543    23741563.609    23741567.205
  23741568.047          42.750          44.500
 111804714.012 7  87120555.25047  21275729.035    21275728.356
  21275730.543          46.500          42.5004
 114011460.193 8  88840104.289 8  21695660.396    21695660.490    21695662.651
  21695662.568          50.000          49.000
 127907610.664 6  99668268.773 6  24340010.248    24340010.400    24340014.615
  24340015.928          39.000          41.000
 108955196.272 9  84900153.663 8  20733483.416    20733483.639    20733484.748
  20733484.812          54.250          52.250
 20  1  1  0  9 30.0000000  0 10G27G16G21G05G13G10G20G29G26G15
 129959058.040 6                  24730386.382
                        37.000
 125911405.363 6  98112784.13444  23960143.675    23960143.499
  23960144.713          39.250          24.2504
 111605498.523 8  86965326.75747  21237818.413    21237817.791
  21237819.261          48.500          45.7504
 129577898.557 6 100969794.031 6  24657851.966    24657852.288    24657854.399
  24657853.260          40.250          38.750
 116509494.616 7  90786620.28446  22171017.593    22171017.281
  22171019.069          47.500          36.7504
 124675330.414 7  97149609.352 7  23724926.324    23724926.882    23724930.656
  23724931.292          42.250          44.250
 111743642.888 7  87072967.37547  21264107.868    21264107.100
  21264108.841          47.250          42.7504
 114099369.379 8  88908604.943 8  21712389.508    21712389.317    21712391.292
  21712391.151          50.250          48.750
 127966341.104 6  99714032.749 6  24351187.031    24351186.725    24351192.029
  24351191.672          39.000          41.250
 108945944.820 9  84892944.744 8  20731722.872    20731723.047    20731724.386
  20731724.291          54.500          52.250
 20  1  1  0 10  0.0000000  0 10G27G16G21G05G13G10G20G29G26G15
 129857190.324 6 101187417.724 6  24711000.185    24711000.090    24711003.774
  24711004.898          39.000          41.250
 125935675.716 6  98131696.07844  23964761.478    23964761.903
  23964762.943          39.250          25.5004
 111573665.218 7  86940521.59547  21231760.660    21231760.026
  21231761.499          47.750          46.0004
 129678890.052 7 101048488.716 6  24677071.733    24677071.789    24677073.387
  24677073.040          43.250          41.000
 116545282.886 7  90814507.23846  22177827.709    22177827.795
  22177829.344          47.250          36.7504
 124588079.637 7  97081621.745 7  23708323.630    23708323.754    23708328.373
  23708328.385          42.750          44.750
 111682863.149 7  87025606.55547  21252541.408    21252540.952
  21252543.032          46.750          42.5004
 114187664.375 8  88977406.220 8  21729191.136    21729191.240    21729193.101
  21729193.107          49.750          49.000
 128025392.672 6  99760046.970 6  24362423.648    24362423.921    24362428.924
  24362429.350          38.500          40.500
 108937342.467 9  84886241.623 8  20730085.760    20730086.019    20730087.753
  20730087.321          54.250          52.750
 20  1  1  0 10 30.0000000  0 10G27G16G21G05G13G10G20G29G26G15
 129755526.043 6 101108198.774 6  24691655.038    24691654.712    24691658.171
  24691658.869          40.250          39.750
 125960481.203 6  98151025.01544  23969483.041    23969481.978
  23969484.021          38.750          24.7504
 111542032.863 8  86915873.01147  21225741.410    21225740.663
  21225742.099          48.250          45.7504
 129779873.829 6 101127177.352 6  24696287.371    24696287.225    24696290.135
  24696289.813          41.250          41.500
 116581664.436 7  90842856.49546  22184750.962    22184750.709
  22184752.131          47.000          36.7504
 124501004.661 7  97013771.123 7  23691753.865    23691753.398    23691757.985
  23691758.515          42.750          45.000
 111622375.281 7  86978473.16647  21241031.194    21241030.279
  21241032.601          47.000          42.5004
 114276343.266 8  89046506.647 8  21746066.660    21746066.488    21746067.940
  21746068.079          50.000          48.750
 128084762.962 6  99806309.516 6  24373721.530    24373721.618    24373727.108
  24373727.033          38.500          40.750
 108929389.633 9  84880044.617 8  20728572.642    20728572.795    20728574.056
  20728574.001          54.250          52.500
 20  1  1  0 11  0.0000000  0 10G27G16G21G05G13G10G20G29G26G15
 129654068.060 6 101029140.592 6  24672348.351    24672347.925    24672351.966
  24672350.778          40.500          39.500
 125985819.839 6  98170769.39144  23974303.962    23974303.519
  23974305.835          38.250          25.5004
 111510602.363 7  86891381.71647  21219760.235    21219759.649
  21219760.954          47.500          46.0004
 129880848.853 6 101205859.103 6  24715502.476    24715502.071    24715504.574
  24715504.804          41.500          41.000
 116618637.605 7  90871666.75146  22191786.721    22191786.761
  22191787.815          47.500          36.5004
 124414105.899 7  96946057.813 7  23675217.558    23675217.731    23675221.092
  23675222.134          43.250          44.750
 111562179.433 7  86931567.33747  21229575.978    21229575.531
  21229577.500          47.000          42.7504
 114365403.568 8  89115904.274 8  21763013.914    21763014.003    21763015.788
  21763015.780          49.500          48.750
 128144448.776 6  99852817.961 6  24385079.034    24385079.830    24385084.482
  24385084.958          38.500          41.000
 108922086.337 9  84874353.749 8  20727182.837    20727182.929    20727184.530
  20727184.238          54.250          52.500
 20  1  1  0 11 30.0000000  0 10G27G16G21G05G13G10G20G29G26G15
 129552818.351 6 100950244.698 6  24653080.506    24653080.547    24653083.457
  24653083.960          40.250          39.250
 126011689.404 6  98190927.47944  23979227.016    23979226.622
  23979228.053          39.000          25.5004
 111479373.650 8  86867047.66047  21213817.475    21213816.980
  21213818.330          48.000          46.0004
 129981813.682 6 101284532.992 6  24734715.599    24734716.035    24734717.856
  24734716.755          41.750          41.250
 116656200.643 7  90900936.66746  22198934.645    22198934.863
  22198935.849          47.250          36.2504
 124327383.380 7  96878481.819 7  23658714.753    23658714.962    23658718.203
  23658719.321          43.250          44.500
 111502275.358 7  86884888.85647  21218176.759    21218176.248
  21218178.177          46.750          42.7504
 114454841.850 8  89185596.427 8  21780033.558    21780033.544    21780035.435
  21780035.381          49.750          48.500
 128204446.897 6  99899569.724 6  24396496.520    24396496.972    24396501.751
  24396501.928          38.000          41.250
 108915432.071 9  84869168.615 8  20725916.460    20725916.669    20725917.896
  20725917.878          54.000          52.500
 20  1  1  0 12  0.0000000  0 10G27G16G21G05G13G10G20G29G26G15
 129451780.558 6 100871513.938 6  24633853.750    24633854.024    24633856.971
  24633857.197          39.750          39.000
 126038089.154 6  98211498.69144  23984251.281    23984250.575
  23984251.918          39.000          26.2504
 111448349.505 8  86842873.00547  21207913.974    21207913.357
  21207914.599          48.000          46.2504
 130082767.530 7 101363198.335 6  24753927.698    24753927.603    24753929.358
  24753928.867          42.500          41.500
 116694353.015 7  90930665.77746  22206194.574    22206194.790
  22206196.144          47.000          36.2504
 124240838.753 7  96811044.458 7  23642245.658    23642246.506    23642249.785
  23642250.311          43.000          45.000
 111442664.666 7  86838438.98147  21206833.359    21206832.572
  21206834.788          47.000          43.0004
 114544657.289 8  89255582.482 8  21797124.609    21797124.644    21797126.752
  21797126.686          49.250          48.500
 128264755.484 6  99946563.423 6  24407972.903    24407972.988    24407978.223
  24407977.841          37.500          40.750
 108909427.899 9  84864490.044 8  20724774.066    20724774.115    20724775.136
  20724775.340          54.000          52.250
 20  1  1  0 12 30.0000000  0 10G27G16G21G05G13G10G20G29G26G15
 129350956.664 6 100792949.839 6  24614667.209    24614667.720    24614671.835
  24614670.416          40.000          38.500
 126065016.843 6  98232481.30644  23989375.610    23989375.367
  23989377.096          38.750          26.2504
 111417529.955 7  86818857.78047  21202049.248    21202048.388
  21202049.723          47.750          46.0004
 130183708.538 6 101441853.656 6  24773135.449    24773135.121    24773137.042
  24773136.762          41.750          40.250
 116733092.864 7  90960852.69446  22213566.454    22213566.232
  22213567.843          47.500          36.0004
 124154472.074 7  96743745.742 7  23625810.779    23625810.726    23625814.576
  23625814.792          42.250          44.750
 111383346.906 7  86792217.36547  21195545.422    21195544.798
  21195546.999          46.500          42.7504
 114634846.959 8  89325860.134 8  21814287.393    21814287.493    21814289.377
  21814289.316          49.000          48.500
 128325371.163 6  99993796.435 6  24419508.366    24419508.117    24419513.316
  24419512.771          38.500          40.500
 108904073.243 9  84860317.599 8  20723755.100    20723755.147    20723756.538
  20723756.347          54.000          52.500
 20  1  1  0 13  0.0000000  0 10G27G16G21G05G13G10G20G29G26G15
 129250350.381 6 100714555.301 6  24595522.416    24595523.063    24595526.365
  24595525.612          39.500          39.500
 126092472.094 6  98253875.02044  23994599.260    23994599.014
  23994600.380          36.500          25.2504
 111386916.701 7  86795003.30847  21196223.586    21196223.090
  21196224.261          47.250          46.0004
 130284636.732 7 101520498.987 6  24792342.310    24792341.897    24792343.110
  24792342.537          43.750          40.250
 116772419.768 7  90991497.03046  22221050.457    22221050.348
  22221051.926          47.500          36.2504
 124068285.017 7  96676587.003 7  23609409.597    23609410.035    23609413.413
  23609414.180          42.500          45.250
 111324322.871 7  86746224.62847  21184313.667    21184312.890
  21184314.829          47.000          43.0004
 114725409.622 8  89396428.426 8  21831520.983    21831521.000    21831522.630
  21831522.516          49.250          48.250
 128386292.223 6 100041267.364 6  24431100.941    24431100.703    24431105.997
  24431105.673          37.500          40.250
 108899369.376 8  84856652.253 8  20722859.758    20722860.082    20722861.354
  20722861.163          53.000          52.000
 20  1  1  0 13 30.0000000  0 10G27G16G21G05G13G10G20G29G26G15
 129149964.078 6 100636332.180 6  24576418.655    24576419.825    24576423.871
  24576423.236          38.500          40.500
 126120452.877 6  98275678.20644  23999923.898    23999923.658
  23999925.128          36.750          24.7504
 111356510.485 7  86771310.17147  21190437.653    21190436.928
  21190438.275          47.750          46.2504
 130385550.805 7 101599133.349 6  24811544.960    24811544.893    24811546.367
  24811544.781          42.000          38.750
 116812331.970 7  91022597.44146  22228645.154    22228645.205
  22228646.769          47.000          36.2504
 123982277.962 7  96609568.532 7  23593043.397    23593043.762    23593047.495
  23593047.969          42.750          45.500
 111265593.877 7  86700461.79547  21173137.563    21173137.058
  21173139.124          46.750          42.7504
 114816342.258 8  89467285.029 8  21848824.597    21848824.638    21848826.836
  21848826.334          49.000          48.250
 128447515.577 6 100088973.880 6  24442751.810    24442751.682    24442756.236
  24442756.018          39.000          39.750
 108895315.813 8  84853493.639 8  20722088.199    20722088.571    20722089.763
  20722089.782          53.000          52.250
 20  1  1  0 14  0.0000000  0 10G27G16G21G05G13G10G20G29G26G15
 129049799.955 6 100558282.165 6  24557358.539    24557359.441    24557363.212
  24557363.183          38.750          41.250
 126148957.048 6  98297889.25744  24005348.299    24005347.982
  24005349.439          37.250          24.7504
 111326311.328 7  86747778.36547  21184690.740    21184690.194
  21184691.510          47.500          46.2504
 130486448.991 6 101677755.248 6  24830744.421    24830745.477    24830745.470
  24830746.683          41.500          37.500
 116852827.354 7  91054152.29346  22236351.535    22236351.346
  22236353.202          47.500          36.2504
 123896451.094 7  96542690.458 7  23576711.123    23576711.120    23576715.050
  23576715.802          42.750          45.750
 111207159.071 7  86654928.19447  21162017.972    21162017.425
  21162019.464          47.000          43.0004
 114907642.448 8  89538428.014 8  21866198.619    21866198.731    21866200.502
  21866200.692          49.000          48.250
 128509037.943 6 100136913.404 6  24454457.751    24454458.044    24454463.359
  24454463.347          36.500          40.000
 108891912.083 8  84850841.396 8  20721440.677    20721440.937    20721442.205
  20721442.185          52.250          52.500
 20  1  1  0 14 30.0000000  0 10G27G16G21G05G13G10G20G29G26G15
 128949860.291 6 100480407.076 7  24538340.930    24538340.945    24538346.753
  24538346.073          38.750          42.250
 126177980.397 6                  24010871.355
                        36.250
 111296320.273 8  86724408.71447  21178983.655    21178983.127
  21178984.342          48.000          46.0004
 130587330.049 7 101756363.895 6  24849943.403    24849943.265    24849944.013
  24849943.436          43.500          38.750
 116893904.232 8  91086160.25746  22244168.467    22244167.806
  22244169.126          48.250          36.2504
 123810804.836 7  96475953.110 7  23560413.222    23560413.587    23560417.344
  23560417.541          42.750          45.000
 111149018.598 7  86609623.94747  21150954.038    21150953.288
  21150955.640          46.750          43.0004
 114999307.537 8  89609855.352 8  21883641.896    21883642.078    21883643.994
  21883643.646          49.000          48.500
 128570856.407 6 100185083.598 6  24466221.997    24466223.068    24466227.207
  24466226.765          38.250          40.500
 108889158.015 8  84848695.376 8  20720916.795    20720916.842    20720918.137
  20720918.046          52.250          52.250
 20  1  1  0 15  0.0000000  0  9G27G21G05G13G10G20G29G26G15
 128850148.508 6 100402709.584 7  24519366.860    24519366.718    24519371.104
  24519371.429          39.000          42.750
 111266539.796 8  86701203.14847  21173316.748    21173316.084
  21173317.304          48.250          46.0004
 130688193.226 7 101834958.620 6  24869136.311    24869136.475    24869137.269
  24869136.169          43.750          37.250
 116935561.885 8  91118620.75346  22252095.891    22252095.178
  22252096.601          48.250          36.2504
 123725340.460 7  96409357.501 7  23544149.449    23544149.811    23544153.614
  23544153.981          42.250          44.750
 111091173.566 7  86564549.91347  21139946.809    21139946.114
  21139948.156          47.250          43.2504
 115091335.996 8  89681565.820 8  21901154.175    21901154.299    21901155.996
  21901156.009          48.250          48.250
 128632968.694 6 100233482.803 6  24478041.504    24478041.751    24478047.364
  24478046.643          37.250          40.000
 108887054.287 8  84847056.116 8  20720516.326    20720516.432    20720517.911
  20720517.787          52.250          52.500
 20  1  1  0 15 30.0000000  0 10G27G21G16G05G13G10G20G29G26G15
 128750666.960 6 100325191.494 7  24500436.402    24500436.313    24500440.965
  24500440.906          40.000          42.250
 111236969.857 7  86678161.64847  21167689.826    21167689.094
  21167690.230          47.750          46.2504
 126237591.933 6  98366956.37644  24022214.881    24022214.672
  24022216.863          37.000          25.5004
 130789037.188 7 101913538.392 6  24888325.418    24888326.528    24888327.370
  24888327.049          43.000          37.500
 116977798.480 8  91151532.39446  22260132.767    22260132.595
  22260133.939          48.250          36.0004
 123640058.398 7  96342903.940 7  23527921.369    23527921.194    23527925.368
  23527925.888          43.500          45.250
 111033623.955 7  86519706.08647  21128995.312    21128994.324
  21128996.649          46.750          42.7504
 115183724.949 8  89753557.211 8  21918735.322    21918735.268    21918737.396
  21918737.387          49.000          48.250
 128695371.824 6 100282108.597 6  24489916.897    24489916.019    24489921.814
  24489922.696          36.500          40.750
 108885600.391 8  84845923.220 8  20720239.785    20720239.905    20720241.027
  20720241.080          52.000          52.250
 20  1  1  0 16  0.0000000  0 10G27G21G16G05G13G10G20G26G29G15
 128651418.305 6 100247854.877 6  24481550.241    24481549.523    24481553.432
  24481553.936          41.000          41.500
 111207611.100 7  86655284.69747  21162102.972    21162102.230
  21162103.469          47.250          46.2504
 126268172.223 6  98390785.17844  24028033.834    24028034.407
  24028035.461          36.000          24.7504
 130889860.868 7 101992102.245 6  24907511.372    24907511.542    24907513.680
  24907512.030          42.250          36.000
 117020612.487 8  91184893.96346  22268280.258    22268279.891
  22268281.266          48.000          36.2504
 123554959.185 7  96276592.854 7  23511727.171    23511726.929    23511731.338
  23511731.619          42.500          45.500
 110976369.851 7  86475092.51247  21118100.590    21118099.626
  21118101.421          47.250          43.5004
 128758072.922 6 100330965.826 5  24501846.590    24501846.142    24501851.686
  24501850.891          38.000          35.250
 115276471.912 8  89825827.555 8  21936384.278    21936384.542    21936386.071
  21936386.457          48.500          48.000
 108884796.328 8  84845296.687 8  20720086.597    20720086.809    20720087.846
  20720087.931          51.750          52.500
 20  1  1  0 16 30.0000000  0 10G27G21G16G05G13G10G20G26G29G15
 128552405.255 6 100170701.848 6  24462707.940    24462707.681    24462711.283
  24462711.765          41.500          40.500
 111178465.318 7  86632573.70047  21156556.611    21156556.019
  21156557.346          46.500          46.2504
 126299268.748 6                  24033951.166
                        37.250
 130990662.975 6 102070649.390 6  24926692.555    24926692.380    24926695.633
  24926695.238          41.500          37.000
 117064002.472 8  91218704.34346  22276536.761    22276536.618
  22276538.248          48.250          36.0004
 123470043.545 7  96210424.847 7  23495568.143    23495568.190    23495572.779
  23495573.346          42.500          46.000
 110919412.367 7  86430710.08147  21107261.320    21107260.692
  21107263.073          46.500          43.0004
 128821049.241 6 100380038.277 7  24513830.775    24513830.746    24513835.957
  24513836.410          38.000          42.000
 115369575.119 8  89898375.499 8  21954101.612    21954101.701    21954103.499
  21954103.337          48.750          48.250
 108884642.063 8  84845176.490 8  20720057.223    20720057.449    20720058.762
  20720058.529          51.500          52.250
 20  1  1  0 17  0.0000000  0  8G27G21G05G13G10G20G29G15
 128453630.609 6 100093734.592 6  24443912.122    24443912.389    24443915.986
  24443915.451          41.500          40.250
 111149533.132 7  86610029.14647  21151051.403    21151050.438
  21151051.664          46.250          46.2504
 131091442.657 6 102149178.991 6  24945870.816    24945871.369    24945870.688
  24945872.364          40.250          36.500
 117107966.909 8  91252962.35646  22284903.207    22284902.882
  22284904.191          48.000          36.0004
 123385312.267 7  96144400.466 7  23479444.538    23479444.840    23479448.746
  23479449.054          42.250          45.750
 110862751.485 7  86386558.75647  21096479.838    21096479.084
  21096480.442          47.500          43.5004
 115463031.722 8  89971198.824 8  21971885.482    21971885.648    21971887.506
  21971887.515          48.000          48.250
 108885137.340 8  84845562.419 8  20720151.769    20720151.678    20720153.282
  20720152.761          50.750          52.500
 20  1  1  0 17 30.0000000  0 10G27G21G26G05G13G10G20G16G29G15
 128355097.723 6 100016955.732 6  24425162.642    24425161.892    24425165.480
  24425164.310          41.500          39.750
 111120816.539 7  86587652.58247  21145586.535    21145585.676
  21145587.089          47.250          46.2504
 128947846.560 6 100478843.131 6  24537959.370    24537958.938    24537964.049
  24537964.426          36.750          37.750
 131192199.772 6 102227691.029 6  24965044.689    24965044.716    24965046.134
  24965046.331          41.250          38.750
 117152504.523 8  91287667.00446  22293378.210    22293377.970
  22293379.355          48.750          36.0004
 123300766.587 7  96078520.734 7  23463356.068    23463356.130    23463360.276
  23463360.532          42.500          46.250
 110806388.344 7  86342639.43547  21085753.213    21085752.683
  21085755.259          46.000          43.0004
 126362996.724 6  98464672.59944  24046078.883    24046077.821
  24046079.877          36.250          24.5004
 115556840.266 7  90044296.379 8  21989736.973    21989736.720    21989738.782
  21989738.709          47.750          48.250
 108886282.830 8  84846455.020 8  20720369.510    20720369.686    20720370.832
  20720370.756          51.750          52.250
 20  1  1  0 18  0.0000000  0  9G27G21G26G05G13G10G20G29G15
 128256807.933 6  99940366.288 6  24406457.389    24406457.682    24406461.242
  24406460.947          41.000          39.250
 111092315.069 7  86565443.64947  21140162.803    21140162.224
  21140163.504          47.750          46.0004
 129011667.093 6 100528570.542 5  24550102.968                    24550107.579
                        37.000          34.000
 131292931.629 6 102306183.435 6  24984212.554    24984213.339    24984214.190
  24984212.993          39.750          37.250
 117197612.793 8  91322816.30745  22301961.800    22301961.830
  22301962.930          48.250          35.7504
 123216405.887 7  96012785.122 7  23447302.854    23447302.658    23447306.771
  23447307.049          42.500          46.000
 110750321.821 7  86298951.24847  21075084.938    21075084.271
  21075086.060          47.500          43.5004
 115650997.357 8  90117665.526 8  22007654.317    22007654.374    22007656.760
  22007656.384          48.250          48.250
 108888076.844 8  84847852.960 8  20720710.948    20720711.115    20720712.409
  20720712.271          50.250          52.500
 20  1  1  0 18 30.0000000  0  9G27G21G26G05G13G10G20G29G15
 128158764.536 6  99863968.852 6  24387800.576    24387800.968    24387804.412
  24387804.657          40.750          39.500
 111064030.112 7  86543403.42647  21134780.443    21134779.750
  21134780.989          47.000          46.2504
 129075756.685 6 100578510.488 6  24562298.671    24562299.071    24562304.388
  24562304.169          36.250          41.750
 131393637.904 6 102384655.875 6  25003377.667    25003377.359    25003378.821
  25003378.073          41.250          38.250
 117243290.409 8  91358409.26745  22310654.043    22310654.091
  22310655.554          48.250          35.5004
 123132231.294 6  95947194.535 7  23431284.974    23431284.338    23431289.246
  23431289.285          41.750          46.250
 110694552.831 7  86255494.91747  21064472.163    21064471.216
  21064473.262          46.250          43.2504
 115745500.831 8  90191304.589 8  22025637.886    22025637.827    22025639.932
  22025639.752          48.750          48.000
 108890519.878 8  84849756.628 8  20721175.743    20721175.886    20721177.311
  20721177.207          50.250          52.500
 20  1  1  0 19  0.0000000  0 10G27G21G16G05G13G10G20G26G29G15
 128060970.234 6  99787765.515 6  24369191.340    24369191.533    24369194.690
  24369193.988          40.500          40.750
 111035963.126 7  86521533.05047  21129439.055    21129438.670
  21129439.991          46.500          46.2504
 126462404.249 6  98542132.96944  24064995.583    24064995.240
  24064997.063          36.250          25.0004
 131494317.501 6 102463107.426 6  25022535.445    25022536.579    25022536.049
  25022537.650          40.500          38.250
 117289536.026 7  91394444.80245  22319454.067    22319454.667
  22319455.693          47.750          35.7504
 123048243.538 6  95881749.540 7  23415302.129    23415302.610    23415306.397
  23415307.227          41.750          45.750
 110639082.036 7  86212270.92947  21053916.622    21053916.159
  21053917.875          47.250          44.0004
 129140112.047 6                  24574546.992
                        36.250
 115840348.060 7  90265211.510 7  22043686.437    22043686.583    22043688.885
  22043688.595          47.750          47.750
 108893611.598 8  84852165.777 8  20721764.055    20721764.166    20721765.706
  20721765.560          50.000          52.250
 20  1  1  0 19 30.0000000  0  8G27G21G05G13G10G20G29G15
 127963428.298 6  99711758.815 6  24350629.255    24350629.494    24350633.980
  24350634.135          40.750          41.500
 111008115.203 7  86499833.38047  21124140.006    21124139.397
  21124140.849          46.500          46.0004
 131594969.918 6 102541537.875 6  25041689.239    25041689.737    25041691.141
  25041689.642          40.500          39.500
 117336348.314 7  91430921.89945  22328362.273    22328362.323
  22328363.401          47.750          35.2504
 122964443.836 7  95816451.091 7  23399355.790    23399355.663    23399360.078
  23399360.110          42.250          46.000
 110583910.088 7  86169279.83147  21043417.237    21043416.649
  21043418.569          45.750          43.0004
 115935537.795 8  90339385.316 8  22061800.686    22061800.562    22061802.850
  22061802.660          48.250          48.000
 108897352.400 8  84855080.692 8  20722475.852    20722476.031    20722477.491
  20722477.385          49.750          52.500
 20  1  1  0 20  0.0000000  0  9G27G26G21G05G13G10G20G29G15
 127866140.388 7  99635950.063 7  24332116.652    24332116.663    24332120.237
  24332120.540          42.000          42.250
 129269632.421 6                  24599193.812
                        37.000
 110980486.912 8  86478304.84847  21118882.557    21118881.930
  21118883.236          48.000          46.0004
 131695593.104 6 102619945.592 6  25060836.504    25060837.223    25060838.866
  25060838.087          41.250          40.500
 117383724.694 8  91467838.57945  22337378.031    22337377.730
  22337379.123          48.000          35.2504
 122880831.687 6  95751298.781 7  23383444.805    23383444.764    23383448.626
  23383449.526          41.500          45.750
 110529036.394 7  86126521.10947  21032975.921    21032975.131
  21032976.517          47.750          44.2504
 116031066.286 8  90413823.100 8  22079979.132    22079979.079    22079981.438
  22079981.172          48.000          48.000
 108901740.774 8  84858500.210 8  20723311.115    20723311.201    20723312.292
  20723312.293          50.750          52.250
 20  1  1  0 20 30.0000000  0  8G27G21G05G13G10G20G29G15
 127769109.408 7  99560341.508 7  24313651.951    24313651.818    24313655.211
  24313655.434          42.250          42.500
 110953079.002 7  86456948.03947  21113667.111    21113666.402
  21113667.614          47.750          46.2504
 131796186.909 6 102698330.312 6  25079979.649    25079980.204    25079981.322
  25079980.411          41.500          39.750
 117431663.592 8  91505193.56345  22346500.353    22346500.685
  22346501.765          48.000          35.2504
 122797407.911 7  95686293.250 7  23367570.263    23367570.407    23367573.990
  23367574.746          42.250          45.750
 110474461.345 7  86083995.14147  21022589.688    21022589.164
  21022591.510          45.500          43.0004
 116126931.371 7  90488523.145 7  22098221.786    22098221.664    22098223.827
  22098223.795          47.750          47.750
 108906776.806 8  84862424.406 8  20724269.344    20724269.622    20724270.924
  20724270.637          50.000          52.500
 20  1  1  0 21  0.0000000  0  9G27G21G05G13G10G20G16G29G15
 127672339.209 7  99484936.159 7  24295237.324    24295236.969    24295241.515
  24295242.084          42.250          43.000
 110925893.977 7  86435764.91547  21108493.868    21108493.223
  21108494.446          47.750          46.2504
 131896750.036 6 102776691.192 6  25099115.622    25099115.682    25099117.331
  25099117.180          40.000          39.500
 117480164.222 8  91542986.26645  22355729.836    22355730.009
  22355730.797          48.000          35.0004
 122714174.342 6  95621435.933 7  23351730.699    23351731.434    23351735.060
  23351735.029          41.750          46.000
 110420186.245 7  86041702.85047  21012262.345    21012261.266
  21012262.956          46.500          43.5004
 126601990.102 6                  24091558.218
                        36.750
 116223131.725 7  90563484.453 7  22116528.442    22116528.305    22116529.665
  22116529.942          47.750          47.750
 108912461.064 8  84866853.700 8  20725350.906    20725351.183    20725352.238
  20725352.065          50.500          52.000
 20  1  1  0 21 30.0000000  0  9G27G21G05G13G10G20G16G29G15
 127575831.148 6  99409735.073 7  24276872.369    24276872.194    24276876.268
  24276875.871          41.750          43.000
 110898931.432 8  86414755.14347  21103362.936    21103362.315
  21103363.665          48.000          46.2504
 131997280.591 6 102855026.722 6  25118246.274    25118245.961    25118247.554
  25118246.883          41.000          37.750
 117529223.712 8  91581214.45145  22365065.927    22365065.300
  22365066.835          48.250          35.2504
 122631130.128 7  95556726.180 7  23335928.541    23335929.059    23335932.247
  23335932.830          42.250          45.750
 110366210.513 7  85999643.87447  21001990.368    21001989.680
  21001992.068          46.250          43.5004
 126638131.835 6  98679062.22344  24098435.317    24098435.268
  24098436.617          36.500          25.0004
 116319663.453 8  90638703.991 7  22134897.790    22134897.278    22134899.356
  22134899.139          48.250          47.250
 108918791.779 8  84871786.725 8  20726555.731    20726555.968    20726557.193
  20726556.902          51.750          52.250
 20  1  1  0 22  0.0000000  0  8G27G21G05G13G10G20G29G15
 127479587.317 6  99334739.885 7  24258557.623    24258556.973    24258561.556
  24258561.728          41.500          42.750
 110872191.298 8  86393918.67847  21098274.728    21098273.985
  21098275.276          48.500          46.2504
 132097777.429 6 102933335.928 6  25137369.870    25137371.047    25137370.146
  25137372.093          39.500          38.000
 117578839.733 8  91619876.26745  22374507.217    22374507.250
  22374508.343          48.000          35.2504
 122548275.412 7  95492164.066 7  23320161.687    23320161.920    23320165.877
  23320166.177          42.250          46.500
 110312533.791 7  85957817.86247  20991776.586    20991775.846
  20991777.261          47.500          44.0004
 116416523.875 7  90714179.627 7  22153329.198    22153329.333    22153331.485
  22153331.455          47.500          47.750
 108925768.156 8  84877222.875 8  20727883.244    20727883.334    20727884.718
  20727884.665          51.250          52.500
 20  1  1  0 22 30.0000000  0  9G27G21G05G13G10G20G16G29G15
 127383612.056 6  99259953.980 7  24240293.682    24240294.173    24240297.714
  24240298.501          41.500          42.750
 110845676.582 8  86373257.86347  21093229.057    21093228.349
  21093229.607          48.500          46.0004
 132198241.229 6 103011619.434 6  25156487.900    25156487.797    25156489.593
  25156489.596          40.750          38.500
 117629011.911 7  91658971.48445  22384054.413    22384054.250
  22384055.906          47.500          35.2504
 122465612.310 7  95427751.284 7  23304431.035    23304431.659    23304435.431
  23304435.554          42.000          45.750
 110259157.750 7  85916226.17647  20981619.309    20981618.407
  20981620.593          47.000          43.7504
 126711896.634 6  98736542.90644  24112472.357    24112471.345
  24112472.345          36.500          24.0004
 116513712.075 7  90789910.680 7  22171823.166    22171823.498    22171825.755
  22171825.549          47.250          47.750
 108933391.372 8  84883163.050 8  20729333.635    20729333.989    20729335.326
  20729335.324          51.250          52.500
 20  1  1  0 23  0.0000000  0  9G27G21G05G13G10G20G16G29G15
 127287907.604 6  99185379.086 7  24222081.941    24222081.998    24222086.115
  24222085.893          41.500          42.750
 110819388.353 8  86352773.53247  21088226.572    21088225.809
  21088227.133          48.750          46.2504
 132298670.381 6 103089875.868 6  25175598.754    25175599.335    25175601.021
  25175600.295          38.750          37.750
 117679738.005 7  91698498.30445  22393707.358    22393707.282
  22393708.680          47.750          35.0004
 122383140.926 6  95363487.881 7  23288737.041    23288737.495    23288741.420
  23288741.699          41.750          45.750
 110206082.381 7  85874868.75047  20971519.193    20971518.669
  20971520.568          46.750          44.0004
 126749513.777 6  98765854.92644  24119630.002    24119629.823
  24119631.292          37.000          24.2504
 116611224.753 7  90865894.571 7  22190379.521    22190379.467    22190381.623
  22190381.443          46.750          47.500
 108941660.290 8  84889606.369 8  20730907.335    20730907.662    20730908.711
  20730908.872          51.750          52.250
 20  1  1  0 23 30.0000000  0  8G27G21G05G13G10G20G29G15
 127192477.463 6  99111017.939 7  24203922.079    24203922.338    24203926.131
  24203926.561          41.250          42.500
 110793328.123 8  86332466.85947  21083267.559    21083266.674
  21083268.016          49.000          46.5004
 132399064.567 6 103168105.148 6  25194702.944    25194703.462    25194704.418
  25194704.210          37.250          38.250
 117731017.000 7  91738455.96745  22403465.729    22403465.477
  22403466.521          47.500          35.0004
 122300862.714 6  95299374.991 7  23273080.094    23273080.547    23273084.125
  23273084.494          41.250          46.000
 110153308.887 7  85833746.57247  20961476.734    20961476.098
  20961477.906          47.750          43.7504
 116709060.812 7  90942130.457 7  22208997.073    22208997.153    22208999.186
  22208998.951          47.250          47.250
 108950575.118 8  84896552.997 8  20732603.725    20732603.887    20732605.398
  20732605.253          52.250          52.750
 20  1  1  0 24  0.0000000  0  9G27G21G05G13G10G20G16G29G15
 127097323.076 6  99036871.675 7  24185814.637    24185815.451    24185818.777
  24185818.672          40.750          42.500
 110767495.581 8  86312337.60947  21078351.435    21078351.013
  21078352.262          49.000          46.0004
 132499421.592 6 103246305.382 5  25213801.252    25213800.730    25213799.396
  25213801.560          39.500          35.000
 117782845.800 7  91778842.06645  22413328.241    22413327.938
  22413329.292          47.500          35.0004
 122218776.923 7  95235412.060 7  23257459.835    23257459.738    23257464.354
  23257464.254          42.000          46.750
 110100835.998 7  85792858.60547  20951491.387    20951490.779
  20951492.879          47.500          44.0004
 126826209.834 6                  24134225.695
                        38.500
 116807216.046 7  91018615.039 7  22227675.528    22227675.368    22227677.570
  22227677.689          47.250          47.000
 108960134.342 8  84904001.747 8  20734422.937    20734423.038    20734424.451
  20734424.192          52.000          52.000
 20  1  1  0 24 30.0000000  0 10G27G21G05G13G10G20G16G29G26G15
 127002446.869 6  98962942.201 7  24167760.893    24167760.534    24167764.241
  24167764.672          40.750          42.500
 110741891.543 8  86292386.41047  21073479.369    21073478.688
  21073480.046          49.250          46.2504
 132599740.097 6 103324475.700 6  25232890.516    25232890.767    25232891.876
  25232891.056          38.500          36.250
 117835222.452 7  91819655.02545  22423295.022    22423294.648
  22423296.132          47.000          34.7504
 122136883.959 7  95171599.370 7  23241876.586    23241876.581    23241880.704
  23241881.429          42.500          46.750
 110048663.894 8  85752205.04747  20941563.401    20941562.834
  20941564.819          48.000          43.7504
 126865284.578 6  98856066.70444  24141661.131    24141660.610
  24141662.703          36.500          25.0004
 116905687.964 7  91095346.392 7  22246414.033    22246413.950    22246416.100
  22246415.754          47.250          46.500
 129865175.196 6 101193643.100 7  24712520.492    24712520.799    24712526.786
  24712526.610          37.000          43.250
 108970337.149 8  84911951.991 8  20736364.642    20736364.680    20736365.688
  20736365.571          52.750          52.000
 20  1  1  0 25  0.0000000  0 10G27G26G21G05G13G10G20G16G29G15
 126907853.070 6  98889232.773 7  24149760.638    24149759.717    24149763.154
  24149763.777          41.250          43.000
 129932566.661 6 101246153.257 6  24725345.126    24725345.825    24725350.150
  24725347.989          36.000          36.750
 110716518.660 8  86272615.33447  21068651.034    21068650.539
  21068651.678          49.500          46.2504
 132700020.844 6 103402616.509 5  25251972.824    25251973.079    25251974.790
  25251974.518          39.000          34.500
 117888146.310 7  91860894.40845  22433366.625    22433366.135
  22433367.274          47.750          35.0004
 122055185.817 7  95107938.499 7  23226329.723    23226329.591    23226333.721
  23226334.507          42.750          46.750
 109996794.472 7  85711787.30947  20931693.233    20931692.241
  20931694.168          47.750          44.2504
 126904841.914 6  98886890.57844  24149188.509    24149188.072
  24149190.017          37.750          25.5004
 117004475.546 7  91172323.722 7  22265212.827    22265212.669    22265214.729
  22265214.672          47.500          46.750
 108981184.223 8  84920404.263 8  20738428.716    20738428.692    20738429.903
  20738429.698          52.750          52.000
 20  1  1  0 25 30.0000000  0 10G27G26G21G05G13G10G20G16G29G15
 126813542.865 7  98815744.319 7  24131814.105    24131813.436    24131817.186
  24131817.410          42.000          43.250
 130000194.725 6 101298850.425 7  24738214.314    24738214.573    24738219.553
  24738221.195          36.500          42.500
 110691376.304 8  86253023.89347  21063866.557    21063865.971
  21063867.176          49.250          46.0004
 132800261.369 6 103480726.048 5  25271048.603    25271048.611    25271050.413
  25271049.493          36.750          33.750
 117941614.383 7  91902557.84345  22443540.674    22443540.992
  22443542.068          47.250          35.2504
 121973681.596 7  95044428.738 7  23210819.560    23210819.746    23210824.140
  23210824.276          42.500          46.750
 109945226.206 8  85671604.26447  20921879.702    20921879.219
  20921881.214          48.250          44.2504
 126944877.971 6  98918087.48644  24156806.722    24156806.660
  24156808.099          37.250          24.5004
 117103574.696 7  91249543.830 7  22284070.841    22284070.734    22284072.644
  22284072.430          47.500          47.000
 108992673.387 8  84929356.865 8  20740614.883    20740615.047    20740616.230
  20740616.008          53.000          52.000
 20  1  1  0 26  0.0000000  0 10G27G26G21G05G13G10G20G16G29G15
 126719519.350 7  98742479.256 7  24113921.848    24113921.758    24113925.661
  24113925.353          42.000          43.500
 130068053.609 6 101351727.501 6  24751127.894    24751127.725    24751132.524
  24751132.102          38.750          39.250
 110666465.694 8  86233613.02647  21059126.481    21059125.806
  21059126.907          49.750          46.2504
 132900461.008 6 103558803.670 5  25290114.991    25290115.842    25290116.275
  25290117.248          37.250          35.750
 117995624.538 7  91944643.67145  22453818.673    22453818.345
  22453819.743          46.750          35.0004
 121892372.182 7  94981070.771 7  23195347.145    23195347.351    23195350.776
  23195351.032          43.750          45.750
 109893959.803 8  85631656.42547  20912124.162    20912123.454
  20912125.392          48.500          44.2504
 126985391.225 6  98949656.26243  24164515.567    24164515.401
  24164517.235          36.500          23.0004
 117202983.496 7  91327005.233 7  22302987.407    22302987.705    22302990.372
  22302989.724          47.750          47.250
 109004804.462 8  84938809.652 8  20742923.194    20742923.363    20742924.836
  20742924.649          53.000          52.250
 20  1  1  0 26 30.0000000  0 10G27G26G21G05G13G10G20G29G16G15
 126625785.115 7  98669439.620 7  24096085.020    24096085.066    24096088.555
  24096088.820          43.000          43.750
 130136140.571 6 101404782.288 6  24764084.176    24764083.817    24764089.309
  24764089.857          37.500          40.750
 110641788.114 8  86214383.73847  21054430.410    21054429.720
  21054430.873          49.500          46.0004
 133000611.085 6 103636840.943 4  25309174.828    25309174.690    25309177.761
  25309175.481          36.500          29.750
 118050174.822 7  91987150.38545  22464199.250    22464199.146
  22464200.371          46.500          35.0004
 121811258.117 7  94917865.008 7  23179911.648    23179911.879    23179915.799
  23179916.067          43.750          46.250
 109842995.818 8  85591944.24147  20902426.125    20902425.411
  20902427.417          48.000          44.5004
 117302699.235 7  91404705.791 7  22321963.051    22321962.676    22321965.141
  22321965.287          47.750          47.500
 127026376.259 6  98981593.99344  24172316.234    24172315.743
  24172317.585          38.250          24.0004
 109017576.792 8  84948762.132 8  20745353.763    20745353.989    20745355.335
  20745355.231          53.500          52.000
 20  1  1  0 27  0.0000000  0 10G27G26G21G05G13G10G20G29G16G15
 126532343.165 7  98596627.725 7  24078303.238    24078303.172    24078306.838
  24078307.268          42.750          44.000
 130204452.928 6 101458012.687 6  24777084.060    24777083.600    24777088.785
  24777088.741          38.500          40.000
 110617345.074 8  86195337.21647  21049779.021    21049778.309
  21049779.540          49.500          46.2504
 133100726.541 6 103714853.051 6  25328226.115    25328226.776    25328229.111
  25328226.508          38.000          36.750
 118105263.802 7  92030076.86445  22474682.472    22474682.378
  22474683.564          46.500          34.7504
 121730340.198 7  94854812.102 7  23164513.550    23164513.939    23164517.698
  23164517.834          43.250          46.750
 109792334.408 8  85552467.82247  20892785.451    20892784.770
  20892786.943          48.250          44.5004
 117402719.735 7  91482643.822 7  22340995.820    22340996.148    22340998.147
  22340998.145          47.250          46.750
 127067837.399 6  99013901.32444  24180205.296    24180205.812
  24180207.344          37.250          25.0004
 109030989.848 8  84959213.872 8  20747906.108    20747906.393    20747907.852
  20747907.755          53.750          52.250
 20  1  1  0 27 30.0000000  0  9G27G26G21G13G10G20G29G16G15
 126439196.981 7  98524046.297 7  24060577.910    24060578.081    24060581.253
  24060582.009          42.000          43.750
 130272988.537 6 101511417.062 6  24790125.151    24790125.003    24790131.183
  24790130.466          37.500          41.000
 110593138.339 8  86176474.82647  21045172.642    21045171.824
  21045173.145          49.500          46.0004
 118160890.263 7  92073422.15945  22485268.160    22485267.529
  22485268.811          46.750          34.5004
 121649619.732 7  94791913.039 7  23149153.641    23149153.189    23149156.395
  23149157.236          45.000          46.250
 109741976.741 8  85513228.09447  20883202.860    20883202.139
  20883203.984          48.750          44.5004
 117503043.079 8  91560817.853 7  22360087.018    22360086.923    22360089.347
  22360089.021          48.250          46.500
 127109769.896 6  99046575.99044  24188186.537    24188184.918
  24188187.112          38.500          25.7504
 109045043.693 9  84970164.927 8  20750580.628    20750580.681    20750582.073
  20750582.067          54.000          52.250
 20  1  1  0 28  0.0000000  0  9G27G26G21G13G10G20G29G16G15
 126346347.892 7  98451696.365 7  24042908.869    24042909.021    24042913.041
  24042913.045          42.000          43.750
 130341743.119 6 101564992.052 6  24803209.270    24803209.293    24803214.331
  24803214.293          38.250          41.000
 110569167.610 8  86157796.33647  21040611.083    21040610.360
  21040611.629          49.750          46.2504
 118217050.825 7  92117183.63645  22495954.126    22495954.441
  22495956.451          45.750          34.2504
 121569095.935 7  94729167.234 7  23133829.800    23133829.847    23133833.604
  23133833.979          44.500          46.250
 109691921.743 8  85474224.20547  20873677.979    20873677.155
  20873678.885          49.000          44.5004
 117603665.666 7  91639225.049 7  22379234.851    22379234.959    22379236.737
  22379236.713          47.750          46.500
 127152170.610 6  99079615.51544  24196254.240    24196253.762
  24196255.481          36.750          24.5004
 109059736.275 9  84981613.699 8  20753376.470    20753376.623    20753377.957
  20753377.796          54.250          52.500
 20  1  1  0 28 30.0000000  0 10G27G26G21G13G10G20G29G16G05G15
 126253799.949 7  98379581.101 7  24025297.822    24025298.165    24025301.791
  24025302.233          42.250          44.500
 130410715.156 6 101618736.502 6  24816333.770    24816333.354    24816339.000
  24816338.846          36.750          40.500
 110545435.050 8  86139303.42947  21036095.092    21036094.332
  21036095.513          49.750          46.2504
 118273744.748 7  92161360.71445  22506742.935    22506742.735
  22506744.485          46.000          34.5004
 121488770.658 7  94666576.110 7  23118544.199    23118544.648    23118548.191
  23118548.776          44.000          46.500
 109642171.036 8  85435457.43147  20864210.494    20864209.584
  20864211.592          49.000          44.2504
 117704585.859 8  91717864.143 7  22398439.367    22398439.403    22398441.140
  22398441.177          48.500          46.250
 127195038.613 6  99113019.10844  24204410.975    24204411.311
  24204413.015          37.000          24.2504
                 103948687.501 5                                  25385331.968
                                        32.000
 109075068.411 9  84993560.826 8  20756294.218    20756294.375    20756295.499
  20756295.387          54.750          51.750
 20  1  1  0 29  0.0000000  0  9G27G26G21G13G10G20G29G16G15
 126161555.272 6  98307702.145 7  24007744.706    24007744.418    24007748.344
  24007748.263          41.750          44.500
 130479901.171 6 101672647.672 6  24829500.888    24829500.121    24829505.805
  24829505.861          39.000          41.250
 110521941.169 8  86120996.50747  21031624.217    21031623.599
  21031624.799          49.500          46.5004
 118330969.352 7  92205951.33445  22517632.346    22517632.691
  22517633.398          45.750          34.7504
 121408643.860 7  94604139.656 7  23103296.785    23103296.813    23103300.588
  23103301.480          44.500          47.000
 109592724.293 8  85396927.50747  20854801.133    20854800.489
  20854802.141          50.000          44.5004
 117805801.001 8  91796733.070 7  22417700.116    22417700.141    22417702.323
  22417701.783          49.000          46.500
 127238370.762 6  99146784.40643  24212656.097    24212656.093
  24212659.288          37.000          23.0004
 109091038.255 9  85006004.865 8  20759333.252    20759333.224    20759334.615
  20759334.210          54.750          52.000
 20  1  1  0 29 30.0000000  0  9G27G26G21G13G10G20G29G16G15
 126069615.178 6  98236060.515 7  23990249.373    23990249.018    23990253.152
  23990253.200          41.500          44.750
 130549296.873 6 101726722.233 6  24842705.536    24842704.920    24842711.138
  24842711.442          38.250          41.000
 110498685.720 8  86102875.37747  21027198.878    21027198.291
  21027199.433          50.000          46.2504
 118388721.420 7  92250952.91145  22528621.828    22528622.130
  22528624.006          45.250          34.2504
 121328714.726 7  94541857.235 7  23088086.692    23088086.728    23088090.627
  23088091.228          44.500          46.750
 109543580.332 8  85358633.52847  20845449.332    20845448.443
  20845450.350          49.500          44.5004
 117907307.202 8  91875828.806 7  22437015.923    22437016.074    22437018.005
  22437017.642          48.250          45.750
 127282163.916 6  99180908.91444  24220990.625    24220990.170
  24220991.706          37.500          24.0004
 109107643.743 9  85018944.213 8  20762492.971    20762493.045    20762494.454
  20762494.260          54.500          52.000
 20  1  1  0 30  0.0000000  0  9G27G26G21G13G10G20G29G16G15
 125977984.078 6  98164659.669 7  23972812.193    23972811.664    23972815.985
  23972815.636          41.750          44.500
 130618901.001 6 101780959.213 6  24855950.937    24855950.328    24855955.422
  24855956.061          38.250          39.750
 110475671.878 8  86084942.51047  21022819.836    21022818.854
  21022819.957          50.250          46.2504
 118447000.314 7  92296365.07545  22539712.365    22539712.460
  22539713.560          45.250          34.7504
 121248985.436 7  94479730.535 7  23072914.861    23072915.017    23072918.659
  23072919.190          45.250          46.500
 109494741.213 8  85320577.08247  20836155.254    20836154.705
  20836156.574          49.750          44.5004
 118009103.422 8  91955150.544 7  22456387.435    22456387.081    22456389.444
  22456389.030          49.000          45.750
 127326416.934 6  99215391.77344  24229411.974    24229411.471
  24229413.847          38.750          24.7504
 109124885.851 9  85032379.632 8  20765774.067    20765774.232    20765775.343
  20765775.212          54.750          52.250
 20  1  1  0 30 30.0000000  0  9G27G26G21G13G10G20G29G16G15
 125886664.139 6  98093501.287 7  23955433.643    23955434.506    23955437.660
  23955438.100          41.250          44.000
 130688710.247 6 101835356.033 6  24869234.807    24869234.774    24869241.091
  24869241.175          38.250          40.750
 110452899.559 8  86067197.84747  21018486.149    21018485.457
  21018486.626          50.250          46.2504
 118505803.619 7  92342185.81445  22550902.701    22550902.552
  22550903.484          45.750          34.7504
 121169456.055 7  94417759.593 7  23057780.760    23057781.248    23057784.562
  23057784.958          45.250          46.500
 109446206.637 8  85282757.95347  20826919.594    20826918.812
  20826920.787          49.500          44.5004
 118111186.402 8  92034695.689 7  22475812.886    22475812.897    22475815.061
  22475814.899          48.250          46.500
 127371127.725 6  99250231.35944  24237920.321    24237918.955
  24237921.849          38.250          24.7504
 109142763.149 9  85046309.998 8  20769175.943    20769176.220    20769177.318
  20769177.175          54.500          52.000
 20  1  1  0 31  0.0000000  0  9G27G26G21G13G10G20G29G16G15
 125795658.470 6  98022587.772 7  23938116.528    23938116.414    23938120.265
  23938119.994          41.750          43.750
 130758721.897 6 101889910.582 6  24882557.914    24882558.720    24882562.797
  24882562.503          38.250          39.000
 110430370.429 8  86049642.67247  21014199.179    21014198.318
  21014199.487          50.000          46.5004
 118565129.666 7  92388413.90445  22562191.743    22562191.603
  22562193.004          45.500          34.5004
 121090127.456 7  94355945.096 7  23042685.510    23042685.311    23042688.914
  23042689.305          45.500          46.750
 109397977.152 8  85245176.54747  20817741.510    20817741.006
  20817742.875          49.250          44.2504
 118213553.893 8  92114462.553 7  22495293.213    22495293.119    22495295.217
  22495295.052          49.000          46.250
 127416293.501 6  99285425.44944  24246515.819    24246514.745
  24246516.253          39.750          24.0004
 109161274.803 9  85060734.674 8  20772698.560    20772698.674    20772700.104
  20772699.878          54.750          52.250
 20  1  1  0 31 30.0000000  0  9G27G21G26G13G10G20G29G16G15
 125704967.894 6  97951919.774 7  23920858.829    23920858.589    23920861.818
  23920861.856          41.750          43.500
 110408084.095 8  86032276.69647  21009957.994    21009957.345
  21009958.356          50.250          46.2504
 130828933.818 6                  24895917.604
                        37.000
 118624974.388 7  92435046.18445  22573579.749    22573579.989
  22573580.722          45.000          34.2504
 121010998.256 7  94294286.000 7  23027627.204    23027627.324    23027631.304
  23027631.774          45.250          47.250
 109350051.152 8  85207831.63247  20808621.627    20808621.048
  20808622.884          49.250          44.2504
 118316201.774 8  92194447.920 7  22514826.429    22514826.463    22514827.818
  22514828.006          49.250          45.750
 127461910.745 6  99320971.35344  24255195.260    24255194.971
  24255196.714          39.000          24.5004
 109180418.248 9  85075651.660 8  20776341.411    20776341.585    20776342.953
  20776342.729          54.750          52.250
 20  1  1  0 32  0.0000000  0  9G27G05G21G13G10G20G29G16G15
 125614597.626 6  97881501.379 7  23903661.470    23903661.688    23903665.409
  23903665.311          41.250          44.000
 134099357.274 6                  25518259.505
                        39.250
 110386043.891 8  86015102.51347  21005763.838    21005763.153
  21005764.228          49.750          46.2504
 118685338.130 7  92482082.84045  22585066.488    22585066.412
  22585067.851          44.750          33.7504
 120932071.527 7  94232784.653 7  23012607.859    23012608.383    23012612.012
  23012611.891          45.000          47.000
 109302431.391 8  85170725.34147  20799560.073    20799559.360
  20799561.192          49.750          44.7504
 118419130.076 8  92274651.782 7  22534412.340    22534412.683    22534414.468
  22534414.193          48.250          45.500
 127507979.528 6  99356869.09344  24263962.644    24263962.462
  24263964.227          40.250          25.5004
 109200195.057 9  85091062.167 8  20780104.918    20780105.033    20780106.457
  20780106.163          54.750          52.500
 20  1  1  0 32 30.0000000  0 10G27G05G21G26G13G10G20G29G16G15
 125524549.859 6  97811334.279 7  23886526.196    23886525.875    23886529.712
  23886529.771          41.750          44.000
 134198948.976 6 104570609.811 6  25537210.788    25537212.011    25537212.952
  25537212.184          39.000          39.750
 110364250.336 8  85998120.51847  21001616.653    21001615.921
  21001617.198          50.000          46.0004
 130969935.798 6 102054496.189 6  24922750.827    24922750.072    24922755.245
  24922756.507          36.500          36.750
 118746218.294 7  92529521.92945  22596651.732    22596651.307
  22596653.226          45.250          33.5004
 120853347.264 7  94171441.085 7  22997627.295    22997627.301    22997631.209
  22997631.515          45.250          47.250
 109255117.625 8  85133857.49347  20790556.502    20790555.604
  20790557.611          49.500          44.7504
 118522335.609 8  92355071.662 7  22554052.256    22554052.389    22554054.221
  22554054.067          48.750          46.000
 127554496.834 6  99393116.32043  24272814.053    24272813.247
  24272815.803          37.750          23.5004
 109220603.704 9  85106965.014 8  20783988.623    20783988.745    20783989.912
  20783989.779          54.750          52.000
 20  1  1  0 33  0.0000000  0  9G27G05G21G13G10G20G29G16G15
 125434826.417 6  97741419.925 7  23869451.946    23869452.061    23869456.399
  23869456.404          41.250          44.500
 134298487.647 6 104648172.387 6  25556152.912    25556152.839    25556154.631
  25556154.157          38.500          37.750
 110342703.701 8  85981330.93247  20997516.512    20997515.748
  20997516.956          50.000          46.2504
 118807611.964 7  92577361.16645  22608334.790    22608334.427
  22608335.685          44.500          33.5004
 120774825.098 7  94110254.997 7  22982685.216    22982685.096    22982688.771
  22982689.152          45.000          47.250
 109208109.161 8  85097227.54947  20781610.781    20781610.352
  20781612.345          49.500          44.7504
 118625815.074 8  92435704.999 7  22573743.941    22573743.983    22573745.689
  22573745.441          48.500          46.250
 127601459.565 6  99429710.62544  24281751.227    24281751.353
  24281753.043          39.250          24.2504
 109241642.499 9  85123358.885 8  20787992.184    20787992.233    20787993.591
  20787993.233          54.500          52.250
 20  1  1  0 33 30.0000000  0  9G27G05G21G13G10G20G29G16G15
 125345430.663 6  97671760.887 7  23852440.635    23852440.713    23852445.260
  23852444.165          41.250          44.500
                 104725693.726 5                                  25575083.917
                                        35.500
 110321405.716 8  85964735.09947  20993463.454    20993463.105
  20993464.205          49.750          46.5004
 118869517.535 7  92625599.27345  22620114.870    22620114.797
  22620116.015          45.250          33.5004
 120696506.152 7  94049227.246 7  22967781.123    22967781.581    22967785.200
  22967785.507          45.500          47.250
 109161406.660 8  85060836.00647  20772723.996    20772723.157
  20772724.999          49.250          45.0004
 118729566.105 8  92516549.951 7  22593486.562    22593486.677    22593488.439
  22593488.129          48.000          45.000
 127648866.030 6  99466650.69543  24290771.850    24290771.428
  24290774.193          39.000          23.2504
 109263310.981 9  85140243.421 8  20792115.524    20792115.467    20792116.699
  20792116.594          54.250          51.750
 20  1  1  0 34  0.0000000  0  8G27G21G13G10G20G29G16G15
 125256365.088 6  97602359.141 7  23835492.085    23835492.492    23835496.078
  23835496.282          41.750          44.750
 110300357.243 8  85948333.69947  20989457.929    20989457.641
  20989458.721          50.000          46.2504
 118931932.761 7  92674234.51045  22631992.075    22631991.981
  22631993.024          45.250          33.2504
 120618390.839 7  93988358.190 7  22952916.271    22952916.122    22952920.349
  22952920.797          45.250          47.000
 109115010.402 8  85024683.10747  20763894.835    20763894.172
  20763896.076          49.750          44.7504
 118833586.360 8  92597604.692 7  22613281.109    22613281.297    22613282.875
  22613282.828          48.500          45.000
 127696713.264 6  99503934.23843  24299877.115    24299876.850
  24299878.975          38.500          22.0004
 109285607.858 9  85157617.611 8  20796358.390    20796358.494    20796359.584
  20796359.624          54.250          52.000
 20  1  1  0 34 30.0000000  0  8G27G21G13G10G20G29G16G15
 125167631.974 6  97533216.448 7  23818607.106    23818607.225    23818610.967
  23818611.411          41.750          45.000
 110279559.073 8  85932127.32947  20985500.494    20985499.787
  20985501.000          50.000          46.2504
 118994854.573 7  92723264.51145  22643965.689    22643965.737
  22643966.734          44.750          33.5004
 120540479.138 7  93927647.777 7  22938090.366    22938090.626    22938094.306
  22938094.833          45.500          47.500
 109068920.207 8  84988768.69347  20755124.126    20755123.389
  20755125.337          49.500          44.7504
 118937872.823 8  92678866.867 7  22633126.635    22633126.483    22633128.007
  22633127.915          49.000          45.500
 127744998.978 6  99541559.46443  24309065.546    24309065.312
  24309067.145          40.500          22.5004
 109308531.389 9  85175480.112 8  20800720.499    20800720.844    20800722.010
  20800721.804          54.250          52.000
 20  1  1  0 35  0.0000000  0  8G27G21G13G10G20G29G16G15
 125079233.439 7  97464334.473 7  23801785.411    23801785.140    23801789.245
  23801789.169          42.000          45.500
 110259011.577 8  85916116.28947  20981590.437    20981589.808
  20981591.059          50.000          46.5004
 119058280.866 7  92772687.60045  22656034.572    22656035.247
  22656036.202          45.000          33.7504
 120462770.998 7  93867095.990 7  22923303.001    22923303.157    22923307.159
  22923307.112          45.750          47.500
 109023135.718 8  84953092.48247  20746411.765    20746411.088
  20746412.823          49.750          44.7504
 119042422.137 8  92760333.883 7  22653021.442    22653021.175    22653023.475
  22653023.419          48.250          45.750
 127793720.011 6  99579523.86443  24318336.786    24318337.097
  24318338.565          39.500          23.2504
 109332080.416 9  85193830.001 8  20805201.912    20805201.988    20805203.317
  20805202.875          54.000          51.750
 20  1  1  0 35 30.0000000  0  8G27G21G13G10G20G29G16G15
 124991173.936 6  97395716.674 7  23785028.475    23785028.121    23785032.256
  23785032.119          41.750          45.500
 110238717.588 8  85900302.79647  20977728.463    20977727.915
  20977729.126          50.000          46.2504
 119122210.743 7  92822503.09845  22668200.767    22668200.346
  22668202.538          45.250          33.2504
 120385268.741 7  93806704.619 7  22908554.708    22908554.758    22908558.993
  22908559.315          45.750          47.500
 108977659.050 8  84917656.12847  20737757.748    20737757.150
  20737758.865          49.750          44.7504
 119147233.626 7  92842005.144 7  22672966.260    22672966.260    22672968.425
  22672968.368          47.750          46.000
 127842875.649 6  99617826.96943  24327691.373    24327690.318
  24327693.300          40.500          23.2504
 109356255.177 9  85212667.484 8  20809802.096    20809802.294    20809803.626
  20809803.330          54.250          51.750
 20  1  1  0 36  0.0000000  0  9G27G21G13G10G26G20G29G16G15
 124903454.538 7  97327363.896 7  23768335.631    23768335.516    23768339.977
  23768339.792          42.250          45.000
 110218676.371 8  85884686.26247  20973914.805    20973914.199
  20973915.471          49.750          46.2504
 119186640.486 7  92872708.08845  22680461.305    22680461.192
  22680462.562          45.250          33.5004
 120307971.122 7  93746472.727 7  22893845.565    22893845.718    22893849.708
  22893850.144          46.000          47.500
 131469310.837 6 102443618.226 5  25017778.347    25017778.509    25017782.557
  25017784.014          38.500          34.250
 108932488.563 8  84882458.36947  20729162.037    20729161.158
  20729163.309          49.500          45.0004
 119252303.099 8  92923877.459 7  22692960.026    22692960.678    22692962.479
  22692962.655          48.000          45.750
 127892461.508 6  99656465.28843  24337127.013    24337126.208
  24337127.532          40.500          23.2504
 109381053.071 8  85231990.526 8  20814520.754    20814521.097    20814522.566
  20814522.195          53.750          52.250
 20  1  1  0 36 30.0000000  0  9G27G21G13G10G26G20G29G16G15
 124816078.972 7  97259279.040 7  23751709.338    23751708.662    23751711.964
  23751712.869          43.000          45.000
 110198890.516 8  85869268.71047  20970149.783    20970149.080
  20970150.196          50.000          46.5004
 119251568.866 7  92923301.62645  22692816.558    22692817.019
  22692818.198          45.250          33.2504
 120230879.772 7  93686401.552 8  22879175.464    22879175.969    22879179.741
  22879180.217          46.250          48.000
 131541353.051 6 102499755.010 6  25031487.450    25031487.303    25031492.140
  25031492.407          37.000          38.500
 108887625.707 8  84847500.31847  20720625.102    20720624.365
  20720626.188          50.000          44.7504
 119357628.862 8  93005949.486 7  22713003.038    22713003.399    22713005.013
  22713005.521          48.000          45.500
 127942476.895 6  99695438.30343  24346644.563    24346643.222
  24346645.436          39.750          22.2504
 109406473.920 9  85251798.982 8  20819358.499    20819358.519    20819359.899
  20819359.728          54.000          52.000
 20  1  1  0 37  0.0000000  0  9G27G21G13G10G26G20G29G16G15
 124729050.013 7  97191464.261 7  23735147.172    23735146.912    23735151.189
  23735151.573          42.250          45.250
 110179361.285 8  85854051.13247  20966433.420    20966432.704
  20966434.111          50.250          46.0004
 119316993.641 7  92974281.99145  22705266.875    22705266.431
  22705268.049          46.250          33.2504
 120153995.181 7  93626491.496 7  22864544.884    22864545.094    22864548.697
  22864549.239          46.000          47.750
 131613562.816 6 102556022.395 6  25045227.845    25045228.906    25045234.605
  25045234.489          36.250          39.250
 108843070.202 8  84812781.75947  20712146.350    20712145.690
  20712147.592          49.750          45.0004
 119463208.342 7  93088219.205 7  22733094.202    22733094.412    22733096.545
  22733096.114          47.500          45.500
 127992918.908 6  99734743.76543  24356243.216    24356243.590
  24356244.821          41.000          22.2504
 109432516.264 9  85272091.724 8  20824314.186    20824314.262    20824315.400
  20824315.336          54.000          51.750
 20  1  1  0 37 30.0000000  0  8G27G21G13G10G20G29G16G15
 124642368.696 7  97123920.364 7  23718652.401    23718652.768    23718656.635
  23718656.625          42.500          45.250
 110160087.899 8  85839032.90747  20962765.891    20962765.245
  20962766.405          50.000          46.5004
 119382910.998 7  93025646.17245  22717810.528    22717810.220
  22717811.361          46.000          33.2504
 120077316.212 7  93566741.667 8  22849953.297    22849953.136    22849957.479
  22849957.543          45.750          48.000
 108798821.233 8  84778302.05847  20703726.156    20703725.365
  20703727.083          50.250          45.2504
 119569037.409 7  93170683.417 7  22753232.523    22753232.815    22753234.665
  22753234.983          47.250          45.500
 128043783.748 6  99774378.67643  24365922.378    24365921.605
  24365922.684          39.250          22.0004
 109459177.770 8  85292866.932 8  20829387.691    20829387.892    20829389.103
  20829388.951          53.750          52.000
 20  1  1  0 38  0.0000000  0  8G27G21G13G10G20G29G16G15
 124556039.372 7  97056650.747 7  23702224.911    23702224.433    23702228.753
  23702228.621          43.000          45.500
 110141072.921 8  85824216.04447  20959147.573    20959146.782
  20959147.985          50.000          46.2504
 119449320.100 7  93077393.54545  22730448.133    22730447.796
  22730448.771          46.500          33.0004
 120000845.048 7  93507153.752 8  22835401.689    22835401.792    22835405.247
  22835405.948          46.750          48.000
 108754880.663 8  84744062.67347  20695364.190    20695363.646
  20695365.464          50.250          45.2504
 119675115.120 8  93253341.374 7  22773419.011    22773419.009    22773421.075
  22773421.208          48.000          45.750
 128095070.130 6  99814342.06943  24375683.163    24375682.115
  24375684.026          40.500          23.7504
 109486458.806 8  85314124.889 8  20834578.824    20834579.078    20834580.476
  20834580.309          53.500          52.000
 20  1  1  0 38 30.0000000  0  8G27G21G13G10G20G29G16G15
 124470063.547 7  96989656.587 7  23685864.216    23685863.623    23685868.196
  23685868.436          43.000          45.750
 110122316.674 8  85809600.78947  20955578.324    20955577.566
  20955578.745          49.750          46.2504
 119516217.702 7  93129521.56145  22743177.787    22743177.821
  22743178.612          45.750          33.0004
 119924580.916 7  93447727.171 8  22820889.008    22820888.560    22820892.934
  22820893.066          46.000          48.250
 108711247.329 8  84710062.68447  20687061.353    20687060.604
  20687062.403          50.250          45.2504
 119781437.675 7  93336190.120 7  22793651.168    22793651.355    22793653.449
  22793653.204          47.500          45.250
 128146774.893 6  99854631.49844  24385521.504    24385520.570
  24385522.266          40.250          24.7504
 109514356.857 8  85335863.639 8  20839887.776    20839887.998    20839889.166
  20839889.100          53.500          51.500
 20  1  1  0 39  0.0000000  0  8G27G21G13G10G20G29G16G15
 124384445.140 7  96922940.935 7  23669571.622    23669571.560    23669575.563
  23669575.328          43.250          45.750
 110103821.542 8  85795188.99547  20952058.581    20952058.132
  20952059.339          50.250          46.2504
 119583602.727 7  93182029.36445  22756000.391    22756000.588
  22756001.894          45.250          33.0004
 119848525.577 7  93388463.268 7  22806416.076    22806416.024    22806419.558
  22806420.239          46.500          47.750
 108667922.813 8  84676303.33547  20678817.046    20678816.144
  20678817.840          50.500          45.5004
 119888003.874 7  93419228.726 7  22813930.111    22813930.212    22813932.029
  22813932.372          47.500          44.750
 128198896.579 6  99895245.76544  24395440.169    24395438.589
  24395440.650          40.250          24.2504
 109542871.761 8  85358083.045 8  20845313.996    20845314.163    20845315.386
  20845315.197          53.000          51.750
 20  1  1  0 39 30.0000000  0  8G27G21G13G10G20G29G16G15
 124299185.189 7  96856504.613 7  23653347.033    23653347.111    23653351.140
  23653351.029          43.250          46.250
 110085586.654 8  85780979.99247  20948588.719    20948587.983
  20948589.232          50.000          46.2504
 119651471.243 7  93234913.94345  22768915.758    22768915.172
  22768916.887          45.000          32.7504
 119772677.864 7  93329361.157 8  22791982.510    22791982.557    22791986.505
  22791986.956          46.250          48.000
 108624905.275 8  84642783.19747  20670630.938    20670630.196
  20670631.888          50.500          45.2504
 119994809.402 7  93502453.818 7  22834254.138    22834254.540    22834256.323
  22834256.479          47.500          44.750
 128251430.839 6  99936181.57843  24405436.109    24405435.644
  24405438.024          39.250          22.7504
 109572000.610 8  85380780.857 8  20850856.939    20850857.253    20850858.560
  20850858.103          52.750          51.750
 20  1  1  0 40  0.0000000  0  8G27G21G13G10G20G29G16G15
 124214288.356 7  96790351.242 7  23637192.056    23637191.912    23637195.946
  23637196.041          43.750          46.000
 110067615.419 8  85766976.42947  20945169.023    20945168.430
  20945169.559          49.750          46.2504
 119719822.927 7  93288175.00345  22781922.736    22781922.413
  22781923.259          45.000          32.2504
 119697040.215 7  93270422.732 8  22777588.984    22777589.266    22777593.187
  22777593.729          46.250          48.000
 108582197.473 8  84609504.40747  20662503.926    20662503.069
  20662505.003          50.250          45.2504
 120101853.420 7  93585864.737 7  22854624.386    22854624.382    22854627.226
  22854626.598          47.500          45.500
 128304377.091 6  99977438.34843  24415512.274    24415511.398
  24415512.961          39.250          20.7504
 109601744.054 8  85403957.570 8  20856517.310    20856517.379    20856518.516
  20856518.236          52.750          51.500
 20  1  1  0 40 30.0000000  0  8G27G21G13G10G20G29G16G15
 124129755.687 7  96724481.635 7  23621105.547    23621105.859    23621109.828
  23621109.666          43.750          46.000
 110049906.944 8  85753177.61047  20941799.073    20941798.371
  20941799.794          49.750          46.2504
 119788653.684 7  93341809.35945  22795020.489    22795020.640
  22795022.284          45.250          32.5004
 119621611.504 7  93211647.129 8  22763235.550    22763235.702    22763239.603
  22763239.947          46.250          48.250
 108539797.730 8  84576465.66547  20654435.336    20654434.765
  20654436.421          50.500          45.5004
 120209131.900 7  93669458.354 7  22875038.595    22875038.386    22875041.268
  22875041.191          47.250          45.250
 128357731.510 6 100019013.20343  24425664.933    24425664.730
  24425666.971          39.000          22.0004
 109632099.353 8  85427611.054 8  20862293.566    20862293.737    20862295.007
  20862294.603          53.000          51.250
 20  1  1  0 41  0.0000000  0  9G27G21G13G26G10G20G29G16G15
 124045589.494 7  96658897.602 7  23605089.530    23605089.260    23605093.718
  23605093.572          43.750          46.000
 110032462.360 8  85739584.42747  20938479.429    20938478.703
  20938480.064          49.750          46.2504
 119857960.780 7  93395814.89545  22808209.335    22808209.160
  22808210.595          45.000          32.5004
 132196896.289 6 103010570.132 5  25156233.253    25156234.644    25156237.174
  25156238.387          36.750          33.000
 119546391.803 7  93153034.389 8  22748922.016    22748921.936    22748925.732
  22748926.141          46.750          48.000
 108497705.671 8  84543666.67347  20646425.508    20646424.815
  20646426.694          50.250          45.0004
 120316641.871 7  93753232.347 7  22895497.113    22895497.094    22895499.476
  22895499.353          47.000          44.500
 128411490.576 6 100060903.39043  24435895.664    24435894.210
  24435896.484          39.000          22.2504
 109663064.263 8  85451739.558 8  20868185.891    20868186.226    20868187.025
  20868187.060          53.000          51.750
 20  1  1  0 41 30.0000000  0  8G27G21G13G10G20G29G16G15
 123961793.733 7  96593602.212 7  23589144.085    23589143.861    23589147.927
  23589147.330          44.000          46.250
 110015283.923 8  85726198.63247  20935210.350    20935209.822
  20935211.092          49.500          46.2504
 119927743.347 7  93450190.90145  22821488.453    22821488.069
  22821489.321          45.250          32.7504
 119471382.934 7  93094585.904 8  22734647.949    22734648.213    22734651.988
  22734652.677          46.750          48.250
 108455922.785 8  84511108.59347  20638474.369    20638473.847
  20638475.599          50.250          45.2504
 120424381.961 7  93837185.665 7  22915999.997    22915999.972    22916000.801
  22916001.279          47.500          44.000
 128465653.397 6 100103108.22043  24446201.786    24446201.939
  24446203.909          39.750          22.0004
 109694639.172 8  85476343.382 8  20874194.577    20874194.520    20874195.829
  20874195.462          52.250          51.750
 20  1  1  0 42  0.0000000  0  8G27G21G13G10G20G29G16G15
 123878369.652 7  96528596.432 7  23573268.469    23573268.492    23573272.508
  23573272.509          44.000          46.000
 109998371.656 8  85713020.24047  20931992.062    20931991.557
  20931992.875          49.250          46.0004
 119997997.489 7  93504934.42245  22834857.186    22834857.187
  22834858.226          45.000          32.5004
 119396583.867 7  93036300.934 8  22720414.086    22720414.288    22720418.609
  22720418.928          46.750          48.750
 108414448.368 8  84478790.87347  20630582.198    20630581.517
  20630583.311          50.250          45.2504
 120532348.149 7  93921315.187 7  22936545.243    22936545.184    22936546.617
  22936546.534          47.750          44.500
 128520216.807 6 100145625.12643  24456584.444    24456583.604
  24456585.671          37.250          21.5004
 109726821.092 8  85501420.214 8  20880318.439    20880318.610    20880319.787
  20880319.611          52.750          51.500
 20  1  1  0 42 30.0000000  0  9G27G21G13G26G10G20G29G16G15
 123795321.177 7  96463883.325 7  23557464.780    23557464.692    23557468.539
  23557468.645          43.750          45.750
 109981727.646 8  85700050.88447  20928825.027    20928824.349
  20928825.583          50.000          46.2504
 120068721.903 7  93560044.34945  22848316.051    22848315.529
  22848316.998          45.000          32.2504
 132418051.789 6                  25198315.827
                        38.250
 119321996.383 7  92978180.826 8  22706220.835    22706220.893    22706224.913
  22706225.126          47.500          48.750
 108373283.716 8  84446714.52347  20622748.784    20622748.295
  20622749.979          50.500          45.5004
 120640539.076 7  94005619.805 7  22957133.109    22957132.784    22957135.554
  22957135.191          47.000          45.000
 128575178.702 6 100188452.56343  24467044.296    24467043.126
  24467045.524          38.750          22.0004
 109759609.823 8  85526969.887 8  20886558.016    20886557.955    20886559.428
  20886559.013          53.000          51.500
 20  1  1  0 43  0.0000000  0  9G27G21G13G26G10G20G29G16G15
 123712649.837 7  96399464.093 7  23541733.406    23541732.946    23541736.744
  23541736.939          43.500          46.000
 109965351.836 8  85687290.51147  20925708.696    20925708.058
  20925709.329          49.500          46.5004
 120139913.247 7  93615518.13345  22861862.766    22861863.008
  22861864.141          45.000          32.5004
 132492035.529 6 103240544.325 6  25212394.877    25212396.091    25212398.938
  25212400.608          37.750          37.500
 119247619.725 7  92920225.004 8  22692067.336    22692067.360    22692071.202
  22692071.901          47.250          48.750
 108332427.650 8  84414878.63947  20614974.285    20614973.350
  20614975.291          50.750          45.5004
 120748950.946 7  94090096.572 7  22977762.791    22977762.791    22977765.251
  22977765.221          46.250          44.750
 128630535.156 6 100231587.40543  24477578.529    24477577.702
  24477579.556          39.000          23.2504
 109793002.976 8  85552990.531 8  20892912.230    20892912.446    20892913.758
  20892913.658          52.500          51.500
 20  1  1  0 43 30.0000000  0  8G27G21G13G10G20G29G16G15
 123630360.083 7  96335342.220 7  23526074.290    23526073.875    23526078.178
  23526077.599          44.000          46.500
 109949247.458 8  85674741.65047  20922644.253    20922643.603
  20922644.836          49.750          46.5004
 120211571.018 7  93671355.35845  22875498.910    22875499.065
  22875499.878          45.000          31.7504
 119173456.287 7  92862435.321 8  22677954.306    22677954.562    22677958.841
  22677959.313          47.000          49.250
 108291882.104 8  84383284.71347  20607258.643    20607257.922
  20607259.692          50.750          45.5004
 120857583.015 7  94174744.923 7  22998434.988    22998434.622    22998436.809
  22998437.307          46.500          44.250
 128686285.546 6 100275029.25943  24488186.843    24488185.603
  24488188.412          38.000          22.0004
 109827000.792 8  85579482.338 8  20899381.982    20899382.044    20899383.123
  20899383.091          52.750          51.250
 20  1  1  0 44  0.0000000  0  8G27G21G13G10G20G29G16G15
 123548452.924 7  96271518.461 7  23510487.867    23510487.445    23510491.586
  23510491.066          43.500          46.500
 109933413.565 8  85662403.55547  20919631.220    20919630.559
  20919631.781          49.500          46.5004
 120283690.831 7  93727552.62045  22889222.920    22889222.678
  22889224.258          44.000          32.0004
 119099504.784 7  92804810.779 8  22663882.040    22663882.100    22663885.615
  22663886.380          47.750          48.500
 108251645.694 8  84351931.68247  20599601.731    20599601.206
  20599603.010          50.250          45.5004
 120966431.076 7  94259561.620 7  23019148.059    23019147.841    23019149.722
  23019149.764          46.250          43.750
 128742425.697 6 100318774.82143  24498870.965    24498869.913
  24498871.003          38.750          23.5004
 109861600.091 8  85606442.831 8  20905965.897    20905966.092    20905967.487
  20905967.238          53.250          51.500
 20  1  1  0 44 30.0000000  0  8G27G21G13G10G20G29G16G15
 123466931.202 7  96207995.049 7  23494974.565    23494974.586    23494978.216
  23494978.293          43.750          46.000
 109917851.499 8  85650277.26847  20916669.956    20916669.111
  20916670.280          49.750          46.5004
 120356271.222 7  93784108.79145  22903034.692    22903034.547
  22903035.955          45.250          31.7504
 119025765.880 7  92747351.903 8  22649849.714    22649849.859    22649853.980
  22649854.384          47.000          48.750
 108211718.737 8  84320819.77547  20592003.819    20592003.286
  20592005.062          50.750          45.5004
 121075492.578 7  94344544.608 7  23039901.470    23039901.530    23039903.393
  23039904.456          46.250          44.000
 128798953.079 6 100362822.12743  24509627.131    24509625.891
  24509627.509          38.500          21.2504
 109896799.659 8  85633871.079 8  20912664.142    20912664.391    20912665.949
  20912665.543          53.000          51.250
 20  1  1  0 45  0.0000000  0  8G27G21G13G10G20G29G16G15
 123385797.362 7  96144773.871 7  23479535.360    23479535.504    23479539.155
  23479538.959          43.750          46.250
 109902562.718 8  85638363.93947  20913760.381    20913759.873
  20913761.060          49.500          46.5004
 120429309.027 7  93841021.36645  22916933.666    22916933.616
  22916934.318          45.250          31.7504
 118952239.826 7  92690058.880 8  22635858.177    22635858.569    22635862.052
  22635863.094          47.000          48.500
 108172101.531 8  84289949.23947  20584464.976    20584464.331
  20584466.099          51.000          45.7504
 121184764.550 7  94429691.569 7  23060695.008    23060695.325    23060697.052
  23060697.403          45.750          44.000
 128855865.015 6 100407169.06043  24520456.465    24520456.668
  24520458.125          38.750          22.0004
 109932597.584 8  85661765.570 8  20919476.347    20919476.556    20919477.652
  20919477.537          53.500          51.500
 20  1  1  0 45 30.0000000  0  8G27G21G13G10G20G29G16G15
 123305054.257 7  96081857.167 7  23464170.890    23464170.277    23464173.981
  23464173.781          43.500          46.250
 109887548.384 8  85626664.45947  20910903.244    20910902.695
  20910903.870          49.500          46.2504
 120502801.951 7  93898288.58645  22930918.756    22930918.530
  22930918.984          44.750          31.5004
 118878927.312 7  92632932.242 8  22621907.324    22621907.577    22621911.646
  22621911.823          46.750          48.750
 108132794.259 8  84259320.21047  20576985.425    20576984.534
  20576986.357          50.500          45.5004
 121294244.963 7  94515001.003 7  23081529.139    23081528.917    23081530.036
  23081530.549          46.500          43.250
 128913158.742 6 100451813.51943  24531359.392    24531358.788
  24531360.539          37.000          19.5004
 109968992.636 8  85690125.355 8  20926402.260    20926402.257    20926403.608
  20926403.463          53.750          51.250
 20  1  1  0 46  0.0000000  0  8G27G21G13G10G20G29G16G15
 123224703.612 7  96019246.289 7  23448880.056    23448880.190    23448883.594
  23448883.913          43.250          46.000
 109872808.472 8  85615178.81447  20908098.496    20908097.719
  20908098.990          49.750          46.2504
 120576746.477 7  93955907.70545  22944989.569    22944989.566
  22944990.506          44.500          31.7504
 118805827.822 7  92575971.615 8  22607996.943    22607997.043    22608001.468
  22608001.381          47.000          49.000
 108093796.150 8  84228932.08747  20569564.238    20569563.305
  20569565.115          50.250          45.7504
 121403930.182 7  94600469.999 7  23102401.307    23102401.480    23102403.188
  23102403.390          46.750          43.500
 128970831.036 6 100496752.93443  24542334.602    24542333.716
  24542336.299          39.000          22.2504
 110005982.190 8  85718948.387 8  20933440.728    20933440.958    20933442.318
  20933442.090          53.250          51.250
 20  1  1  0 46 30.0000000  0  8G27G21G13G10G20G29G16G15
 123144749.768 7  95956944.601 7  23433665.222    23433665.194    23433668.884
  23433669.194          43.500          45.750
 109858346.301 8  85603909.60247  20905346.356    20905345.691
  20905346.785          49.750          46.2504
 120651142.370 7  94013878.53345  22959147.087    22959146.230
  22959147.906          44.250          31.5004
 118732943.594 7  92519178.726 8  22594127.654    22594128.047    22594131.671
  22594131.982          47.750          49.000
 108055109.185 8  84198786.41947  20562202.311    20562201.401
  20562203.149          50.500          45.5004
 121513819.137 7  94686097.732 7  23123312.707    23123312.289    23123314.108
  23123314.084          46.250          43.000
 129028880.467 6 100541986.22243  24553379.731    24553379.450
  24553382.132          38.000          23.0004
 110043566.626 8  85748234.964 8  20940593.014    20940593.171    20940594.556
  20940594.218          53.500          51.500
 20  1  1  0 47  0.0000000  0  8G27G21G13G10G20G29G16G15
 123065194.227 7  95894953.283 7  23418526.104    23418525.914    23418530.116
  23418529.415          42.750          46.250
 109844161.575 8  85592856.56847  20902646.999    20902646.366
  20902647.599          49.250          46.2504
 120725986.053 7  94072198.28445  22973389.486    22973389.153
  22973390.522          44.500          31.7504
 118660273.919 7  92462553.001 8  22580299.153    22580299.104    22580303.297
  22580303.625          47.500          49.000
 108016732.693 8  84168882.68047  20554899.254    20554898.680
  20554900.302          51.000          45.7504
 121623908.180 7  94771881.415 7  23144261.684    23144261.690    23144263.603
  23144263.223          46.000          43.000
 129087304.170 6 100587511.19443  24564497.288    24564498.471
  24564499.382          38.500          23.5004
 110081743.097 9  85777982.861 8  20947857.882    20947857.971    20947859.255
  20947858.888          54.000          51.500
 20  1  1  0 47 30.0000000  0  8G27G21G13G10G20G29G16G15
 122986039.343 7  95833274.167 7  23403463.788    23403463.858    23403467.478
  23403467.307          43.250          46.250
 109830255.093 8  85582020.35847  20900000.960    20900000.125
  20900001.230          49.250          46.2504
 120801274.556 7  94130864.65645  22987716.204    22987715.985
  22987717.214          44.250          31.7504
 118587818.967 7  92406094.611 8  22566511.054    22566511.406    22566515.306
  22566515.554          47.000          48.500
 107978666.580 8  84139220.78947  20547655.488    20547654.778
  20547656.557          50.500          45.7504
 121734194.585 7  94857818.872 7  23165248.778    23165248.905    23165250.458
  23165250.650          46.500          43.500
 129146098.462 6 100633324.89343  24575685.749    24575686.083
  24575686.960          38.250          22.2504
 110120509.752 8  85808190.650 8  20955234.819    20955235.083    20955236.149
  20955235.932          53.750          51.500
 20  1  1  0 48  0.0000000  0  8G27G21G13G10G20G29G16G15
 122907287.924 7  95771909.431 7  23388477.759    23388477.648    23388481.962
  23388481.588          43.000          46.250
 109816628.402 8  85571402.16147  20897407.496    20897407.010
  20897408.199          49.500          46.2504
 120877005.661 7  94189875.90745  23002127.190    23002126.549
  23002127.772          44.250          31.5004
 118515579.339 7  92349803.989 8  22552764.665    22552764.943    22552768.687
  22552768.807          47.750          49.000
 107940910.868 8  84109800.76447  20540470.890    20540470.251
  20540471.974          50.500          45.7504
 121844675.791 7  94943908.134 7  23186272.714    23186272.249    23186274.213
  23186274.441          46.250          43.500
 129205260.913 6 100679425.50743  24586944.655    24586944.618
  24586946.545          37.750          21.0004
 110159865.037 9  85838857.113 8  20962723.937    20962724.167    20962725.016
  20962725.275          54.000          51.250
 20  1  1  0 48 30.0000000  0  8G27G21G13G10G20G29G16G15
 122828942.850 7  95710861.340 7  23373569.341    23373569.570    23373572.732
  23373573.215          43.500          46.000
 109803282.689 8  85561002.90247  20894867.929    20894867.265
  20894868.535          49.500          46.2504
 120953177.041 7  94249230.23745  23016622.429    23016621.987
  23016622.915          44.000          31.7504
 118443555.799 7  92293681.770 8  22539058.486    22539058.733    22539063.029
  22539063.549          47.250          49.000
 107903465.950 8  84080622.91947  20533345.212    20533344.789
  20533346.421          50.500          45.7504
 121955349.535 7  95030147.402 7  23207332.661    23207332.610    23207335.043
  23207334.851          45.500          43.750
 129264789.423 6 100725811.35843  24598272.357    24598272.301
  24598273.797          38.000          20.2504
 110199807.213 9  85869980.886 8  20970324.635    20970324.798    20970325.926
  20970325.702          54.000          51.250
 20  1  1  0 49  0.0000000  0  8G27G21G13G10G20G29G16G15
 122751005.666 7  95650131.079 7  23358738.290    23358738.205    23358742.016
  23358742.347          43.250          46.000
 109790218.170 8  85550822.76047  20892381.928    20892381.336
  20892382.620          49.250          46.2504
 121029785.346 7  94308925.02445  23031200.723    23031200.124
  23031200.396          44.000          31.0004
 118371747.715 7  92237727.419 8  22525394.350    22525394.628    22525397.983
  22525398.531          47.750          49.000
 107866331.336 8  84051686.86747  20526278.707    20526278.162
  20526279.914          50.500          45.7504
 122066212.038 7  95116533.762 7  23228428.984    23228429.544    23228432.333
  23228431.605          45.000          44.000
 129324679.921 6 100772479.28343  24609669.814    24609668.347
  24609669.892          38.000          21.5004
 110240334.331 8  85901560.464 8  20978036.855    20978036.921    20978038.304
  20978037.848          53.750          51.250
 20  1  1  0 49 30.0000000  0  8G27G21G13G10G20G29G16G15
 122673480.436 7  95589721.811 7  23343985.650    23343985.689    23343989.239
  23343989.721          43.500          46.250
 109777437.557 8  85540863.83947  20889949.869    20889949.247
  20889950.417          49.750          46.2504
 121106829.373 7  94368959.31845  23045861.173    23045861.362
  23045861.962          43.750          31.2504
 118300156.962 8  92181942.435 8  22511771.044    22511771.066    22511774.914
  22511775.328          48.000          49.000
 107829508.587 8  84022993.82647  20519271.686    20519271.018
  20519272.713          51.000          45.7504
 122177262.207 7  95203066.358 7  23249561.481    23249562.097    23249563.637
  23249564.016          45.750          43.250
 129384931.261 6 100819428.36543  24621135.136    24621134.271
  24621135.646          37.000          20.7504
 110281445.829 9  85933595.400 8  20985859.873    20985860.128    20985861.528
  20985861.054          54.000          51.000
 20  1  1  0 50  0.0000000  0  8G27G21G13G10G20G29G16G15
 122596368.466 7  95529634.564 7  23329311.673    23329311.577    23329315.575
  23329315.511          42.500          46.000
 109764940.489 8  85531125.86747  20887571.714    20887571.154
  20887572.363          49.250          46.2504
 121184305.403 7  94429330.28145  23060604.501    23060604.033
  23060605.241          43.250          30.7504
 118228782.704 8  92126326.137 8  22498188.932    22498188.831    22498193.201
  22498193.764          48.000          49.750
 107792996.028 8  83994542.49047  20512323.615    20512322.786
  20512324.663          50.750          46.0004
 122288495.995 7  95289742.038 7  23270729.046    23270728.526    23270730.924
  23270730.214          46.250          44.000
 129445539.758 6 100866655.70343  24632668.796    24632668.130
  24632668.609          37.750          22.2504
 110323138.458 9  85966083.171 8  20993793.782    20993794.021    20993795.246
  20993795.071          54.000          51.250
 20  1  1  0 50 30.0000000  0  7G27G21G13G10G20G29G15
 122519673.507 7  95469872.274 7  23314717.336    23314716.716    23314721.490
  23314721.439          42.250          46.250
 109752729.656 8  85521610.92947  20885247.971    20885247.409
  20885248.718          49.250          46.0004
 121262212.268 7  94490036.91745  23075429.118    23075429.589
  23075430.678          43.250          31.5004
 118157626.566 7  92070879.827 8  22484648.192    22484648.153    22484652.255
  22484653.054          47.500          49.500
 107756795.684 8  83966334.44147  20505434.750    20505434.149
  20505435.832          51.000          45.5004
 122399912.059 7  95376559.747 7  23291930.110    23291930.065    23291933.161
  23291932.718          45.000          44.750
 110365411.674 8  85999023.342 8  21001838.137    21001838.238    21001839.460
  21001839.277          53.750          51.000
 20  1  1  0 51  0.0000000  0  7G27G21G13G10G20G29G15
 122443395.964 7  95410435.228 7  23300201.737    23300201.784    23300205.797
  23300205.814          42.750          46.000
 109740803.810 8  85512318.06447  20882978.810    20882978.116
  20882979.268          49.000          46.0004
 121340545.132 7  94551075.49445  23090335.570    23090335.693
  23090336.715          43.500          31.2504
 118086686.779 8  92015602.074 8  22471149.225    22471149.094    22471152.755
  22471153.483          48.000          49.250
 107720905.394 8  83938368.00047  20498605.434    20498604.548
  20498606.172          51.250          46.0004
 122511505.873 7  95463515.951 7  23313165.946    23313166.147    23313167.490
  23313167.838          45.250          43.500
 110408262.022 9  86032413.228 8  21009992.245    21009992.405    21009993.613
  21009993.510          54.000          51.000
 20  1  1  0 51 30.0000000  0  8G27G21G13G10G24G20G29G15
 122367539.619 7  95351326.399 7  23285767.169    23285766.671    23285770.657
  23285770.946          42.500          45.500
 109729165.094 8  85503248.92547  20880763.948    20880763.216
  20880764.559          49.000          46.2504
 121419302.604 7  94612444.94945  23105322.973    23105322.713
  23105323.850          43.750          30.7504
 118015964.948 7  91960494.163 8  22457691.289    22457691.053    22457695.084
  22457695.668          47.500          49.500
 128745478.130 6 100321148.297 5  24499449.590    24499449.764    24499454.087
  24499454.160          38.250          35.250
 107685326.430 8  83910644.14947  20491834.876    20491834.035
  20491835.708          50.750          45.7504
 122623275.606 7  95550609.249 7  23334435.157    23334435.597    23334437.096
  23334437.192          45.500          43.500
 110451688.598 8  86066252.121 8  21018256.041    21018256.099    21018257.490
  21018257.173          53.500          51.000
 20  1  1  0 52  0.0000000  0  9G27G21G13G10G24G20G16G29G15
 122292107.189 7  95292547.891 7  23271412.856    23271412.816    23271416.427
  23271416.496          43.000          45.500
 109717815.143 8  85494404.80847  20878604.119    20878603.484
  20878604.584          49.000          46.2504
 121498482.510 7  94674143.58745  23120390.605    23120389.801
  23120391.235          43.250          30.5004
 117945461.641 8  91905556.544 8  22444274.618    22444274.664    22444278.995
  22444279.066          48.000          50.000
 128656149.894 6 100251541.914 7  24482451.047    24482450.923    24482455.067
  24482455.455          39.000          43.250
 107650059.289 8  83883163.27147  20485123.692    20485122.952
  20485124.590          51.250          46.0004
 129691499.625 6                  24679470.840
                        38.500
 122735218.885 7  95637837.780 7  23355736.929    23355736.754    23355738.841
  23355739.508          44.500          42.750
 110495689.803 8  86100538.779 8  21026629.030    21026629.233    21026630.898
  21026630.449          53.250          50.750
 20  1  1  0 52 30.0000000  0  9G27G21G13G10G24G20G16G29G15
 122217100.298 7  95234100.970 7  23257139.371    23257139.487    23257143.312
  23257143.291          43.250          46.000
 109706754.081 8  85485785.79647  20876499.341    20876498.770
  20876499.765          49.000          46.2504
 121578081.070 7  94736168.44445  23135537.033    23135537.338
  23135538.534          43.250          30.2504
 117875176.269 7  91850788.733 8  22430899.787    22430899.783    22430903.960
  22430904.510          47.750          49.750
 128566903.303 6 100181999.152 6  24465467.206    24465468.427    24465472.294
  24465472.521          37.250          39.750
 107615103.139 8  83855924.72847  20478471.651    20478471.031
  20478472.632          51.000          46.0004
 129753851.177 6 101106893.77143  24691336.256    24691334.987
  24691336.622          38.750          21.2504
 122847332.192 7  95725198.782 7  23377071.873    23377071.593    23377073.288
  23377073.414          44.750          42.500
 110540262.897 8  86135271.065 8  21035111.205    21035111.339    21035112.468
  21035112.503          53.500          51.000
 20  1  1  0 53  0.0000000  0  9G27G21G13G10G24G20G16G29G15
 122142522.130 7  95175988.112 7  23242948.035    23242947.649    23242951.637
  23242951.693          43.500          46.000
 109695983.500 8  85477393.13047  20874449.797    20874449.064
  20874450.344          49.000          46.0004
 121658096.579 7  94798518.18744  23150764.031    23150763.815
  23150764.791          42.500          29.7504
 117805110.196 7  91796191.814 8  22417566.753    22417566.903    22417570.914
  22417571.045          47.750          49.500
 128477742.555 6 100112523.209 6  24448501.424    24448501.089    24448505.358
  24448505.050          37.750          39.500
 107580458.532 8  83828928.93947  20471879.162    20471878.379
  20471880.022          50.750          45.7504
 129816543.240 6 101155744.74843  24703265.339    24703265.869
  24703268.239          38.500          23.5004
 122959613.705 7  95812690.892 7  23398437.996    23398437.835    23398439.843
  23398439.341          45.000          42.250
 110585406.642 8  86170448.012 8  21043701.734    21043701.851    21043703.227
  21043702.833          53.500          50.750
 20  1  1  0 53 30.0000000  0  9G27G21G13G10G24G20G16G29G15
 122068374.209 7  95118210.524 7  23228837.768    23228838.065    23228841.276
  23228841.472          43.500          45.750
 109685503.556 8  85469226.93047  20872455.432    20872454.799
  20872455.954          48.250          46.2504
 121738525.521 7  94861190.10244  23166068.734    23166068.850
  23166069.619          42.500          29.7504
 117735262.631 7  91741765.158 8  22404275.244    22404274.982    22404279.253
  22404279.697          47.250          49.750
 128388669.340 6 100043115.566 6  24431550.176    24431550.750    24431554.861
  24431555.106          37.250          39.000
 107546125.112 8  83802175.63647  20465345.992    20465345.037
  20465346.548          51.000          46.0004
 129879572.031 6 101204858.08443  24715258.740    24715258.729
  24715262.012          37.500          21.2504
 123072059.747 7  95900311.210 7  23419836.003    23419835.036    23419837.191
  23419836.998          44.750          42.000
 110631118.197 8  86206067.416 8  21052400.254    21052400.421    21052401.734
  21052401.705          53.000          51.250
 20  1  1  0 54  0.0000000  0  9G27G21G13G10G24G20G16G29G15
 121994660.243 7  95060771.069 7  23214810.568    23214810.452    23214814.378
  23214814.290          43.500          46.000
 109675316.696 8  85461289.11347  20870516.900    20870516.369
  20870517.505          48.000          46.5004
 121819366.563 7  94924183.12244  23181451.991    23181452.471
  23181453.869          42.250          29.5004
 117665635.143 7  91687509.986 8  22391025.562    22391025.875    22391029.234
  22391029.492          47.750          49.250
 128299688.572 6  99973779.835 6  24414618.653    24414619.386    24414622.575
  24414622.568          36.750          39.250
 107512103.389 8  83775665.21547  20458871.404    20458870.690
  20458872.291          50.250          46.0004
 129942935.896 6 101254232.47843  24727318.269    24727317.569
  24727318.541          39.500          23.5004
 123184668.732 7  95988058.484 7  23441264.548    23441264.605    23441266.604
  23441266.402          45.250          42.500
 110677396.811 8  86242128.673 8  21061206.812    21061207.030    21061208.239
  21061208.212          53.000          50.750
 20  1  1  0 54 30.0000000  0  9G27G21G13G10G24G20G16G29G15
 121921381.914 7  95003671.074 7  23200866.062    23200866.043    23200869.989
  23200869.905          43.000          46.250
 109665423.410 8  85453580.05747  20868634.453    20868633.653
  20868634.836          48.250          46.5004
 121900616.143 7  94987494.49144  23196913.798    23196913.392
  23196914.808          42.250          29.7504
 117596227.339 7  91633425.989 8  22377817.415    22377817.579    22377821.655
  22377821.809          47.500          49.750
 128210802.842 6  99904518.252 6  24397704.139    24397704.525    24397708.116
  24397707.633          38.000          36.500
 107478393.517 8  83749397.78947  20452456.682    20452455.912
  20452457.590          50.750          46.0004
 130006631.014 6 101303865.06643  24739437.638    24739438.103
  24739440.488          38.500          22.7504
 123297437.343 7  96075930.122 7  23462723.564    23462723.522    23462726.127
  23462725.952          44.250          42.250
 110724239.837 8  86278629.738 8  21070120.917    21070120.914    21070122.066
  21070122.215          52.750          51.000
 20  1  1  0 55  0.0000000  0  8G27G21G13G10G20G16G29G15
 121848542.773 7  94946913.305 7  23187005.185    23187004.884    23187009.157
  23187009.410          43.500          46.250
 109655825.657 8  85446101.28647  20866807.992    20866807.359
  20866808.528          48.000          46.2504
 121982273.044 6  95051123.25145  23212452.223    23212452.472
  23212453.846          41.750          30.2504
 117527040.617 7  91579514.277 8  22364651.487    22364651.788    22364655.729
  22364656.210          47.000          49.750
 107444996.679 8  83723374.29247  20446101.552    20446100.831
  20446102.370          50.500          46.0004
 130070655.918 6 101353754.59743  24751622.131    24751622.073
  24751623.372          40.500          23.5004
 123410363.980 7  96163924.916 7  23484213.473    23484213.692    23484215.071
  23484214.905          45.250          42.250
 110771646.525 8  86315570.022 8  21079141.895    21079142.088    21079143.356
  21079143.338          52.750          51.250
 20  1  1  0 55 30.0000000  0  9G27G21G13G10G24G20G16G29G15
 121776144.554 7  94890499.116 7  23173228.240    23173228.671    23173232.463
  23173232.192          43.750          46.000
 109646523.822 8  85438853.09447  20865037.790    20865037.101
  20865038.405          48.000          46.2504
 122064333.352 7  95115066.35144  23228068.338    23228068.209
  23228069.257          42.750          29.5004
 117458074.705 7  91525774.614 8  22351528.038    22351528.483    22351531.943
  22351532.452          47.500          50.000
 128033368.623 6                  24363932.407
                        37.250
 107411911.922 8  83697593.96647  20439805.517    20439804.857
  20439806.571          50.250          46.0004
 130135006.458 6 101403897.87843  24763867.325    24763866.252
  24763868.313          40.000          23.2504
 123523445.180 7  96252040.156 7  23505731.715    23505731.699    23505734.387
  23505734.175          44.500          43.250
 110819614.070 8  86352947.342 8  21088269.768    21088270.133    21088271.438
  21088271.199          52.250          51.000
 20  1  1  0 56  0.0000000  0  8G27G21G13G10G20G16G29G15
 121704187.590 7  94834428.752 7  23159535.239    23159535.315    23159539.242
  23159539.232          43.250          46.250
 109637516.646 7  85431834.51747  20863323.817    20863323.225
  20863324.472          47.500          46.2504
 122146792.790 7  95179320.47844  23243760.123    23243759.764
  23243759.807          42.000          29.5004
 117389327.740 7  91472205.565 8  22338445.666    22338445.885    22338450.068
  22338450.280          47.000          50.000
 107379137.210 8  83672055.23847  20433568.914    20433568.019
  20433569.870          50.500          46.0004
 130199678.419 6 101454291.62043  24776174.345    24776173.448
  24776175.166          40.000          23.0004
 123636676.250 7  96340272.160 7  23527278.265    23527278.538    23527281.187
  23527280.819          43.750          43.250
 110868138.380 8  86390758.498 8  21097503.445    21097503.694    21097505.382
  21097504.979          51.500          51.000
 20  1  1  0 56 30.0000000  0  8G27G21G13G10G20G16G29G15
 121632677.403 7  94778706.529 7  23145927.767    23145927.343    23145931.254
  23145931.169          43.500          46.250
 109628808.669 7  85425049.08047  20861666.828    20861666.081
  20861667.304          47.500          46.5004
 122229651.554 6  95243885.74944  23259526.273    23259526.916
  23259527.620          41.750          29.0004
 117320803.207 7  91418809.837 8  22325406.330    22325406.432    22325409.865
  22325410.571          47.500          49.750
 107346675.998 8  83646760.79347  20427391.914    20427390.960
  20427392.523          50.250          46.0004
 130264671.623 6 101504935.66043  24788541.899    24788541.333
  24788543.478          40.250          21.5004
 123750057.688 7  96428621.340 7  23548854.422    23548854.947    23548856.292
  23548856.349          43.750          42.750
 110917220.603 8  86429004.395 8  21106843.845    21106843.977    21106845.103
  21106845.031          51.750          50.750
 20  1  1  0 57  0.0000000  0  8G27G21G13G10G20G16G29G15
 121561614.644 7  94723332.958 7  23132404.458    23132404.611    23132408.184
  23132408.459          43.250          46.000
 109620399.136 7  85418496.19747  20860066.597    20860065.837
  20860067.075          47.500          46.5004
 122312905.282 7  95308758.78044  23275370.202    23275369.716
  23275371.177          42.000          29.2504
 117252499.652 7  91365586.300 8  22312408.424    22312408.642    22312412.504
  22312412.911          47.500          49.750
 107314526.246 8  83621709.04847  20421273.750    20421273.145
  20421274.631          50.250          46.2504
 130329981.679 6 101555826.57143  24800969.230    24800969.280
  24800971.422          38.250          21.0004
 123863584.800 7  96517084.037 7  23570457.786    23570457.712    23570460.176
  23570460.230          43.500          43.250
 110966856.843 8  86467681.991 8  21116289.157    21116289.333    21116290.877
  21116290.459          51.500          50.750
 20  1  1  0 57 30.0000000  0  8G27G21G13G10G20G16G29G15
 121491003.223 7  94668311.072 7  23118968.036    23118967.445    23118971.314
  23118971.305          43.750          46.000
 109612290.496 8  85412177.77347  20858523.531    20858522.798
  20858524.084          48.000          46.5004
 122396552.716 7  95373938.59344  23291287.441    23291287.008
  23291288.282          42.250          29.0004
 117184418.973 7  91312536.430 8  22299453.199    22299452.893    22299456.718
  22299457.391          47.250          50.000
 107282689.820 8  83596901.44947  20415215.582    20415214.840
  20415216.397          50.000          46.2504
 130395606.897 6 101606963.10043  24813458.271    24813457.820
  24813459.688          38.750          20.5004
 123977256.402 7  96605659.308 7  23592089.082    23592089.009    23592091.195
  23592091.648          43.500          43.250
 111017046.672 8  86506790.950 8  21125839.990    21125840.169    21125841.394
  21125841.154          51.250          50.500
 20  1  1  0 58  0.0000000  0  8G27G21G13G10G20G16G29G15
 121420844.526 7  94613641.958 7  23105617.003    23105616.968    23105620.781
  23105620.834          43.000          45.750
 109604482.794 7  85406093.84647  20857037.840    20857037.102
  20857038.340          47.500          46.5004
 122480590.664 6  95439422.71144  23307279.283    23307278.832
  23307280.179          41.750          29.2504
 117116560.447 7  91259659.659 8  22286539.845    22286539.966    22286543.905
  22286544.445          47.000          50.000
 107251165.635 8  83572337.16347  20409216.518    20409215.946
  20409217.673          49.750          46.2504
 130461543.468 6 101658342.24943  24826005.851    24826005.264
  24826007.198          39.500          21.2504
 124091069.023 7  96694344.465 7  23613747.146    23613746.803    23613748.500
  23613748.953          42.750          42.500
 111067786.945 8  86546328.834 8  21135495.505    21135495.724    21135496.850
  21135496.785          51.250          50.500
 20  1  1  0 58 30.0000000  0  8G27G21G13G10G20G16G29G15
 121351139.738 7  94559326.547 7  23092352.870    23092352.657    23092356.785
  23092356.468          44.000          46.250
 109596976.276 7  85400244.60347  20855609.396    20855608.631
  20855609.866          47.250          46.2504
 122565015.023 7  95505207.93844  23323344.738    23323344.199
  23323346.090          42.000          29.2504
 117048923.234 7  91206955.348 8  22273669.223    22273669.347    22273672.929
  22273673.389          47.750          50.250
 107219952.846 8  83548015.51247  20403277.239    20403276.421
  20403277.996          49.750          46.2504
 130527787.169 6 101709960.71443  24838611.817    24838610.697
  24838611.620          39.750          21.2504
 124205018.935 7  96783136.616 7  23635430.499    23635430.205    23635433.389
  23635432.829          42.250          43.000
 111119074.637 8  86586293.269 8  21145255.196    21145255.511    21145256.837
  21145256.522          51.500          50.500
 20  1  1  0 59  0.0000000  0  9G27G21G24G13G10G20G16G29G15
 121281892.481 7  94505367.655 7  23079175.220    23079175.424    23079179.445
  23079178.844          43.000          46.250
 109589772.858 7  85394631.54947  20854238.451    20854237.876
  20854239.202          47.000          46.2504
 127415635.450 6  99284909.524 6  24246389.888    24246388.891    24246392.818
  24246393.169          38.000          37.750
 122649824.194 7  95571293.00645  23339483.477    23339483.327
  23339484.440          42.250          30.0004
 116981508.890 7  91154424.709 8  22260840.257    22260840.404    22260844.401
  22260845.100          46.500          50.500
 107189052.627 8  83523937.42847  20397397.000    20397396.414
  20397397.684          49.250          46.2504
 130594336.287 6 101761817.17143  24851274.389    24851274.446
  24851275.628          38.000          21.2504
 124319104.411 7  96872034.394 7  23657140.493    23657140.878    23657142.760
  23657142.828          42.750          42.750
 111170908.739 8  86626683.483 8  21155119.252    21155119.111    21155120.576
  21155120.187          51.500          50.750
 20  1  1  0 59 30.0000000  0  9G27G21G24G13G10G20G16G29G15
 121213104.751 7  94451766.834 7  23066085.664    23066085.351    23066089.442
  23066089.016          44.000          46.250
 109582873.280 7  85389255.25547  20852925.507    20852924.987
  20852926.185          46.500          46.5004
 127327875.429 6  99216525.052 6  24229688.940    24229688.233    24229693.225
  24229692.179          38.000          41.500
 122735015.229 7  95637675.63144  23355695.212    23355694.716
  23355695.706          42.500          29.5004
 116914317.381 7  91102067.703 8  22248054.685    22248054.555    22248058.224
  22248058.878          47.500          50.250
 107158464.564 8  83500102.58347  20391576.264    20391575.449
  20391577.085          49.750          46.2504
 130661187.958 6 101813909.37243  24863996.356    24863996.835
  24863998.707          39.750          20.5004
 124433322.455 7  96961035.487 7  23678875.392    23678875.816    23678878.405
  23678877.653          42.750          42.500
 111223286.736 8  86667497.516 8  21165086.136    21165086.491    21165087.510
  21165087.398          50.750          50.250
 20  1  1  1  0  0.0000000  0  9G27G21G24G13G10G20G16G29G15
 121144779.231 7  94398526.179 7  23053083.120    23053083.504    23053087.190
  23053087.391          43.250          46.000
 109576278.808 7  85384116.70347  20851670.713    20851670.137
  20851671.255          46.750          46.5004
 127240245.417 6  99148241.942 7  24213012.225    24213012.736    24213017.808
  24213017.762          36.500          42.000
 122820585.727 7  95704353.94045  23371978.493    23371977.797
  23371979.602          42.250          30.0004
 116847349.355 7  91049884.844 8  22235310.411    22235310.696    22235315.109
  22235315.317          47.000          50.750
 107128189.280 8  83476511.45947  20385814.782    20385814.213
  20385815.878          50.000          46.0004
 130728339.304 6 101866235.07743  24876774.486    24876773.890
  24876775.930          37.250          19.7504
 124547670.919 6  97050138.222 6  23700634.621    23700635.082    23700637.254
  23700637.209          41.250          41.500
 111276206.931 8  86708734.032 8  21175156.702    21175156.812    21175157.731
  21175157.595          51.000          50.000
 20  1  1  1  0 30.0000000  0  9G27G21G24G13G10G20G16G29G15
 121076917.886 6  94345647.207 7  23040169.963    23040169.617    23040174.007
  23040173.890          41.500          46.250
 109569990.443 7  85379216.67147  20850474.040    20850473.349
  20850474.579          46.750          46.2504
 127152748.814 6  99080062.735 6  24196363.549    24196363.609    24196367.169
  24196367.285          38.500          41.500
 122906532.744 6  95771325.65144  23388332.636    23388333.075
  23388334.180          40.750          29.2504
 116780604.745 7  90997876.074 8  22222609.923    22222609.686    22222613.623
  22222614.230          46.500          50.500
 107098226.560 8  83453163.89647  20380113.119    20380112.571
  20380114.136          49.250          46.2504
 130795786.998 6 101918791.72143  24889609.679    24889609.371
  24889611.526          38.500          19.0004
 124662146.690 7  97139340.148 6  23722419.824    23722419.095    23722420.777
  23722420.911          42.750          41.250
 111329666.605 8  86750390.929 8  21185329.687    21185329.737    21185330.714
  21185330.808          51.000          50.000
 20  1  1  1  1  0.0000000  0  9G27G21G24G13G10G20G16G29G15
 121009523.940 7  94293132.440 7  23027345.058    23027345.012    23027348.856
  23027349.131          42.500          45.750
 109564009.925 7  85374556.53547  20849335.918    20849335.315
  20849336.601          47.000          46.2504
 127065389.197 6  99011990.363 7  24179739.139    24179739.063    24179743.406
  24179744.346          37.250          42.500
 122992854.416 6  95838589.28444  23404759.491    23404759.001
  23404760.710          40.500          28.2504
 116714084.774 7  90946042.350 8  22209951.528    22209951.417    22209955.223
  22209955.506          47.000          50.250
 107068577.137 8  83430060.46147  20374471.091    20374470.394
  20374472.010          49.250          46.2504
 130863529.330 6 101971577.95343  24902500.311    24902499.644
  24902501.698          38.000          18.5004
 124776747.460 7  97228639.461 6  23744227.375    23744226.666    23744228.698
  23744229.286          42.000          41.750
 111383664.690 8  86792467.364 8  21195605.163    21195605.307    21195606.357
  21195606.432          50.750          50.250
 20  1  1  1  1 30.0000000  0  9G27G21G24G13G10G20G16G29G15
 120942599.081 7  94240983.193 7  23014609.507    23014609.584    23014613.591
  23014613.591          44.000          46.250
 109558337.659 7  85370136.58047  20848256.587    20848255.971
  20848257.144          47.000          46.5004
 126978169.622 6  98944027.011 6  24163141.613    24163142.204    24163145.298
  24163145.622          37.250          41.750
 123079547.505 6  95906142.33944  23421256.925    23421257.037
  23421257.943          40.500          27.5004
 116647789.126 7  90894383.421 8  22197335.944    22197335.764    22197339.404
  22197339.792          47.500          50.500
 107039240.589 8  83407200.82947  20368888.624    20368887.809
  20368889.488          49.750          46.2504
 130931562.513 6 102024590.84342  24915447.040    24915447.328
  24915446.504          37.750          16.7504
 124891470.650 7  97318034.183 6  23766058.294    23766058.112    23766060.827
  23766060.705          42.000          41.500
 111438198.248 8  86834961.057 8  21205982.469    21205982.677    21205983.622
  21205983.714          50.250          50.250
 20  1  1  1  2  0.0000000  0  9G27G21G24G13G10G20G16G29G15
 120876144.390 7  94189200.321 7  23001963.482    23001963.569    23001967.622
  23001967.646          43.500          46.500
 109552973.583 7  85365956.78147  20847236.028    20847235.334
  20847236.446          47.000          46.2504
 126891092.215 6  98876174.554 7  24146572.042    24146571.011    24146576.106
  24146576.071          38.750          42.750
 123166607.975 6  95973981.67244  23437823.547    23437823.328
  23437824.662          40.250          27.5004
 116581716.858 8  90842898.548 8  22184762.763    22184762.786    22184766.506
  22184766.821          48.250          50.750
 107010215.950 8  83384584.23847  20363365.336    20363364.636
  20363366.247          49.500          46.2504
 130999882.118 6 102077826.87142  24928448.223    24928448.416
  24928448.672          37.750          17.5004
 125006312.266 7  97407521.185 7  23787911.754    23787911.882    23787913.930
  23787913.429          42.000          42.000
 111493263.663 8  86877869.180 8  21216461.001    21216461.201    21216462.487
  21216462.301          50.250          50.250
 20  1  1  1  2 30.0000000  0  8G27G21G13G10G20G16G29G15
 120810163.281 7  94137786.482 7  22989408.398    22989408.149    22989412.184
  22989411.881          44.250          46.500
 109547919.850 7  85362018.80247  20846274.298    20846273.499
  20846274.534          46.500          46.2504
 123254034.346 6  96042106.10944  23454459.775    23454460.007
  23454461.833          39.750          28.0004
 116515869.461 7  90791588.896 8  22172231.840    22172232.016    22172235.773
  22172236.329          47.500          50.500
 106981503.961 8  83362211.26947  20357901.573    20357900.848
  20357902.519          49.750          46.0004
 131068486.931 6 102131285.15542  24941502.652    24941502.076
  24941504.577          36.500          16.0004
 125121270.496 7  97497099.040 7  23809787.830    23809787.602    23809789.901
  23809789.762          42.250          42.500
 111548860.401 8  86921191.316 8  21227040.889    21227041.090    21227042.052
  21227042.120          50.250          50.000
 20  1  1  1  3  0.0000000  0  7G27G21G13G10G20G29G15
 120744659.972 7  94086744.947 7  22976943.060    22976943.143    22976946.876
  22976946.591          44.000          46.750
 109543179.314 7  85358324.87047  20845372.035    20845371.427
  20845372.532          46.750          46.2504
 123341825.683 6  96110514.93244  23471166.448    23471166.669
  23471167.991          39.750          28.7504
 116450249.117 7  90740456.167 8  22159744.787    22159745.219    22159749.098
  22159749.348          47.500          50.500
 106953106.965 8  83340083.74547  20352497.901    20352497.126
  20352498.730          49.750          46.2504
 125236344.542 6  97586767.167 7  23831685.166    23831685.102    23831687.191
  23831687.117          41.250          42.250
 111604988.089 8  86964927.181 8  21237721.658    21237721.629    21237722.966
  21237722.843          50.250          50.250
 20  1  1  1  3 30.0000000  0  8G27G24G21G13G10G20G29G15
 120679633.660 7  94036075.091 7  22964569.209    22964569.192    22964572.953
  22964572.771          44.250          46.750
 126630751.899 6  98673311.096 6  24097030.873    24097031.706    24097034.767
  24097035.323          37.500          37.750
 109538749.944 7  85354873.40747  20844529.098    20844528.451
  20844529.770          46.500          46.2504
 123429976.217 6  96179203.68744  23487941.141    23487940.628
  23487942.060          40.500          28.5004
 116384853.073 7  90689498.232 8  22147300.295    22147300.651    22147304.653
  22147304.883          47.750          50.500
 106925021.892 8  83318199.28247  20347153.533    20347152.669
  20347154.348          49.750          46.0004
 125351528.947 6  97676521.247 7  23853604.055    23853603.848    23853606.350
  23853606.057          40.750          42.750
 111661641.272 8  87009072.524 8  21248502.363    21248502.410    21248504.075
  21248503.713          50.250          50.250
 20  1  1  1  4  0.0000000  0  7G27G21G13G10G20G29G15
 120615086.937 7  93985778.944 7  22952286.742    22952286.301    22952290.222
  22952289.913          44.500          46.750
 109534633.332 7  85351665.65147  20843745.837    20843745.207
  20843746.447          47.250          46.2504
 123518483.945 6  96248170.75944  23504783.649    23504783.669
  23504784.851          40.250          28.0004
 116319682.011 8  90638715.592 8  22134898.663    22134899.051    22134902.381
  22134903.067          48.000          50.250
 106897248.853 8  83296557.96047  20341868.579    20341867.608
  20341869.297          50.000          46.2504
 125466821.367 6  97766359.490 7  23875543.274    23875542.996    23875546.257
  23875545.635          40.500          42.500
 111718818.023 8  87053625.845 8  21259382.750    21259382.932    21259383.769
  21259383.703          50.500          49.750
 20  1  1  1  4 30.0000000  0  8G27G21G24G13G10G20G29G15
 120551022.092 7  93935858.275 7  22940095.225    22940095.158    22940098.750
  22940099.125          42.500          46.750
 109530830.369 7  85348702.29347  20843022.173    20843021.510
  20843022.759          47.000          46.2504
 126457965.592 6  98538676.987 6  24064151.014    24064151.470    24064155.026
  24064155.224          36.750          39.500
 123607345.770 6  96317413.73144  23521693.383    23521693.129
  23521694.846          40.000          27.7504
 116254736.209 7  90588108.485 8  22122540.285    22122540.207    22122544.005
  22122544.400          47.750          50.500
 106869788.376 8  83275160.19647  20336642.775    20336642.027
  20336643.812          49.750          46.2504
 125582219.165 6  97856279.866 6  23897502.629    23897502.469    23897504.281
  23897505.111          40.750          41.500
 111776516.317 8  87098585.563 8  21270362.287    21270362.307    21270363.634
  21270363.249          49.750          50.000
 20  1  1  1  5  0.0000000  0  8G27G21G24G13G10G20G29G15
 120487442.384 7  93886315.651 7  22927996.719    22927996.220    22927999.227
  22928000.149          42.250          46.500
 109527343.333 7  85345985.11047  20842358.484    20842358.019
  20842359.165          46.750          46.2504
 126371818.272 6  98471546.697 5  24047758.628    24047758.257    24047762.202
  24047760.538          38.000          35.500
 123696560.125 6  96386931.41544  23538670.425    23538669.976
  23538671.444          39.000          27.2504
 116190017.086 7  90537678.020 8  22110224.480    22110224.473    22110228.503
  22110228.812          47.750          50.750
 106842641.643 8  83254006.90047  20331476.782    20331476.283
  20331477.894          49.750          46.2504
 125697720.579 6  97946280.991 6  23919482.045    23919481.862    23919484.372
  23919483.453          41.750          41.250
 111834734.829 8  87143950.647 8  21281440.699    21281440.972    21281442.054
  21281441.821          50.250          50.000
 20  1  1  1  5 30.0000000  0  7G27G21G13G10G20G29G15
 120424349.482 7  93837152.358 7  22915990.136    22915990.160    22915993.748
  22915993.821          43.750          46.500
 109524172.408 7  85343514.25447  20841755.353    20841754.548
  20841755.854          47.000          46.5004
 123786123.765 6  96456721.24344  23555713.502    23555713.772
  23555714.934          39.250          27.2504
 116125524.297 8  90487423.913 8  22097952.078    22097951.956    22097955.437
  22097955.724          48.500          50.250
 106815808.007 8  83233097.58447  20326370.616    20326369.767
  20326371.656          49.500          46.0004
 125813322.333 6  98036360.314 6  23941480.256    23941480.599    23941482.385
  23941482.284          41.750          41.250
 111893470.777 8  87189718.921 8  21292618.108    21292617.983    21292619.121
  21292619.199          50.250          50.000
 20  1  1  1  6  0.0000000  0  7G27G21G13G10G20G29G15
 120361746.205 7  93788370.586 7  22904077.090    22904076.919    22904080.742
  22904080.769          43.750          46.750
 109521319.362 7  85341291.08947  20841212.368    20841211.642
  20841212.840          47.250          46.5004
 123876034.760 6  96526781.76244  23572823.769    23572822.870
  23572824.609          40.250          27.2504
 116061258.766 8  90437346.886 8  22085722.234    22085722.537    22085726.347
  22085726.843          48.500          51.000
 106789288.043 8  83212432.68147  20321324.392    20321323.421
  20321324.981          50.000          46.2504
 125929022.714 7  98126516.479 6  23963498.096    23963497.942    23963499.859
  23963499.233          42.250          40.750
 111952722.348 8  87235888.974 8  21303892.839    21303893.138    21303894.253
  21303894.259          50.000          50.000
 20  1  1  1  6 30.0000000  0  7G27G21G13G10G20G29G15
 120299632.189 7  93739970.055 7  22892257.199    22892257.296    22892261.094
  22892260.600          43.000          46.750
 109518782.744 7  85339314.49747  20840729.613    20840728.935
  20840730.185          47.000          46.5004
 123966287.538 6  96597108.61544  23589997.696    23589997.358
  23589998.390          39.250          27.5004
 115997218.265 8  90387445.216 8  22073535.871    22073536.144    22073539.767
  22073540.248          48.000          50.750
 106763078.707 8  83192009.82747  20316336.674    20316336.014
  20316337.534          50.000          46.2504
 126044816.116 7  98216745.121 6  23985532.837    23985532.582    23985534.144
  23985533.645          42.250          40.250
 112012484.861 8  87282457.173 8  21315265.493    21315265.709    21315266.790
  21315266.619          49.750          49.750
 20  1  1  1  7  0.0000000  0  7G27G21G13G10G20G29G15
 120238011.915 7  93691954.261 7  22880531.325    22880531.562    22880535.257
  22880535.359          43.250          47.250
 109516565.796 7  85337587.00547  20840307.816    20840307.096
  20840308.357          46.500          46.2504
 124056881.842 6  96667701.57744  23607237.429    23607237.293
  23607238.182          39.750          26.7504
 115933405.374 8  90337720.895 8  22061392.783    22061392.983    22061396.406
  22061396.997          48.500          51.000
 106737183.280 8  83171831.57147  20311408.723    20311408.210
  20311409.813          50.000          46.2504
 126160702.448 6  98307046.200 6  24007584.418    24007584.770    24007585.844
  24007586.373          41.750          40.250
 112072758.104 8  87329423.335 8  21326735.142    21326735.439    21326736.421
  21326736.322          50.250          49.750
 20  1  1  1  7 30.0000000  0  7G27G21G13G10G20G29G15
 120176887.279 7  93644324.664 7  22868899.984    22868899.630    22868903.777
  22868903.883          43.250          47.500
 109514669.204 7  85336109.13947  20839946.896    20839946.035
  20839947.361          47.250          46.2504
 124147814.484 6  96738558.18444  23624540.849    23624541.649
  23624542.213          39.250          27.0004
 115869820.054 8  90288173.911 8  22049292.981    22049292.862    22049296.956
  22049297.434          48.250          51.500
 106711600.960 8  83151897.29847  20306540.753    20306540.120
  20306541.579          50.250          46.5004
 126276678.698 7  98397417.326 6  24029654.309    24029654.678    24029655.225
  24029655.430          42.250          40.000
 112133539.757 8  87376785.672 8  21338301.258    21338301.722    21338303.092
  21338302.605          49.750          49.500
 20  1  1  1  8  0.0000000  0  8G27G21G24G13G10G20G29G15
 120116260.059 7  93597082.668 7  22857362.890    22857362.579    22857366.656
  22857366.679          44.000          47.000
 109513093.689 7  85334881.46247  20839646.938    20839646.278
  20839647.700          46.750          46.0004
 125858517.549 6  98071567.080 6  23950078.890    23950078.303    23950083.199
  23950083.135          37.750          37.000
 124239082.484 6  96809676.11744  23641908.808    23641908.912
  23641909.565          39.000          26.7504
 115806462.278 8  90238804.239 8  22037236.525    22037236.487    22037240.541
  22037240.855          49.000          51.250
 106686332.010 8  83132207.21947  20301731.788    20301731.525
  20301733.148          49.500          46.5004
 126392742.069 7  98487856.335 6  24051740.814    24051740.817    24051741.723
  24051741.782          42.250          40.000
 112194826.937 8  87424541.919 8  21349964.192    21349964.085    21349965.746
  21349965.153          50.000          49.750
 20  1  1  1  8 30.0000000  0  8G27G21G24G13G10G20G29G15
 120056132.105 7  93550229.709 7  22845921.087    22845920.620    22845924.670
  22845924.639          44.250          47.250
 109511839.671 7  85333904.30747  20839408.199    20839407.567
  20839409.004          45.750          46.2504
 125773596.033 6  98005394.500 6  23933918.514    23933918.292    23933923.193
  23933922.944          37.250          41.000
 124330682.897 6  96881053.05544  23659340.021    23659340.196
  23659340.739          39.000          26.0004
 115743332.061 8  90189611.868 8  22025222.961    22025223.122    22025227.028
  22025227.306          48.750          50.750
 106661375.342 8  83112760.47347  20296982.997    20296982.405
  20296984.003          50.250          46.5004
 126508889.603 7  98578360.911 6  24073842.342    24073842.437    24073844.621
  24073843.952          42.750          40.750
 112256617.026 8  87472690.048 8  21361722.305    21361722.560    21361723.972
  21361723.502          50.000          49.750
 20  1  1  1  9  0.0000000  0  8G27G21G24G13G10G20G29G15
 119996506.610 7  93503768.290 7  22834574.507    22834574.416    22834577.957
  22834577.910          43.750          47.000
 109510909.619 7  85333179.59347  20839231.292    20839230.643
  20839231.945          46.000          46.0004
 125688863.664 6  97939369.312 7  23917794.706    23917794.623    23917799.546
  23917799.001          37.750          42.250
 124422614.030 6  96952687.70444  23676833.997    23676833.419
  23676834.966          39.750          26.5004
 115680430.681 8  90140597.821 8  22013253.170    22013253.334    22013257.324
  22013257.940          49.000          51.500
 106636733.144 8  83093558.76847  20292293.779    20292293.092
  20292294.734          49.750          46.2504
 126625119.314 7  98668929.544 6  24095960.518    24095960.052    24095962.421
  24095962.295          42.750          41.750
 112318908.585 8  87521228.934 8  21373575.792    21373576.135    21373577.766
  21373577.249          50.250          49.750
 20  1  1  1  9 30.0000000  0  9G27G21G24G13G32G10G20G29G15
 119937385.096 7  93457699.562 7  22823324.151    22823324.153    22823327.980
  22823327.883          44.000          47.250
 109510303.891 7  85332707.58747  20839116.085    20839115.519
  20839116.741          47.500          46.2504
 125604323.549 6  97873493.885 7  23901707.458    23901707.400    23901711.894
  23901712.027          39.000          42.000
 124514872.625 6  97024577.54844  23694390.033    23694389.685
  23694390.702          39.500          26.5004
 130474373.653 6                  24828447.884
                        37.500
 115617757.885 8  90091761.887 8  22001326.970    22001326.990    22001330.848
  22001331.576          48.500          51.250
 106612404.527 8  83074601.41347  20287664.210    20287663.546
  20287665.157          49.750          46.5004
 126741428.438 7  98759560.034 6  24118092.776    24118093.738    24118095.595
  24118095.699          42.500          41.500
 112381698.948 8  87570156.494 8  21385524.486    21385524.686    21385525.823
  21385525.749          50.250          49.250
 20  1  1  1 10  0.0000000  0  9G27G32G21G24G13G10G20G29G15
 119878768.687 7  93412024.444 7  22812169.411    22812169.297    22812173.242
  22812173.329          44.250          47.250
 130361996.886 6 101580775.850 6  24807064.891    24807064.032    24807068.312
  24807069.074          36.750          36.750
 109510022.174 7  85332488.07147  20839062.508    20839061.794
  20839063.115          47.500          46.2504
 125519977.407 6  97807769.661 6  23885656.894    23885657.197    23885660.545
  23885660.979          38.750          41.000
 124607454.718 6  97096719.42244  23712007.635    23712007.369
  23712008.781          39.500          26.2504
 115555312.949 8  90043103.508 8  21989444.216    21989444.367    21989448.300
  21989448.417          49.000          51.500
 106588387.980 8  83055887.23647  20283094.219    20283093.318
  20283094.924          49.750          46.2504
 126857813.040 7  98850249.330 6  24140240.460    24140241.080    24140243.108
  24140243.061          42.750          40.750
 112444984.591 8  87619469.991 8  21397567.440    21397567.528    21397568.622
  21397568.704          50.250          49.250
 20  1  1  1 10 30.0000000  0  8G27G21G24G13G10G20G29G15
 119820659.302 7  93366744.406 7  22801112.156    22801111.695    22801115.627
  22801115.343          45.000          47.250
 109510065.402 7  85332521.75547  20839070.799    20839070.073
  20839071.376          47.500          46.0004
 125435828.786 6  97742199.341 7  23869643.725    23869644.107    23869648.508
  23869647.948          38.750          42.750
 124700357.669 6  97169111.32644  23729686.230    23729686.952
  23729687.712          39.000          26.0004
 115493096.018 8  89994622.803 8  21977604.504    21977604.743    21977608.437
  21977608.924          49.000          51.000
 106564684.062 8  83037416.65847  20278583.252    20278582.593
  20278584.307          49.250          46.5004
 126974270.582 7  98940995.485 6  24162401.642    24162401.605    24162403.450
  24162403.771          43.000          41.000
 112508762.907 8  87669167.378 8  21409704.038    21409704.150    21409705.187
  21409705.216          50.000          49.250
 20  1  1  1 11  0.0000000  0  8G27G21G24G13G10G20G29G15
 119763060.836 7  93321862.478 7  22790151.534    22790151.221    22790154.653
  22790154.519          44.750          47.500
 109510436.610 7  85332811.01447  20839141.386    20839140.676
  20839142.060          46.750          46.2504
 125351883.014 6  97676787.066 7  23853669.386    23853669.541    23853673.566
  23853672.958          37.750          42.500
 124793580.318 6  97241752.36044  23747427.211    23747426.705
  23747427.344          40.250          25.7504
 115431109.207 8  89946321.400 8  21965808.971    21965809.238    21965812.755
  21965813.287          48.750          51.250
 106541294.295 8  83019190.86747  20274132.418    20274131.722
  20274133.272          49.250          46.5004
 127090799.995 7  99031797.637 6  24184576.132    24184576.540    24184577.900
  24184577.728          42.250          39.750
 112573033.597 8  87719248.440 8  21421934.329    21421934.526    21421935.410
  21421935.572          50.500          49.500
 20  1  1  1 11 30.0000000  0  8G27G21G24G13G10G20G29G15
 119705973.774 7  93277379.055 7  22779287.923    22779288.005    22779291.496
  22779291.213          44.500          47.500
 109511135.221 7  85333355.38647  20839274.270    20839273.658
  20839274.957          46.750          46.5004
 125268141.035 6  97611533.608 6  23837733.388    23837733.650    23837736.936
  23837737.919          37.250          41.500
 124887118.719 6  97314639.42944  23765226.600    23765226.298
  23765226.703          40.500          25.7504
 115369351.160 8  89898198.262 8  21954056.857    21954056.895    21954060.349
  21954061.025          49.000          51.000
 106518217.241 8  83001208.75047  20269741.225    20269740.466
  20269741.954          49.500          46.5004
 127207397.224 7  99122652.616 6  24206764.219    24206764.233    24206765.688
  24206765.542          43.000          40.750
 112637792.485 8  87769709.920 8  21434257.727    21434257.874    21434258.657
  21434258.795          50.500          49.250
 20  1  1  1 12  0.0000000  0  9G27G21G24G13G10G20G29G32G15
 119649402.145 7  93233297.271 7  22768522.401    22768522.282    22768526.184
  22768526.072          44.750          47.500
 109512164.116 7  85334157.12047  20839470.125    20839469.352
  20839470.763          47.000          46.5004
 125184608.624 6  97546443.458 7  23821838.229    23821838.360    23821843.250
  23821842.520          37.500          43.000
 124980971.975 6  97387771.82944  23783086.486    23783085.892
  23783087.106          40.000          25.5004
 115307824.173 8  89850255.165 8  21942348.563    21942348.791    21942352.533
  21942352.772          49.000          51.500
 106495454.706 8  82983471.71547  20265409.428    20265408.656
  20265410.354          49.000          46.5004
 127324061.619 7  99213559.958 6  24228964.807    24228964.406    24228966.387
  24228966.061          43.250          39.500
 129913004.839 6 101230913.119 5  24721622.893    24721622.599    24721626.775
  24721626.493          39.500          35.750
 112703039.046 8  87820551.402 8  21446673.458    21446673.826    21446675.307
  21446674.850          50.500          49.250
 20  1  1  1 12 30.0000000  0  9G27G21G24G13G10G20G29G32G15
 119593344.638 7  93189616.098 7  22757854.837    22757854.952    22757859.135
  22757858.973          44.750          47.500
 109513520.763 7  85335214.24647  20839728.465    20839727.662
  20839728.880          47.750          46.2504
 125101285.889 6  97481516.664 7  23805981.990    23805981.705    23805986.904
  23805987.080          36.250          43.750
 125075134.027 6  97461144.85944  23801004.562    23801004.544
  23801005.060          39.750          25.5004
 115246525.231 8  89802489.767 8  21930683.569    21930683.626    21930687.832
  21930688.002          49.000          51.250
 106473003.996 8  82965977.66147  20261137.211    20261136.564
  20261138.174          49.500          46.2504
 127440787.319 6  99304515.069 6  24251176.391    24251176.862    24251177.067
  24251178.767          41.750          40.000
 129800885.642 6 101143547.479 6  24700287.475    24700288.148    24700291.787
  24700291.837          38.750          40.000
 112768767.708 8  87871768.551 8  21459181.502    21459181.598    21459182.682
  21459182.369          50.500          49.500
 20  1  1  1 13  0.0000000  0  8G27G21G13G10G20G29G32G15
 119537805.389 7  93146338.767 7  22747286.435    22747286.418    22747290.210
  22747290.039          45.000          47.500
 109515208.472 7  85336529.34247  20840049.458    20840048.918
  20840050.135          47.250          46.2504
 125169604.143 6  97534757.92744  23818981.464    23818981.467
  23818982.553          39.750          25.5004
 115185456.735 8  89754903.944 8  21919062.540    21919062.912    21919066.764
  21919067.225          48.500          51.750
 106450866.836 8  82948727.93147  20256924.704    20256923.901
  20256925.558          48.750          46.5004
 127557573.791 7  99395517.514 6  24273399.971    24273400.363    24273402.476
  24273402.075          42.000          40.250
 129688823.468 6 101056226.268 6  24678962.760    24678962.642    24678965.844
  24678966.278          38.250          39.250
 112834978.222 8  87923361.166 8  21471780.960    21471780.935    21471782.172
  21471781.806          50.500          49.250
 20  1  1  1 13 30.0000000  0  9G27G21G24G13G10G20G29G32G15
 119482787.114 7  93103467.382 8  22736817.013    22736816.873    22736820.377
  22736820.777          45.500          48.000
 109517228.918 7  85338103.71847  20840433.794    20840433.295
  20840434.570          47.750          46.2504
 124935281.058 6  97352169.508 7  23774394.374    23774394.013    23774398.729
  23774398.420          36.750          45.250
 125264380.274 6  97608609.45544  23837016.765    23837016.314
  23837016.539          39.250          24.7504
 115124619.648 8  89707498.447 8  21907485.585    21907485.870    21907489.863
  21907490.350          49.000          51.500
 106429044.057 8  82931723.17147  20252771.898    20252771.175
  20252772.804          49.250          46.2504
 127674419.202 6  99486565.860 6  24295635.836    24295635.313    24295636.475
  24295636.340          41.500          39.500
 129576821.179 6 100968951.754 6  24657649.658    24657650.103    24657652.086
  24657653.149          36.750          38.750
 112901668.682 8  87975327.758 8  21484471.397    21484471.775    21484472.577
  21484472.689          50.500          49.000
 20  1  1  1 14  0.0000000  0  8G27G21G13G10G20G29G32G15
 119428289.941 7  93061002.050 8  22726446.804    22726446.357    22726450.185
  22726450.002          45.500          48.250
 109519580.993 8  85339936.49847  20840881.589    20840880.729
  20840882.137          48.750          46.5004
 125359457.908 6  97682695.95044  23855109.078    23855108.794
  23855109.164          39.500          24.5004
 115064012.391 8  89660272.037 8  21895952.671    21895952.816    21895956.331
  21895956.762          49.250          51.250
 106407534.118 8  82914962.18147  20248678.761    20248678.003
  20248679.673          49.250          46.7504
 127791318.933 6  99577656.591 6  24317880.699    24317880.790    24317881.718
  24317881.923          41.250          38.500
 129464879.174 6 100881724.170 6  24636347.753    24636347.538    24636351.477
  24636350.417          37.250          39.500
 112968834.883 8  88027665.056 8  21497252.862    21497253.023    21497254.134
  21497254.065          50.250          49.250
 20  1  1  1 14 30.0000000  0  9G27G21G24G13G10G20G29G32G15
 119374316.332 7  93018944.696 8  22716175.720    22716175.658    22716179.126
  22716178.990          45.750          48.000
 109522266.489 8  85342029.09347  20841392.599    20841392.029
  20841393.249          48.250          46.5004
 124770172.493 6  97223508.459 6  23742974.470    23742974.674    23742978.825
  23742978.778          36.250          38.750
 125454834.775 6  97757015.59844  23873258.721    23873258.334
  23873259.996          39.250          24.7504
 115003635.745 8  89613225.315 8  21884463.426    21884463.492    21884467.330
  21884467.751          49.500          51.500
 106386337.679 8  82898445.48847  20244645.065    20244644.408
  20244646.015          49.250          46.2504
 127908270.982 6  99668788.048 6  24340135.219    24340135.329    24340137.110
  24340137.460          40.000          37.750
 129353000.141 6 100794545.698 6  24615058.532    24615058.091    24615061.497
  24615062.014          37.000          40.250
 113036475.025 8  88080371.671 8  21510124.318    21510124.452    21510125.867
  21510125.464          50.500          49.250
 20  1  1  1 15  0.0000000  0  8G27G21G13G10G20G29G32G15
 119320868.731 7  92977297.214 8  22706005.024    22706004.440    22706008.439
  22706008.228          45.250          48.000
 109525286.560 8  85344382.38647  20841967.409    20841966.619
  20841967.946          48.500          46.5004
 125550508.803 6  97831566.79044  23891465.707    23891464.470
  23891465.635          40.000          24.5004
 114943490.471 8  89566358.894 8  21873018.252    21873018.450    21873021.914
  21873022.320          49.750          51.750
 106365454.782 8  82882173.10447  20240671.444    20240670.504
  20240672.174          49.250          46.5004
 128025273.080 6  99759958.527 6  24362400.451    24362400.872    24362402.525
  24362401.408          41.500          36.750
 129241186.735 6 100707418.352 6  24593779.787    24593780.277    24593784.830
  24593784.857          37.500          41.000
 113104587.018 8  88133445.956 8  21523085.568    21523085.821    21523086.808
  21523086.818          50.250          49.250
 20  1  1  1 15 30.0000000  0  9G27G21G24G13G10G20G29G32G15
 119267947.859 7  92936060.173 7  22695934.088    22695934.199    22695938.283
  22695937.961          45.500          47.750
 109528641.014 8  85346996.24447  20842605.709    20842605.057
  20842606.193          49.250          46.5004
 124605965.800 6                  23711727.317
                        36.000
 125646476.234 6  97906346.60344  23909726.964    23909727.027
  23909727.162          39.750          24.2504
 114883575.610 8  89519672.002 8  21861616.550    21861616.660    21861620.383
  21861620.968          49.750          51.750
 106344884.563 8  82866144.36647  20236756.698    20236756.308
  20236757.816          49.250          46.5004
 128142321.536 7  99851165.142 6  24384674.607    24384674.461    24384674.863
  24384675.284          43.000          37.500
 129129439.905 6 100620342.900 6  24572515.574    24572515.954    24572520.680
  24572519.638          37.250          41.500
 113173166.843 8  88186884.783 8  21536135.895    21536136.025    21536137.652
  21536137.011          50.500          49.250
 20  1  1  1 16  0.0000000  0  9G27G21G24G13G10G20G29G32G15
 119215555.618 7  92895235.049 8  22685964.081    22685964.364    22685968.120
  22685968.102          45.250          48.000
 109532330.982 8  85349871.53947  20843307.910    20843307.243
  20843308.471          49.750          46.5004
 124524215.620 6                  23696171.628
                        38.500
 125742733.854 6  97981352.54744  23928044.057    23928044.401
  23928044.929          39.250          24.7504
 114823891.462 8  89473164.902 8  21850259.153    21850259.370    21850262.824
  21850263.344          49.500          51.750
 106324627.018 8  82850359.27047  20232902.070    20232901.246
  20232902.805          49.000          46.5004
 128259413.833 7  99942405.918 6  24406956.240    24406955.770    24406957.661
  24406957.751          43.250          38.500
 129017761.917 6 100533321.075 6  24551263.397    24551264.332    24551268.366
  24551267.976          37.750          41.000
 113242212.444 8  88240686.557 8  21549274.869    21549275.011    21549276.354
  21549276.021          50.500          49.000
 20  1  1  1 16 30.0000000  0  9G27G21G24G13G10G20G29G32G15
 119163694.815 7  92854824.035 8  22676095.675    22676095.731    22676100.029
  22676099.753          45.000          48.500
 109536358.129 8  85353009.57147  20844074.188    20844073.427
  20844074.724          49.500          46.5004
 124442701.397 6  96968336.526 7  23680660.010    23680660.364    23680663.237
  23680662.683          39.750          42.500
 125839280.139 6  98056583.42544  23946416.248    23946416.373
  23946417.078          39.250          24.7504
 114764439.182 8  89426838.464 8  21838945.574    21838945.773    21838949.576
  21838949.981          49.250          51.750
 106304683.138 8  82834818.59447  20229106.964    20229106.202
  20229107.635          49.500          46.2504
 128376548.269 7 100033679.519 6  24429246.109    24429246.802    24429246.731
  24429247.230          43.500          38.000
 128906155.683 6 100446355.173 6  24530026.273    24530025.732    24530030.005
  24530030.879          36.500          41.250
 113311721.999 8  88294849.854 8  21562502.306    21562502.290    21562503.594
  21562503.323          50.750          49.000
 20  1  1  1 17  0.0000000  0  8G27G21G24G13G10G20G29G15
 119112366.490 7  92814827.927 8  22666328.229    22666328.308    22666332.332
  22666331.904          45.750          48.500
 109540722.858 8  85356410.66047  20844904.634    20844904.154
  20844905.362          49.000          46.5004
 124361426.981 6  96905005.805 6  23665193.388    23665193.205    23665196.654
  23665196.244          39.500          41.000
 125936111.459 6  98132036.40544  23964843.310    23964842.168
  23964844.294          39.250          24.7504
 114705218.143 8  89380692.225 8  21827676.702    21827676.593    21827680.233
  21827680.517          50.000          51.750
 106285051.954 8  82819521.57447  20225370.964    20225370.422
  20225371.800          48.750          46.2504
 128493721.411 7 100124983.303 6  24451544.231    24451543.491    24451544.546
  24451544.329          43.750          37.750
 113381692.147 8  88349372.049 8  21575816.972    21575817.100    21575818.026
  21575818.062          50.250          48.750
 20  1  1  1 17 30.0000000  0  9G27G21G24G13G10G20G29G32G15
 119061572.408 7  92775248.117 8  22656662.842    22656662.409    22656666.002
  22656666.250          45.250          48.250
 109545425.572 8  85360075.11447  20845799.525    20845798.943
  20845800.245          49.750          46.2504
 124280395.980 6  96841864.758 7  23649773.722    23649773.492    23649777.779
  23649777.678          39.500          42.000
 126033225.061 6  98207709.34644  23983322.850    23983322.885
  23983323.806          39.000          24.0004
 114646228.628 8  89334726.373 8  21816451.184    21816451.150    21816454.749
  21816455.323          50.250          51.750
 106265733.865 8  82804468.52847  20221695.009    20221694.296
  20221695.775          49.000          46.5004
 128610930.659 7 100216315.229 6  24473847.691    24473847.672    24473847.855
  24473848.403          42.750          37.250
 128683163.001 6 100272597.191 6  24487592.787                    24487596.755
                        39.000          36.500
 113452120.355 8  88404251.177 8  21589219.355    21589219.048    21589220.471
  21589220.246          50.750          48.500
 20  1  1  1 18  0.0000000  0  9G27G21G24G13G10G20G29G32G15
 119011315.522 7  92736086.897 8  22647099.116    22647098.607    22647102.387
  22647102.546          45.500          48.250
 109550468.439 8  85364004.61847  20846759.167    20846758.486
  20846759.713          49.500          46.2504
 124199612.306 6  96778916.428 7  23634400.121    23634400.366    23634405.145
  23634405.456          38.250          42.250
 126130619.172 6  98283600.86443  24001855.793    24001856.103
  24001857.531          38.250          23.5004
 114587471.877 8  89288941.915 8  21805269.891    21805270.017    21805273.824
  21805274.015          50.250          52.000
 106246729.577 8  82789660.00147  20218078.561    20218077.967
  20218079.434          48.750          46.2504
 128728174.438 6 100307674.008 6  24496158.604    24496158.095    24496159.441
  24496159.237          40.250          37.750
 128571783.830 6 100185808.215 6  24466397.143    24466397.886    24466400.900
  24466401.343          39.250          40.750
 113523005.531 8  88459486.388 8  21602708.339    21602708.307    21602709.240
  21602709.015          50.250          48.750
 20  1  1  1 18 30.0000000  0  9G27G21G24G13G10G20G29G32G15
 118961597.318 7  92697345.433 8  22637638.015    22637637.669    22637641.050
  22637641.307          45.500          48.000
 109555852.074 8  85368199.65747  20847783.754    20847783.070
  20847784.194          49.500          46.2504
 124119079.848 6  96716163.870 7  23619075.319    23619075.290    23619079.942
  23619080.707          37.000          43.000
 126228290.703 6  98359708.55543  24020442.485    24020441.944
  24020443.779          38.750          23.2504
 114528947.900 8  89243338.819 8  21794133.305    21794133.538    21794137.191
  21794137.403          50.250          52.250
 106228038.963 8  82775095.89347  20214521.834    20214521.110
  20214522.776          48.500          46.5004
 128845449.708 6 100399057.363 6  24518474.899    24518474.444    24518476.563
  24518475.927          40.250          38.500
 128460485.092 6 100099081.873 6  24445218.089    24445218.168    24445221.635
  24445222.063          39.250          39.250
 113594344.355 8  88515075.086 8  21616283.439    21616283.535    21616284.617
  21616284.350          50.250          48.250
 20  1  1  1 19  0.0000000  0  9G27G21G24G13G10G20G29G32G15
 118912418.345 7  92659024.166 8  22628279.632    22628279.247    22628282.598
  22628282.881          46.250          48.250
 109561576.107 8  85372659.94147  20848872.742    20848872.373
  20848873.430          48.750          46.2504
 124038799.711 6  96653607.910 7  23603799.383    23603799.404    23603804.020
  23603804.133          38.500          44.000
 126326235.885 6  98436029.51143  24039080.571    24039080.734
  24039082.399          39.250          23.0004
 114470655.684 8  89197916.331 8  21783040.327    21783040.623    21783044.470
  21783044.857          50.250          52.000
 106209660.774 8  82760775.23447  20211024.469    20211023.969
  20211025.470          49.000          46.2504
 128962753.146 6 100490462.586 6  24540797.447    24540797.213    24540798.300
  24540798.485          41.250          38.250
 128349267.688 6 100012418.921 6  24424054.249    24424055.000    24424056.880
  24424057.182          39.750          40.500
 113666133.507 8  88571014.691 8  21629944.258    21629944.528    21629945.476
  21629945.466          50.500          48.500
 20  1  1  1 19 30.0000000  0  9G27G21G24G13G10G20G29G32G15
 118863782.345 7  92621125.983 8  22619024.246    22619024.076    22619027.866
  22619028.010          46.000          48.500
 109567643.322 8  85377387.64547  20850027.504    20850026.826
  20850028.112          49.500          46.0004
 123958777.776 6  96591253.147 7  23588570.571    23588571.395    23588576.386
  23588576.918          38.750          45.000
 126424454.014 6  98512563.15143  24057770.604    24057770.693
  24057772.368          39.250          23.5004
 114412597.441 8  89152676.156 8  21771992.252    21771992.451    21771996.263
  21771996.674          50.500          52.250
 106191597.186 8  82746699.71547  20207587.190    20207586.439
  20207588.138          48.750          46.2504
 129080083.525 6 100581888.912 6  24563124.409    24563123.822    24563126.328
  24563125.618          39.750          37.000
 128238135.717 6  99925822.586 6  24402906.468    24402906.342    24402910.655
  24402910.778          39.000          41.000
 113738372.077 8  88627304.486 8  21643690.934    21643691.223    21643692.073
  21643691.860          50.250          48.000
 20  1  1  1 20  0.0000000  0  9G27G21G24G13G10G20G29G32G15
 118815688.573 7  92583650.318 8  22609872.351    22609872.148    22609876.085
  22609875.787          45.750          48.500
 109574052.239 8  85382381.60747  20851246.993    20851246.368
  20851247.594          49.750          46.2504
 123879014.193 6  96529099.703 7  23573393.114    23573393.156    23573397.888
  23573398.193          38.500          45.000
 126522939.638 6  98589305.21543  24076511.835    24076512.086
  24076513.914          39.500          22.2504
 114354770.898 8  89107616.549 8  21760988.370    21760988.425    21760992.181
  21760992.653          50.500          52.250
 106173845.433 8  82732867.18247  20204209.262    20204208.304
  20204210.104          48.750          46.2504
 129197436.088 6 100673332.445 6  24585455.816    24585454.617    24585456.418
  24585456.723          41.000          38.250
 128127088.905 6  99839292.605 6  24381774.377    24381775.015    24381779.071
  24381779.195          39.000          41.750
 113811054.966 8  88683940.507 8  21657522.269    21657522.282    21657523.059
  21657523.223          50.500          48.500
 20  1  1  1 20 30.0000000  0  9G27G21G24G13G10G20G29G32G15
 118768140.761 7  92546600.083 8  22600824.085    22600823.956    22600827.863
  22600827.784          45.750          48.250
 109580805.424 8  85387643.82747  20852531.902    20852531.383
  20852532.703          49.500          46.2504
 123799514.397 6  96467151.809 7  23558263.951    23558264.183    23558269.760
  23558270.455          37.750          45.250
 126621691.914 6  98666255.04843  24095303.985    24095304.396
  24095305.260          38.500          23.2504
 114297178.284 8  89062739.200 8  21750028.847    21750029.085    21750032.665
  21750032.985          51.250          52.000
 106156407.531 8  82719279.21647  20200890.789    20200890.144
  20200891.748          48.750          46.0004
 129314810.038 7 100764792.680 6  24607791.448    24607791.221    24607791.708
  24607792.268          42.750          37.750
 128016131.345 6  99752832.163 6  24360660.445    24360660.524    24360665.450
  24360664.663          39.500          41.750
 113884181.614 8  88740922.312 8  21671437.417    21671437.552    21671439.098
  21671438.809          50.000          48.250
 20  1  1  1 21  0.0000000  0  9G27G21G24G13G10G20G29G32G15
 118721138.676 7  92509975.067 8  22591880.210    22591880.327    22591883.591
  22591883.675          46.000          48.500
 109587901.929 8  85393173.56047  20853882.488    20853881.892
  20853883.196          49.750          46.0004
 123720280.422 6  96405411.072 7  23543186.487    23543187.046    23543191.980
  23543191.474          38.500          45.250
 126720706.292 6  98743409.11043  24114145.430    24114145.517
  24114147.338          39.000          23.5004
 114239817.874 8  89018042.807 8  21739113.420    21739113.623    21739117.403
  21739117.884          51.000          52.250
 106139281.775 8  82705934.47847  20197632.060    20197631.303
  20197632.783          49.250          46.5004
 129432200.877 7 100856266.089 5  24630130.148    24630129.278    24630130.587
  24630130.472          42.000          35.500
 127905263.262 6  99666441.450 6  24339562.344    24339563.376    24339567.503
  24339567.013          40.000          41.500
 113957747.521 8  88798246.399 8  21685436.866    21685436.802    21685437.897
  21685437.816          50.750          48.500
 20  1  1  1 21 30.0000000  0  9G27G21G24G13G10G20G29G32G15
 118674685.763 7  92473778.004 8  22583040.278    22583040.212    22583043.917
  22583043.998          46.000          48.000
 109595344.857 8  85398973.24647  20855298.870    20855298.289
  20855299.512          49.750          46.0004
 123641316.278 6  96343880.572 7  23528160.177    23528160.658    23528165.448
  23528165.758          39.000          45.500
 126819981.979 6  98820766.78044  24133037.715    24133037.788
  24133038.302          39.750          24.2504
 114182691.737 8  88973528.952 8  21728242.909    21728243.078    21728246.445
  21728246.895          51.500          52.250
 106122469.717 8  82692834.18247  20194432.651    20194431.947
  20194433.530          49.000          46.2504
 129549608.192 6 100947752.323 5  24652472.132    24652472.791    24652473.372
  24652472.886          37.750          32.000
 127794488.678 6  99580123.551 6  24318483.160    24318483.471    24318487.096
  24318487.433          40.500          41.750
 114031751.923 8  88855912.179 8  21699519.252    21699519.500    21699520.685
  21699520.215          50.500          48.500
 20  1  1  1 22  0.0000000  0  8G27G21G24G13G10G20G32G15
 118628782.991 7  92438009.608 8  22574305.437    22574305.290    22574309.201
  22574308.916          46.500          48.250
 109603133.891 8  85405042.61647  20856781.111    20856780.581
  20856781.681          49.500          46.2504
 123562625.123 6  96282562.803 7  23513185.715    23513186.097    23513190.821
  23513191.504          39.500          45.500
 126919515.278 6  98898325.21544  24151978.529    24151977.700
  24151979.123          39.750          24.0004
 114125799.251 8  88929197.182 8  21717415.886    21717416.160    21717420.289
  21717420.760          50.500          52.500
 106105970.920 8  82679977.98047  20191293.177    20191292.419
  20191293.951          49.000          46.5004
 127683808.834 6  99493879.482 6  24297421.545    24297422.134    24297425.574
  24297425.970          39.750          41.250
 114106191.399 8  88913916.957 8  21713684.530    21713684.641    21713686.046
  21713685.460          50.250          48.000
 20  1  1  1 22 30.0000000  0  8G27G21G24G13G10G20G32G15
 118583432.117 7  92402671.265 8  22565675.309    22565675.146    22565678.805
  22565678.807          45.750          48.250
 109611269.859 8  85411382.32447  20858329.352    20858328.915
  20858329.963          49.750          46.2504
 123484210.299 6  96221460.370 7  23498264.173    23498263.582    23498269.035
  23498269.109          39.500          44.750
 127019303.510 6  98976082.27644  24170966.875    24170967.233
  24170968.524          39.750          24.2504
 114069140.848 8  88885047.795 8  21706634.917    21706634.932    21706638.357
  21706638.849          51.500          52.250
 106089785.175 8  82667365.72047  20188213.119    20188212.372
  20188213.926          49.250          46.5004
 127573226.123 6  99407711.138 7  24276378.156    24276378.593    24276382.442
  24276383.512          39.250          42.250
 114181063.535 8  88972258.892 8  21727932.287    21727932.425    21727933.527
  21727933.392          50.750          48.000
 20  1  1  1 23  0.0000000  0  8G27G21G24G13G10G20G32G15
 118538634.709 7  92367764.189 8  22557150.943    22557150.712    22557154.735
  22557154.527          46.500          49.000
 109619753.794 8  85417993.18447  20859943.617    20859943.157
  20859944.396          49.500          46.5004
 123406074.751 6  96160575.543 7  23483395.200    23483396.536    23483399.802
  23483400.698          39.500          44.000
 127119343.982 6  99054035.87043  24190004.907    24190004.261
  24190005.224          40.500          22.7504
 114012716.630 8  88841080.900 8  21695897.358    21695897.367    21695900.883
  21695901.551          51.000          52.250
 106073912.617 8  82654997.49347  20185192.580    20185191.872
  20185193.409          49.250          46.5004
 127462742.536 6  99321619.992 7  24255353.129    24255354.024    24255359.133
  24255358.814          39.500          42.750
 114256365.711 8  89030935.912 7  21742261.777    21742261.845    21742262.799
  21742262.683          50.500          47.750
 20  1  1  1 23 30.0000000  0  9G27G08G21G24G13G10G20G32G15
 118494392.063 7  92333289.393 8  22548731.371    22548731.178    22548735.344
  22548735.268          46.500          48.500
 131231813.019 6                  24972583.824
                        37.000
 109628586.253 8  85424875.62647  20861624.336    20861623.974
  20861625.219          49.750          46.2504
 123328221.785 6  96099910.897 7  23468580.332    23468581.385    23468584.910
  23468585.527          40.250          44.000
 127219633.897 6  99132183.88143  24209089.489    24209089.259
  24209089.932          40.750          23.0004
 113956526.553 8  88797296.439 8  21685205.116    21685205.089    21685208.587
  21685209.154          51.500          52.500
 106058353.328 8  82642873.37947  20182231.784    20182231.002
  20182232.557          49.250          46.2504
 127352359.992 6  99235607.608 6  24234349.078    24234348.500    24234353.045
  24234353.854          40.500          41.250
 114332094.895 8  89089945.672 7  21756672.560    21756672.686    21756673.438
  21756673.588          50.500          47.750
 20  1  1  1 24  0.0000000  0  8G27G21G24G13G10G20G32G15
 118450705.985 7  92299248.294 8  22540418.390    22540418.202    22540421.718
  22540422.044          46.500          48.250
 109637768.031 8  85432030.25547  20863371.785    20863371.182
  20863372.427          50.000          46.2504
 123250654.144 6  96039468.608 7  23453819.410    23453819.670    23453824.725
  23453824.581          40.000          44.000
 127320170.407 6  99210524.05843  24228220.367    24228220.353
  24228220.991          39.750          22.5004
 113900571.026 8  88753694.756 8  21674556.480    21674556.714    21674560.603
  21674560.999          51.250          52.500
 106043106.961 8  82630993.10147  20179330.375    20179329.736
  20179331.348          49.000          46.5004
 127242080.878 6  99149675.806 6  24213363.707    24213364.538    24213367.715
  24213368.066          40.750          41.000
 114408248.587 8  89149286.212 7  21771164.316    21771164.301    21771165.401
  21771165.539          50.250          47.750
 20  1  1  1 24 30.0000000  0  8G27G21G24G13G10G20G32G15
 118407577.727 7  92265641.862 8  22532211.438    22532211.297    22532214.972
  22532215.002          46.750          48.500
 109647299.397 8  85439457.28747  20865185.614    20865184.986
  20865186.242          50.250          46.2504
 123173375.027 6  95979251.121 7  23439114.613    23439114.556    23439118.051
  23439119.077          41.000          42.250
 127420950.546 6  99289054.04143  24247398.072    24247398.060
  24247398.177          39.000          21.5004
 113844849.965 8  88710275.754 8  21663953.614    21663954.082    21663957.047
  21663957.587          52.000          52.250
 106028173.605 8  82619356.73547  20176488.725    20176488.068
  20176489.510          49.000          46.5004
 127131906.893 6  99063825.899 6  24192397.853    24192398.288    24192402.575
  24192402.711          39.500          41.500
 114484824.244 8  89208955.561 8  21785735.999    21785736.443    21785737.318
  21785737.144          50.000          48.000
 20  1  1  1 25  0.0000000  0  8G27G21G24G13G10G20G32G15
 118365009.157 7  92232471.550 8  22524110.906    22524110.729    22524114.518
  22524113.997          46.250          48.750
 109657182.051 8  85447158.05247  20867066.173    20867065.563
  20867066.832          50.500          46.7504
 123096388.167 6  95919261.366 7  23424464.035    23424464.200    23424468.765
  23424468.602          40.000          43.000
 127521971.940 6  99367772.03943  24266622.247    24266622.047
  24266622.573          39.750          20.5004
 113789363.869 8  88667039.870 8  21653394.750    21653394.725    21653398.546
  21653399.017          51.500          52.500
 106013553.414 8  82607964.38447  20173706.624    20173705.714
  20173707.327          49.500          46.5004
 127021840.624 6  98978059.953 6  24171453.344    24171453.160    24171457.562
  24171457.838          40.750          41.500
 114561819.315 8  89268951.724 7  21800387.794    21800387.911    21800388.635
  21800388.758          50.500          47.750
 20  1  1  1 25 30.0000000  0  9G27G21G24G13G08G10G20G32G15
 118323002.020 7  92199738.713 8  22516117.262    22516116.951    22516120.622
  22516120.743          46.750          48.500
 109667416.639 8  85455133.06047  20869013.931    20869013.153
  20869014.344          50.250          46.5004
 123019697.069 6  95859502.064 7  23409870.223    23409870.171    23409874.924
  23409874.341          39.750          42.500
 127623231.982 6  99446676.00743  24285890.958    24285891.007
  24285890.288          38.250          21.0004
 130882555.508 6 101986406.076 5  24906123.051    24906123.335    24906126.220
  24906126.813          38.750          35.500
 113734113.197 8  88623987.404 8  21642881.048    21642881.212    21642884.630
  21642884.989          51.750          52.500
 105999246.400 8  82596816.06047  20170983.989    20170983.273
  20170984.804          48.750          46.2504
 126911884.321 6  98892379.692 7  24150529.006    24150530.055    24150534.266
  24150534.240          40.750          42.250
 114639231.213 8  89329272.684 8  21815118.919    21815118.850    21815120.022
  21815119.476          50.000          48.000
 20  1  1  1 26  0.0000000  0  9G27G21G24G13G08G10G20G32G15
 118281557.155 7  92167444.016 8  22508230.619    22508230.640    22508233.951
  22508234.483          46.500          48.250
 109678003.341 8  85463382.43147  20871028.454    20871027.776
  20871028.942          50.500          46.5004
 122943304.488 6  95799975.374 7  23395332.413    23395333.455    23395336.809
  23395337.007          40.500          42.750
 127724727.399 6  99525763.34543  24305205.080    24305204.602
  24305206.892          38.000          20.5004
 130796025.162 6 101918979.884 6  24889655.377    24889655.648    24889661.595
  24889660.539          37.250          39.250
 113679097.503 8  88581118.062 8  21632411.525    21632411.728    21632415.675
  21632416.076          51.750          52.250
 105985251.956 8  82585911.30247  20168321.050    20168320.363
  20168321.786          49.250          46.2504
 126802039.588 6  98806786.351 7  24129626.385    24129626.882    24129631.406
  24129631.725          41.250          43.250
 114717056.668 8  89389915.900 7  21829928.225    21829928.473    21829929.548
  21829929.325          50.250          47.750
 20  1  1  1 26 30.0000000  0  8G27G21G24G13G10G20G32G15
 118240675.556 7  92135588.228 8  22500451.025    22500451.003    22500454.194
  22500454.416          46.750          48.250
 109688942.357 8  85471906.34147  20873110.334    20873109.436
  20873110.665          50.750          46.5004
 122867212.216 6  95740682.707 7  23380853.076    23380853.530    23380857.829
  23380857.361          40.250          43.250
 127826455.079 6  99605031.65943  24324563.150    24324563.772
  24324563.732          38.250          20.2504
 113624316.444 8  88538431.535 8  21621987.432    21621987.561    21621990.803
  21621991.268          52.250          52.250
 105971569.948 8  82575250.00547  20165717.370    20165716.694
  20165718.122          49.250          46.2504
 126692307.903 6  98721281.148 7  24108745.273    24108745.225    24108750.378
  24108749.386          40.750          43.750
 114795292.711 8  89450879.050 7  21844816.043    21844816.086    21844817.621
  21844817.474          49.750          47.500
 20  1  1  1 27  0.0000000  0  8G27G21G24G13G10G20G32G15
 118200360.206 7  92104173.674 8  22492779.294    22492778.945    22492782.919
  22492782.785          47.750          48.750
 109700236.192 8  85480706.73147  20875259.242    20875258.565
  20875259.795          50.500          46.5004
 122791426.106 6  95681628.608 7  23366432.176    23366431.919    23366435.882
  23366435.740          40.750          43.500
 127928413.634 6  99684479.91343  24343964.658    24343965.424
  24343966.441          39.000          22.0004
 113569771.780 8  88495929.204 8  21611607.463    21611607.693    21611611.417
  21611611.881          51.750          52.500
 105958201.356 8  82564832.92947  20163173.215    20163172.648
  20163174.130          49.750          46.2504
 126582693.013 6  98635866.947 7  24087885.503    24087886.240    24087890.290
  24087891.037          39.250          43.250
 114873938.252 8  89512161.301 7  21859782.118    21859782.138    21859783.488
  21859782.969          50.500          47.750
 20  1  1  1 27 30.0000000  0  8G27G21G24G13G10G20G32G15
 118160611.548 7  92073200.686 8  22485215.496    22485215.342    22485218.424
  22485218.961          47.750          48.500
 109711884.730 8  85489783.51147  20877476.029    20877475.228
  20877476.464          51.000          46.7504
 122715947.850 6  95622814.392 7  23352067.910    23352068.999    23352073.164
  23352073.062          40.500          43.750
 128030599.384 6  99764105.16744  24363410.600    24363410.809
  24363411.998          39.750          24.0004
 113515462.710 8  88453610.480 8  21601273.278    21601273.365    21601277.220
  21601277.378          53.000          53.000
 105945145.615 8  82554659.63547  20160688.847    20160688.198
  20160689.698          49.750          46.2504
 126473195.984 6  98550544.579 7  24067048.926    24067049.024    24067053.396
  24067054.236          38.500          42.250
 114952989.796 8  89573759.911 7  21874825.005    21874825.035    21874826.130
  21874826.084          50.000          47.500
 20  1  1  1 28  0.0000000  0  8G27G21G24G13G10G20G32G15
 118121431.351 7  92042670.654 8  22477759.568    22477759.705    22477763.109
  22477763.221          47.500          49.000
 109723888.574 8  85499137.15547  20879759.854    20879759.438
  20879760.652          50.750          46.5004
 122640781.039 6  95564242.869 7  23337765.656    23337765.270    23337768.258
  23337768.634          41.750          43.000
 128133010.125 6  99843905.75144  24382898.686    24382899.294
  24382899.100          40.750          24.5004
 113461389.863 8  88411475.811 8  21590983.181    21590983.261    21590986.615
  21590987.134          52.000          52.250
 105932403.193 8  82544730.48147  20158264.122    20158263.344
  20158264.977          49.250          46.0004
 126363819.367 6  98465316.022 7  24046235.768    24046235.926    24046240.294
  24046240.835          40.250          42.000
 115032444.744 8  89635672.851 7  21889944.781    21889945.294    21889945.728
  21889945.952          50.250          47.250
 20  1  1  1 28 30.0000000  0  8G27G21G24G13G10G20G32G15
 118082820.535 7  92012584.305 8  22470411.882    22470411.972    22470415.714
  22470415.737          47.750          48.500
 109736248.619 8  85508768.35847  20882112.029    20882111.513
  20882112.660          50.500          46.5004
 122565928.182 6  95505915.990 7  23323521.235    23323520.874    23323524.569
  23323525.189          41.250          42.500
 128235642.449 6  99923878.99744  24402428.723    24402428.998
  24402430.594          40.500          24.2504
 113407552.890 8  88369524.933 8  21580738.624    21580738.785    21580742.134
  21580742.779          52.250          53.000
 105919973.354 8  82535044.90047  20155898.875    20155898.051
  20155899.601          49.750          46.0004
 126254564.792 6  98380182.549 7  24025446.125    24025445.988    24025449.560
  24025450.305          41.250          43.000
 115112299.872 8  89697897.630 7  21905140.637    21905140.836    21905141.313
  21905141.666          50.000          47.250
 20  1  1  1 29  0.0000000  0  9G27G21G24G13G10G20G08G32G15
 118044780.558 7  91982942.766 8  22463173.158    22463173.148    22463176.837
  22463176.937          47.000          48.500
 109748965.244 8  85518677.41447  20884531.973    20884531.263
  20884532.448          50.250          46.2504
 122491392.762 6  95447836.432 7  23309337.036    23309337.129    23309340.699
  23309340.439          41.000          43.000
 128338493.750 6 100004022.85043  24422001.152    24422001.616
  24422001.791          40.500          23.7504
 113353952.043 8  88327758.061 8  21570538.315    21570538.402    21570542.083
  21570542.611          51.750          52.750
 105907855.749 8  82525602.61647  20153592.741    20153592.081
  20153593.737          49.500          46.2504
 130283616.418 6 101519709.573 6  24792149.773    24792149.335    24792154.901
  24792153.735          37.500          40.500
 126145434.422 7  98295145.848 7  24004679.552    24004678.524    24004683.592
  24004683.306          42.000          43.250
 115192552.521 8  89760432.166 7  21920411.905    21920412.561    21920413.336
  21920413.308          49.750          47.250
 20  1  1  1 29 30.0000000  0  9G27G21G24G13G10G20G08G32G15
 118007312.643 7  91953746.982 8  22456043.103    22456043.248    22456046.899
  22456046.916          47.750          48.500
 109762038.974 8  85528864.72847  20887019.508    20887019.066
  20887020.436          50.250          46.2504
 122417176.843 6  95390005.862 7  23295214.118    23295214.810    23295218.528
  23295218.622          41.250          44.000
 128441561.350 6 100084335.28544  24441614.483    24441614.535
  24441615.141          40.000          24.2504
 113300587.457 8  88286175.278 8  21560383.875    21560383.989    21560387.031
  21560387.631          53.000          52.750
 105896050.844 8  82516403.99547  20151346.278    20151345.815
  20151347.303          49.750          46.2504
 130199369.889 6 101454062.877 6  24776117.920    24776117.100    24776122.516
  24776122.623          37.250          39.250
 126036430.287 6  98210207.550 7  23983936.710    23983936.617    23983940.328
  23983941.403          41.750          43.250
 115273200.052 8  89823274.394 7  21935759.130    21935759.289    21935760.148
  21935760.062          50.000          47.250
 20  1  1  1 30  0.0000000  0  9G27G21G24G13G10G20G08G32G15
 117970417.859 8  91924997.795 8  22449022.982    22449022.507    22449026.159
  22449026.223          48.000          48.500
 109775470.358 8  85539330.73947  20889575.498    20889574.913
  20889576.302          50.000          46.2504
 122343284.590 6  95332427.513 7  23281152.939    23281153.617    23281157.856
  23281157.502          41.500          45.750
 128544842.142 6 100164813.81743  24461267.358    24461267.212
  24461269.180          39.250          21.5004
 113247459.027 8  88244776.525 8  21550273.244    21550273.539    21550277.423
  21550277.972          52.250          53.250
 105884558.171 8  82507448.67047  20149159.443    20149158.792
  20149160.297          49.500          46.2504
 130115459.469 6 101388678.132 6  24760150.794    24760150.078    24760153.669
  24760154.271          39.000          38.250
 125927554.242 7  98125369.088 7  23963217.679    23963218.145    23963222.916
  23963222.635          42.000          43.250
 115354239.343 8  89886421.897 7  21951180.182    21951180.708    21951181.552
  21951181.349          49.750          47.500
 20  1  1  1 30 30.0000000  0  9G27G21G24G13G10G20G08G32G15
 117934099.056 8  91896697.436 8  22442111.295    22442111.398    22442115.063
  22442115.009          48.000          48.750
 109789261.658 8  85550077.20847  20892199.984    20892199.463
  20892200.763          50.250          46.2504
 122269720.530 7  95275104.886 7  23267154.355    23267155.300    23267158.041
  23267159.510          42.000          45.000
 128648335.374 6 100245457.90843  24480962.040    24480961.826
  24480962.132          39.250          20.7504
 113194568.529 8  88203563.160 8  21540209.067    21540209.124    21540212.304
  21540212.628          52.500          52.250
 105873379.466 8  82498737.99447  20147032.254    20147031.665
  20147033.095          49.750          46.2504
 130031888.985 6 101323558.283 6  24744246.890    24744247.738    24744251.921
  24744251.936          39.000          38.000
 125818809.922 7  98040633.249 7  23942524.508    23942524.789    23942528.982
  23942529.211          42.000          42.500
 115435669.446 8  89949873.923 7  21966675.980    21966676.360    21966677.409
  21966677.046          50.000          47.500
 20  1  1  1 31  0.0000000  0  9G27G21G24G13G10G20G08G32G15
 117898355.356 8  91868845.195 8  22435309.593    22435309.262    22435313.111
  22435312.959          48.250          48.500
 109803411.521 8  85561103.07047  20894892.667    20894891.968
  20894893.356          49.750          46.0004
 122196485.635 6  95218038.741 7  23253218.050    23253218.613    23253223.019
  23253222.658          41.250          45.500
 128752035.541 6 100326263.23443  24500695.970    24500694.537
  24500696.483          38.750          20.2504
 113141913.961 8  88162533.644 8  21530188.756    21530188.857    21530192.945
  21530193.188          52.000          53.000
 105862512.502 8  82490270.24447  20144964.362    20144963.730
  20144965.282          49.750          46.2504
 129948658.562 6 101258703.403 6  24728409.176    24728409.303    24728414.029
  24728414.018          39.250          39.000
 125710197.295 7  97955999.992 7  23921856.084    23921856.118    23921859.544
  23921860.961          42.000          42.500
 115517485.481 8  90013626.669 7  21982245.064    21982245.031    21982246.479
  21982246.027          50.250          47.250
 20  1  1  1 31 30.0000000  0  9G27G21G24G13G10G20G08G32G15
 117863189.785 8  91841443.453 8  22428617.963    22428617.770    22428621.434
  22428621.509          48.000          48.750
 109817922.485 8  85572410.32147  20897654.118    20897653.485
  20897654.734          50.500          46.0004
 122123584.684 6  95161232.822 7  23239345.472    23239345.632    23239350.455
  23239350.760          41.500          45.750
 128855941.807 6 100407229.16643  24520467.937    24520468.749
  24520468.540          38.250          18.7504
 113089497.315 8  88121689.529 8  21520214.684    21520214.557    21520218.083
  21520218.470          52.500          52.750
 105851958.554 8  82482046.39547  20142956.078    20142955.309
  20142956.791          49.750          46.2504
 129865772.910 6 101194117.148 6  24712635.802    24712635.917    24712641.090
  24712639.986          38.500          39.500
 125601720.185 6  97871472.349 7  23901213.213    23901213.489    23901217.955
  23901217.693          41.250          43.000
 115599686.607 8  90077679.494 7  21997887.102    21997887.325    21997888.446
  21997888.387          49.500          47.000
 20  1  1  1 32  0.0000000  0  9G27G21G24G13G10G20G08G32G15
 117828603.657 8  91814493.222 8  22422036.523    22422036.237    22422040.047
  22422040.076          48.750          48.500
 109832794.966 8  85583999.26447  20900484.218    20900483.521
  20900484.620          50.500          46.2504
 122051020.349 7  95104689.227 7  23225537.736    23225537.886    23225541.537
  23225541.407          42.000          45.500
 128960052.039 6 100488354.05443  24540279.894    24540280.305
  24540280.839          38.750          18.5004
 113037318.810 8  88081030.962 8  21510284.836    21510285.024    21510288.932
  21510289.240          52.250          52.750
 105841717.870 8  82474066.64947  20141007.338    20141006.733
  20141008.081          49.750          46.5004
 129783234.491 6 101129801.474 6  24696929.783    24696929.253    24696934.489
  24696934.491          38.750          39.500
 125493380.798 6  97787052.065 7  23880597.003    23880596.636    23880602.244
  23880602.092          41.250          43.750
 115682270.098 8  90142030.260 7  22013602.364    22013602.695    22013603.321
  22013603.753          49.500          46.750
 20  1  1  1 32 30.0000000  0  9G27G21G24G13G10G20G08G32G15
 117794595.792 8  91787993.578 8  22415564.818    22415564.846    22415568.630
  22415568.659          48.750          49.000
 109848027.177 8  85595868.51447  20903382.686    20903382.076
  20903383.401          50.250          46.0004
 121978794.261 6  95048409.163 7  23211793.318    23211793.207    23211796.272
  23211796.735          41.250          43.750
 129064360.798 6 100569633.57243  24560128.334    24560128.085
  24560130.137          39.000          19.0004
 112985376.245 8  88040556.257 8  21500400.804    21500401.062    21500404.285
  21500404.896          52.500          53.000
 105831788.428 8  82466329.42447  20139117.823    20139117.101
  20139118.531          49.750          46.2504
 129701043.524 6 101065756.572 6  24681288.764    24681289.246    24681294.262
  24681293.447          37.750          38.750
 125385178.785 6  97702738.815 7  23860006.539    23860007.002    23860011.397
  23860012.258          41.250          43.250
 115765230.821 8  90206674.973 7  22029389.257    22029389.558    22029390.618
  22029390.504          49.750          47.000
 20  1  1  1 33  0.0000000  0  9G27G21G24G13G10G20G08G32G15
 117761169.753 7  91761947.319 8  22409203.937    22409203.811    22409207.930
  22409207.760          47.750          49.000
 109863622.523 8  85608020.73247  20906350.429    20906349.864
  20906351.070          50.750          46.2504
 121906911.630 6  94992396.710 7  23198114.364    23198114.200    23198118.015
  23198118.421          41.500          43.500
 129168867.967 6 100651067.76243  24580016.704    24580016.060
  24580016.143          39.250          19.7504
 112933672.204 8  88000267.417 8  21490561.845    21490561.867    21490565.158
  21490565.693          52.500          52.750
 105822172.505 8  82458836.50347  20137288.032    20137287.154
  20137288.622          50.000          46.2504
 129619204.359 6 101001985.812 6  24665714.895    24665715.049    24665720.096
  24665720.321          37.250          39.000
 125277118.711 7  97618536.138 7  23839444.344    23839443.969    23839448.563
  23839448.579          42.500          43.750
 115848568.533 8  90271613.452 7  22045247.656    22045248.184    22045249.124
  22045248.906          49.500          47.000
 20  1  1  1 33 30.0000000  0  9G27G21G24G13G10G20G08G32G15
 117728325.304 8  91736354.235 8  22402954.236    22402953.955    22402957.571
  22402957.567          48.000          48.750
 109879580.150 8  85620455.24447  20909386.939    20909386.417
  20909387.669          51.000          46.2504
 121835373.689 6  94936652.887 7  23184500.734    23184500.976    23184504.444
  23184504.915          41.250          43.500
 129273569.315 6 100732653.23743  24599940.181    24599939.777
  24599941.864          40.250          20.5004
 112882205.455 8  87960163.469 8  21480768.094    21480768.145    21480772.003
  21480772.345          52.500          53.000
 105812868.347 8  82451586.50747  20135517.568    20135516.729
  20135518.126          50.000          46.0004
 129537718.668 6 100938490.489 6  24650208.603    24650209.041    24650213.168
  24650214.258          37.250          39.750
 125169201.172 7  97534444.546 7  23818907.971    23818907.970    23818911.892
  23818912.326          43.000          43.000
 115932279.247 8  90336842.588 7  22061177.645    22061177.508    22061179.076
  22061178.762          49.750          46.750
 20  1  1  1 34  0.0000000  0  9G27G21G24G13G10G20G08G32G15
 117696064.573 7  91711216.005 8  22396814.928    22396814.920    22396818.587
  22396818.448          47.500          48.750
 109895901.642 8  85633173.28847  20912493.066    20912492.449
  20912493.775          50.750          46.2504
 121764184.906 6  94881181.134 7  23170953.132    23170954.052    23170958.352
  23170958.305          40.500          44.000
 129378463.275 6 100814388.82343  24619901.302    24619901.000
  24619900.350          40.750          20.7504
 112830977.137 8  87920245.325 8  21471019.395    21471019.663    21471023.114
  21471023.561          52.750          52.750
 105803877.095 8  82444580.33947  20133806.491    20133805.716
  20133807.113          49.500          46.2504
 129456589.918 6 100875273.296 6  24634771.190    24634771.027    24634777.001
  24634775.624          37.500          41.000
 125061429.286 7  97450466.440 7  23798400.135    23798400.088    23798404.125
  23798404.098          43.250          43.000
 116016361.010 8  90402360.838 7  22077178.059    22077177.985    22077178.807
  22077178.942          49.500          46.750
 20  1  1  1 34 30.0000000  0  9G27G21G24G13G10G20G08G32G15
 117664387.481 7  91686532.556 8  22390786.917    22390786.786    22390790.859
  22390790.812          47.750          49.000
 109912586.514 8  85646174.48447  20915668.261    20915667.497
  20915668.713          51.000          46.5004
 121693347.194 6  94825982.903 7  23157474.076    23157474.155    23157477.502
  23157478.328          41.250          44.000
 129483545.749 6 100896271.26743  24639897.235    24639896.974
  24639899.376          40.250          21.2504
 112779986.282 8  87880512.197 8  21461316.391    21461316.498    21461320.102
  21461320.401          52.500          53.000
 105795197.666 8  82437817.15547  20132154.736    20132154.106
  20132155.549          49.750          46.2504
 129375819.047 6 100812334.928 6  24619400.453    24619400.728    24619406.223
  24619405.912          38.250          41.250
 124953804.034 7  97366602.599 7  23777919.403    23777919.625    23777923.437
  23777923.408          43.250          42.500
 116100809.854 8  90468165.134 7  22093247.689    22093248.130    22093249.399
  22093248.799          49.250          47.000
 20  1  1  1 35  0.0000000  0  9G27G21G24G13G10G20G08G32G15
 117633296.334 8  91662305.689 8  22384870.580    22384870.310    22384873.794
  22384874.249          48.000          48.750
 109929636.358 8  85659460.06747  20918912.566    20918912.017
  20918913.206          51.000          46.5004
 121622864.521 7  94771061.340 7  23144062.270    23144062.050    23144065.691
  23144065.789          42.250          44.500
 129588815.475 6 100978299.61343  24659929.789    24659929.265
  24659930.188          40.500          21.7504
 112729234.222 8  87840965.174 8  21451658.650    21451658.686    21451662.157
  21451662.812          53.000          53.250
 105786831.175 8  82431297.82147  20130562.647    20130562.007
  20130563.360          49.500          46.0004
 129295409.853 6 100749678.379 6  24604099.642    24604099.262    24604104.872
  24604104.383          39.750          41.250
 124846328.537 7  97282855.428 7  23757467.412    23757467.835    23757472.032
  23757471.378          43.000          43.250
 116185624.368 8  90534254.369 7  22109387.216    22109387.566    22109388.978
  22109388.390          49.000          46.250
 20  1  1  1 35 30.0000000  0  9G27G21G24G13G10G20G08G32G15
 117602791.920 8  91638536.018 8  22379065.562    22379065.581    22379069.556
  22379069.278          48.000          49.000
 109947051.766 8  85673030.51447  20922226.454    20922226.065
  20922227.264          51.000          46.5004
 121552740.256 7  94716419.068 7  23130718.011    23130717.568    23130721.940
  23130721.859          42.000          44.750
 129694269.553 6 101060471.61943  24679996.703    24679996.821
  24679997.068          40.250          22.0004
 112678720.934 8  87801604.180 8  21442046.123    21442046.139    21442049.836
  21442050.111          52.750          53.000
 105778777.126 8  82425021.95247  20129030.020    20129029.255
  20129030.814          49.750          46.2504
 129215364.454 6 100687305.346 6  24588868.167    24588867.538    24588872.669
  24588871.689          40.250          41.250
 124739004.675 7  97199226.441 7  23737044.471    23737044.663    23737048.958
  23737048.226          43.000          43.750
 116270801.686 8  90600626.312 7  22125596.144    22125596.375    22125597.725
  22125596.966          49.250          46.500
 20  1  1  1 36  0.0000000  0  9G27G21G24G13G10G20G08G32G15
 117572874.309 8  91615223.593 8  22373372.415    22373372.691    22373376.358
  22373376.002          48.000          48.750
 109964832.276 8  85686885.45347  20925610.260    20925609.483
  20925610.757          51.250          46.5004
 121482975.953 6  94662057.281 7  23117441.063    23117441.597    23117446.397
  23117446.551          41.000          45.500
 129799904.205 6 101142784.33143  24700097.825    24700097.354
  24700099.107          39.250          22.0004
 112628445.514 8  87762428.552 8  21432479.300    21432479.214    21432482.727
  21432483.285          53.000          53.250
 105771034.340 8  82418988.61847  20127556.655    20127555.809
  20127557.198          50.000          46.2504
 129135684.425 6 100625217.033 6  24573705.574    24573704.783    24573710.375
  24573709.634          40.250          41.250
 124631833.519 7  97115716.451 7  23716649.851    23716650.928    23716654.328
  23716654.581          42.750          43.250
 116356337.904 8  90667277.912 7  22141873.026    22141873.396    22141874.375
  22141874.373          48.750          46.500
 20  1  1  1 36 30.0000000  0  9G27G21G24G13G10G20G08G32G15
 117543545.659 8  91592370.109 8  22367791.423    22367791.319    22367795.295
  22367795.452          48.250          49.000
 109982979.602 8  85701026.22247  20929063.477    20929062.843
  20929064.069          50.750          46.2504
 121413576.316 6  94607979.664 7  23104235.837    23104235.783    23104239.271
  23104239.957          41.500          45.000
 129905718.123 6 101225236.74343  24720233.847    24720233.852
  24720235.069          39.750          21.5004
 112578409.359 8  87723439.350 8  21422957.510    21422957.614    21422960.944
  21422961.322          52.750          53.000
 105763604.265 8  82413198.95147  20126142.674    20126142.048
  20126143.329          50.000          46.0004
 129056373.621 6 100563416.414 6  24558612.165    24558612.393    24558617.036
  24558617.034          38.750          40.250
 124524818.292 7  97032327.966 7  23696285.178    23696285.827    23696290.597
  23696290.337          42.500          44.250
 116442231.302 8  90734207.825 7  22158218.227    22158218.197    22158219.989
  22158219.415          48.750          46.250
 20  1  1  1 37  0.0000000  0  9G27G21G24G13G10G20G08G32G15
 117514806.788 8  91569976.172 8  22362322.602    22362322.693    22362326.214
  22362326.229          48.500          48.750
 110001494.023 8  85715453.03947  20932586.654    20932585.946
  20932587.356          51.000          46.2504
 121344543.734 6  94554188.028 7  23091099.295    23091099.218    23091103.273
  23091103.323          41.250          45.500
 130011707.982 6 101307826.21443  24740403.850    24740403.668
  24740403.777          39.250          20.0004
 112528612.391 8  87684636.524 8  21413481.413    21413481.635    21413484.866
  21413485.466          52.750          53.000
 105756486.734 8  82407652.82347  20124788.050    20124787.776
  20124788.981          49.750          46.2504
 128977433.815 6 100501904.876 6  24543590.605    24543591.058    24543595.663
  24543595.340          38.250          40.500
 124417960.903 7  96949062.507 7  23675951.522    23675952.080    23675955.851
  23675956.085          43.250          44.250
 116528479.247 8  90801414.013 7  22174630.219    22174630.637    22174632.350
  22174631.591          48.250          46.750
 20  1  1  1 37 30.0000000  0  9G27G21G24G13G10G20G08G32G15
 117486658.108 8  91548042.141 8  22356966.314    22356966.070    22356969.821
  22356969.803          48.500          48.750
 110020375.732 8  85730166.05147  20936179.761    20936179.034
  20936180.403          50.500          46.5004
 121275880.940 6  94500684.592 7  23078032.470    23078033.163    23078037.299
  23078037.756          40.250          45.500
 130117870.944 6 101390550.56943  24760605.704    24760605.347
  24760606.023          38.750          20.0004
 112479054.283 8  87646019.841 8  21404050.922    21404051.033    21404054.685
  21404054.903          53.000          53.500
 105749681.118 8  82402349.76347  20123493.430    20123492.541
  20123493.957          49.500          46.0004
 128898867.294 6 100440684.204 6  24528639.275    24528640.190    24528644.473
  24528644.571          38.500          39.500
 124311262.808 7  96865921.156 7  23655647.340    23655647.514    23655652.389
  23655652.152          42.000          44.000
 116615078.621 8  90868894.053 7  22191110.040    22191109.965    22191111.067
  22191111.017          48.750          46.250
 20  1  1  1 38  0.0000000  0  9G27G21G24G13G10G20G08G32G15
 117459101.285 8  91526569.293 8  22351722.388    22351722.318    22351726.073
  22351725.999          48.750          49.250
 110039626.080 8  85745166.32047  20939843.072    20939842.327
  20939843.553          51.250          46.5004
 121207591.496 6  94447472.026 7  23065037.697    23065038.013    23065041.542
  23065041.840          41.250          44.250
 130224205.061 6 101473408.31243  24780840.755    24780840.225
  24780840.491          38.250          20.0004
 112429735.902 8  87607589.944 8  21394665.909    21394665.995    21394669.394
  21394669.801          53.000          53.250
 105743187.918 8  82397290.13547  20122257.736    20122256.813
  20122258.282          49.500          46.0004
 128820676.981 6 100379756.688 6  24513760.994    24513760.831    24513766.176
  24513765.747          40.000          40.750
 124204726.793 7  96782906.088 7  23635374.731    23635375.035    23635379.548
  23635379.634          43.500          44.500
 116702027.419 8  90936646.356 7  22207655.819    22207655.739    22207656.783
  22207657.030          48.750          46.000
 20  1  1  1 38 30.0000000  0  9G27G21G24G13G10G20G08G32G15
 117432137.254 8  91505558.355 8  22346591.283    22346591.337    22346595.130
  22346594.867          48.750          48.750
 110059245.565 8  85760454.22547  20943576.451    20943575.824
  20943577.027          51.000          46.5004
 121139678.939 6  94394553.175 7  23052114.506    23052114.949    23052119.040
  23052118.675          41.000          45.000
 130330707.742 6 101556397.42943  24801106.890    24801106.603
  24801107.868          38.750          19.5004
 112380657.399 8  87569346.970 8  21385326.486    21385326.483    21385330.068
  21385330.499          53.000          53.250
 105737007.339 8  82392474.11247  20121081.423    20121080.797
  20121082.102          49.500          46.0004
 128742865.317 6 100319124.195 6  24498954.495    24498954.297    24498958.880
  24498958.899          40.250          41.000
 124098354.920 7  96700018.924 7  23615132.650    23615133.192    23615137.223
  23615137.247          43.750          44.500
 116789322.617 8  91004668.580 7  22224267.443    22224267.742    22224268.605
  22224268.286          48.500          45.750
 20  1  1  1 39  0.0000000  0  9G27G21G24G13G10G20G08G32G15
 117405765.252 8  91485008.731 8  22341572.939    22341572.860    22341576.279
  22341576.666          49.000          49.250
 110079232.947 8  85776028.80147  20947379.898    20947379.286
  20947380.603          51.000          46.5004
 121072144.353 7  94341928.821 7  23039263.632    23039263.886    23039266.621
  23039267.015          42.000          44.750
 130437374.694 6 101639514.50843  24821405.108    24821405.686
  24821404.845          38.750          19.0004
 112331817.324 8  87531289.781 8  21376032.574    21376032.764    21376035.940
  21376036.432          53.000          53.000
 105731137.377 8  82387900.12247  20119964.576    20119963.661
  20119965.201          50.000          46.0004
 128665432.877 6 100258787.219 6  24484219.205    24484219.342    24484223.606
  24484223.715          40.250          41.750
 123992147.588 7  96617259.965 7  23594922.134    23594922.641    23594926.382
  23594926.510          43.250          43.500
 116876959.979 8  91072957.425 7  22240944.174    22240944.408    22240945.274
  22240945.581          48.500          46.500
 20  1  1  1 39 30.0000000  0  9G27G21G24G13G10G20G08G32G15
 117379988.518 8  91464922.968 8  22336667.688    22336667.664    22336671.680
  22336671.272          49.250          49.000
 110099591.152 8  85791892.33947  20951253.731    20951253.267
  20951254.623          50.750          46.5004
 121004992.383 6  94289602.604 7  23026483.858    23026483.930    23026488.820
  23026489.107          40.500          45.500
 130544205.459 6 101722759.24743  24841733.934    24841733.959
  24841735.641          39.000          19.0004
 112283218.198 8  87493420.359 8  21366784.347    21366784.416    21366788.033
  21366788.565          52.750          53.750
 105725580.407 8  82383570.02547  20118906.968    20118906.336
  20118907.780          49.250          46.0004
 128588384.618 6 100198749.605 6  24469557.088    24469556.576    24469562.380
  24469561.448          39.500          41.500
 123886109.187 7  96534632.647 7  23574743.432    23574744.211    23574747.946
  23574748.180          43.000          43.500
 116964938.931 8  91141512.453 7  22257686.357    22257686.245    22257687.220
  22257687.427          48.750          46.250
 20  1  1  1 40  0.0000000  0  9G27G21G24G13G10G20G08G32G15
 117354805.993 8  91445300.209 8  22331875.953    22331875.613    22331879.278
  22331879.368          49.500          49.000
 110120318.723 8  85808043.68647  20955198.127    20955197.554
  20955198.918          50.750          46.5004
 120938224.567 6  94237575.743 7  23013779.102    23013779.063    23013783.145
  23013783.297          41.500          45.500
 130651195.759 6 101806128.31543  24862093.714    24862093.902
  24862094.627          39.250          19.0004
 112234858.234 8  87455737.286 8  21357581.822    21357581.901    21357585.479
  21357585.767          53.000          53.250
 105720334.610 8  82379482.39947  20117908.769    20117908.079
  20117909.467          48.500          46.2504
 128511721.091 6 100139011.801 7  24454968.410    24454968.915    24454973.820
  24454973.454          39.750          42.000
 123780239.823 7  96452137.040 7  23554597.472    23554597.758    23554601.345
  23554601.544          43.250          43.250
 117053254.883 8  91210330.088 7  22274492.170    22274492.004    22274493.649
  22274493.096          48.500          46.000
 20  1  1  1 40 30.0000000  0  9G27G21G24G13G10G20G08G32G15
 117330220.028 8  91426142.314 8  22327197.256    22327196.844    22327200.391
  22327200.692          49.500          49.000
 110141417.810 8  85824484.52347  20959213.187    20959212.518
  20959213.928          50.500          46.2504
 120871845.991 7  94185852.179 7  23001147.708    23001147.873    23001152.514
  23001152.131          42.000          46.250
 130758344.400 6 101889620.75342  24882483.678    24882484.422
  24882484.081          39.250          17.7504
 112186739.155 8  87418241.911 8  21348425.008    21348425.123    21348428.729
  21348429.050          53.000          53.750
 105715401.509 7  82375638.42747  20116970.191    20116969.365
  20116970.691          47.750          46.0004
 128435446.225 6 100079576.852 6  24440454.394    24440453.670    24440459.554
  24440458.437          40.000          41.500
 123674543.107 7  96369775.954 7  23534483.607    23534484.169    23534488.355
  23534488.041          42.750          43.500
 117141906.848 8  91279409.521 7  22291362.157    22291361.839    22291362.785
  22291362.663          48.250          46.000
 20  1  1  1 41  0.0000000  0  9G27G21G24G13G10G20G08G32G15
 117306230.192 8  91407448.929 8  22322632.126    22322631.813    22322635.315
  22322635.391          49.750          48.750
 110162887.646 8  85841214.25447  20963298.572    20963298.109
  20963299.514          50.000          46.2504
 120805857.668 6  94134432.725 7  22988590.051    22988590.744    22988594.642
  22988594.390          41.000          45.750
 130865647.434 6 101973233.52042  24902901.714    24902903.559
  24902903.663          39.250          17.7504
 112138859.933 8  87380933.439 8  21339313.999    21339314.126    21339317.360
  21339317.894          53.250          53.250
 105710779.778 7  82372037.08147  20116090.557    20116089.734
  20116091.236          47.750          46.0004
 128359561.082 6 100020445.570 6  24426013.989    24426013.656    24426018.942
  24426018.089          41.250          41.750
 123569019.884 7  96287550.093 7  23514403.597    23514403.600    23514408.547
  23514407.793          43.000          44.250
 117230890.846 8  91348747.704 7  22308295.318    22308294.924    22308296.623
  22308295.872          48.000          46.000
 20  1  1  1 41 30.0000000  0  9G27G21G24G13G10G20G08G32G15
 117282837.584 8  91389220.912 8  22318180.479    22318180.083    22318183.900
  22318184.221          49.500          49.000
 110184729.120 8  85858233.58147  20967455.097    20967454.461
  20967455.762          50.500          46.2504
 120740263.143 7  94083320.133 7  22976108.249    22976108.265    22976112.868
  22976113.298          42.000          46.250
 130973102.807 6 102056964.99342  24923351.170    24923350.493
  24923351.156          39.250          17.0004
 112091221.004 8  87343812.205 8  21330248.454    21330248.768    21330251.985
  21330252.525          53.250          53.500
 105706469.699 7  82368678.58947  20115270.363    20115269.611
  20115270.989          47.250          46.0004
 128284068.116 6  99961619.898 6  24411647.298    24411648.437    24411653.415
  24411652.500          41.250          41.500
 123463672.463 7  96205461.207 7  23494356.154    23494356.586    23494361.018
  23494360.880          42.750          44.250
 117320204.362 8  91418342.658 7  22325290.934    22325291.547    22325292.409
  22325292.263          48.000          45.750
 20  1  1  1 42  0.0000000  0  9G27G21G24G13G10G20G08G32G15
 117260043.336 8  91371459.150 8  22313842.878    22313842.692    22313846.579
  22313846.420          49.500          49.000
 110206942.883 8  85875543.00247  20971682.245    20971681.638
  20971683.037          50.500          46.5004
 120675065.882 7  94032517.061 7  22963701.883    22963701.570    22963705.335
  22963705.650          42.250          45.000
 131080708.021 6 102140813.19942  24943827.444    24943826.885
  24943827.431          39.000          17.7504
 112043822.910 8  87306878.642 8  21321228.860    21321229.127    21321232.579
  21321233.135          53.000          53.750
 105702471.532 8  82365563.14147  20114509.468    20114508.759
  20114510.207          48.500          46.0004
 128208970.550 6  99903102.295 7  24397357.232    24397357.161    24397362.840
  24397361.863          41.250          42.250
 123358503.163 7  96123511.112 7  23474343.059    23474343.414    23474348.022
  23474347.671          42.750          44.500
 117409844.984 8  91488192.498 7  22342348.905    22342349.335    22342350.150
  22342349.858          48.250          45.750
 20  1  1  1 42 30.0000000  0  9G27G21G24G13G10G20G08G32G15
 117237847.629 8  91354163.796 8  22309619.089    22309619.144    22309622.714
  22309622.940          49.500          49.250
 110229528.935 8  85893142.52147  20975980.339    20975979.589
  20975980.872          50.500          46.2504
 120610268.425 7  93982025.526 7  22951371.240    22951371.635    22951374.733
  22951374.586          42.250          44.750
 131188460.091 6 102224775.85843  24964332.220    24964331.364
  24964331.765          39.000          20.0004
 111996665.286 8  87270132.457 8  21312255.312    21312255.244    21312258.703
  21312258.962          53.500          53.250
 105698785.178 8  82362690.66447  20113808.026    20113807.324
  20113808.677          49.500          46.2504
 128134269.887 6  99844893.974 7  24383142.091    24383141.249    24383146.902
  24383146.607          40.750          42.500
 123253513.550 7  96041701.037 7  23454364.305    23454364.624    23454369.631
  23454369.692          42.250          44.750
 117499809.576 7  91558294.766 7  22359469.016    22359468.767    22359469.905
  22359469.794          47.750          45.750
 20  1  1  1 43  0.0000000  0  9G27G21G24G13G10G20G08G32G15
 117216252.226 8  91337336.203 8  22305509.946    22305509.657    22305513.376
  22305513.156          49.750          49.000
 110252488.849 8  85911033.35647  20980349.508    20980348.747
  20980350.020          50.000          46.5004
 120545873.796 7  93931847.875 7  22939117.505    22939118.123    22939121.305
  22939121.689          42.750          45.250
 131296357.563 6 102308851.81242  24984864.586    24984864.228
  24984864.696          38.000          16.5004
 111949749.403 8  87233574.642 8  21303327.576    21303327.440    21303330.987
  21303331.351          53.500          53.750
 105695410.989 8  82360061.43247  20113166.003    20113165.155
  20113166.680          49.500          46.0004
 128059969.212 7  99786997.320 7  24369003.408    24369003.160    24369008.777
  24369007.564          42.000          42.250
 123148706.727 7  95960033.410 7  23434420.589    23434421.163    23434425.414
  23434425.455          43.000          44.750
 117590096.346 8  91628648.083 7  22376649.903    22376650.019    22376650.998
  22376650.604          48.500          45.500
 20  1  1  1 43 30.0000000  0  9G27G21G24G13G10G20G08G32G15
 117195256.278 8  91320975.726 8  22301514.326    22301514.252    22301517.894
  22301518.069          49.500          49.500
 110275821.601 8  85929214.71547  20984789.339    20984788.899
  20984789.997          50.250          46.5004
 120481884.145 7  93881985.818 7  22926940.738    22926940.660    22926944.489
  22926944.603          42.250          45.500
 131404396.291 6 102393037.78442  25005422.455    25005422.734
  25005423.279          37.250          16.7504
 111903073.845 8  87197204.096 8  21294445.341    21294445.436    21294448.844
  21294449.234          53.250          53.500
 105692347.843 8  82357674.57447  20112583.017    20112582.303
  20112583.664          49.250          46.0004
 127986069.429 7  99729413.085 6  24354941.154    24354940.536    24354945.895
  24354944.988          42.500          41.750
 123044083.057 7  95878508.431 7  23414511.604    23414511.837    23414516.518
  23414515.837          44.000          45.000
 117680701.100 8  91699249.183 7  22393891.182    22393891.309    22393891.975
  22393892.015          48.000          45.250
 20  1  1  1 44  0.0000000  0  9G27G21G24G13G10G20G08G32G15
 117174860.981 8  91305083.273 8  22297633.290    22297633.069    22297636.716
  22297636.800          49.250          49.250
 110299527.988 8  85947687.23047  20989300.523    20989300.015
  20989301.313          50.500          46.2504
 120418303.304 6  93832442.307 7  22914841.597    22914842.308    22914845.762
  22914846.347          41.750          46.250
 131512573.996 6 102477332.06643  25026008.975    25026008.627
  25026009.711          38.250          18.2504
 111856639.319 8  87161021.367 8  21285608.972    21285609.133    21285612.536
  21285613.102          52.750          53.500
 105689595.822 8  82355530.14647  20112059.438    20112058.669
  20112060.014          49.500          46.2504
 127912573.602 6  99672143.609 6  24340955.119    24340954.476    24340959.151
  24340959.214          41.500          41.500
 122939645.244 7  95797128.337 7  23394637.318    23394637.520    23394642.041
  23394642.101          43.750          44.750
 117771621.608 8  91770096.334 7  22411193.025    22411192.877    22411193.684
  22411193.877          48.500          45.000
 20  1  1  1 44 30.0000000  0  9G27G21G24G13G10G20G08G32G15
 117155067.585 8  91289659.844 8  22293866.949    22293866.649    22293870.201
  22293870.384          49.250          49.500
 110323609.201 8  85966451.80847  20993883.074    20993882.474
  20993883.811          50.500          46.2504
 120355133.807 6  93783219.335 7  22902820.294    22902820.756    22902825.261
  22902824.713          41.000          46.500
 131620889.040 6 102561733.38343  25046619.885    25046620.344
  25046621.324          37.500          18.0004
 111810446.645 8  87125027.090 8  21276818.936    21276818.986    21276822.307
  21276822.796          52.750          53.500
 105687155.736 8  82353628.78147  20111594.812    20111594.225
  20111595.698          48.500          45.7504
 127839484.660 6  99615191.188 6  24327046.501    24327046.246    24327051.226
  24327051.316          41.000          41.250
 122835395.917 7  95715895.108 7  23374799.440    23374799.742    23374804.326
  23374804.008          44.250          45.000
 117862855.687 8  91841187.835 7  22428553.649    22428554.236    22428555.289
  22428554.673          48.000          45.000
 20  1  1  1 45  0.0000000  0  9G27G21G24G13G10G20G08G32G15
 117135876.588 8  91274705.821 8  22290214.759    22290214.776    22290218.842
  22290218.580          49.000          49.750
 110348065.590 8  85985508.73647  20998537.009    20998536.511
  20998537.684          50.750          46.2504
 120292379.485 6  93734319.852 7  22890879.016    22890878.620    22890882.310
  22890883.092          41.750          45.250
 131729338.551 6 102646239.46642  25067257.068    25067257.203
  25067257.535          36.500          17.0004
 111764495.860 8  87089221.300 9  21268074.640    21268074.664    21268078.400
  21268078.864          52.500          54.000
 105685027.443 8  82351970.36847  20111189.948    20111189.264
  20111190.674          48.500          46.0004
 127766804.934 6  99558557.627 6  24313215.690    24313215.852    24313221.360
  24313220.573          41.000          41.500
 122731336.863 7  95634810.146 7  23354997.830    23354997.763    23355001.946
  23355002.063          43.750          44.250
 117954400.759 8  91912521.650 7  22445974.311    22445974.389    22445975.036
  22445975.767          48.000          45.250
 20  1  1  1 45 30.0000000  0  9G27G21G24G13G10G20G08G32G15
 117117287.687 8  91260220.960 8  22286677.528    22286677.276    22286681.177
  22286681.171          49.500          49.750
 110372896.786 8  86004857.71847  21003262.450    21003261.663
  21003263.014          51.000          46.2504
 120230041.496 6  93685744.811 7  22879016.168    22879016.098    22879021.120
  22879020.285          41.500          46.250
 131837919.408 6 102730847.89443  25087919.477    25087919.292
  25087921.571          37.500          18.0004
 111718786.282 8  87053603.468 8  21259376.517    21259376.630    21259379.950
  21259380.477          53.000          53.750
 105683209.965 8  82350554.15247  20110844.055    20110843.311
  20110844.743          49.000          46.0004
 127694535.607 6  99502243.874 6  24299462.938    24299463.400    24299467.994
  24299467.687          41.000          41.750
 122627469.270 7  95553874.363 7  23335232.311    23335232.327    23335237.160
  23335236.738          43.000          44.750
 118046253.023 8  91984094.846 7  22463453.449    22463453.967    22463454.932
  22463454.459          48.250          45.250
 20  1  1  1 46  0.0000000  0  9G27G21G24G13G10G20G08G32G15
 117099302.457 8  91246206.488 8  22283255.057    22283254.814    22283258.893
  22283258.891          49.000          50.000
 110398103.848 8  86024499.58347  21008059.070    21008058.408
  21008059.613          50.500          46.0004
 120168123.783 6  93637497.275 7  22867233.057    22867233.761    22867238.428
  22867238.553          40.750          46.500
 131946629.857 6 102815557.31842  25108606.299    25108605.536
  25108607.281          36.750          16.0004
 111673319.047 8  87018174.464 8  21250724.277    21250724.444    21250727.708
  21250728.262          53.000          53.750
 105681704.409 8  82349381.00047  20110557.356    20110556.763
  20110558.279          49.000          45.7504
 127622679.685 6  99446252.244 7  24285790.221    24285789.474    24285794.846
  24285794.637          41.500          42.250
 122523796.119 7  95473090.104 7  23315504.197    23315504.450    23315508.093
  23315507.866          43.000          44.500
 118138410.824 8  92055906.110 7  22480990.728    22480991.036    22480992.122
  22480991.364          48.000          45.750
 20  1  1  1 46 30.0000000  0  9G27G21G24G13G10G20G08G32G15
 117081921.572 8  91232662.948 8  22279947.534    22279947.193    22279951.007
  22279951.173          48.250          49.750
 110423687.573 8  86044434.94947  21012927.644    21012926.819
  21012928.046          50.500          46.2504
 120106629.619 6  93589579.748 7  22855532.317    22855531.905    22855535.917
  22855536.262          41.500          45.750
 132055467.578 6 102900365.91342  25129317.292    25129319.009
  25129318.927          38.250          17.7504
 111628094.504 8  86982934.577 8  21242118.353    21242118.460    21242121.903
  21242122.450          52.750          53.750
 105680510.691 8  82348450.83447  20110330.433    20110329.642
  20110331.211          48.750          46.0004
 127551240.093 7  99390585.016 7  24272195.297    24272195.391    24272200.104
  24272199.398          42.750          42.500
 122420319.577 7  95392459.041 7  23295812.382    23295813.139    23295817.693
  23295817.272          42.750          44.500
 118230871.750 8  92127953.575 7  22498585.205    22498585.226    22498586.176
  22498586.602          48.000          45.750
 20  1  1  1 47  0.0000000  0  9G27G21G24G13G10G20G08G32G15
 117065143.997 8  91219589.508 8  22276754.889    22276754.739    22276758.596
  22276758.474          48.000          50.000
 110449646.832 8  86064662.93447  21017867.152    21017866.686
  21017868.003          50.000          46.2504
 120045560.336 6  93541993.289 7  22843910.893    22843911.165    22843914.160
  22843914.516          41.000          44.250
 132164428.670 6 102985270.64642  25150052.731    25150053.700
  25150052.777          37.500          15.7504
 111583111.305 8  86947882.746 8  21233558.315    21233558.502    21233561.807
  21233562.194          52.500          53.750
 105679627.304 8  82347762.48647  20110162.127    20110161.585
  20110163.069          48.750          46.0004
 127480217.556 7  99335242.774 7  24258680.304    24258680.053    24258684.986
  24258684.749          43.000          42.750
 122317040.088 7  95311981.523 7  23276159.558    23276160.282    23276164.228
  23276164.634          44.250          44.750
 118323631.463 8  92200233.860 7  22516236.689    22516236.857    22516237.605
  22516238.124          48.000          45.250
 20  1  1  1 47 30.0000000  0  9G27G21G24G13G10G20G08G32G15
 117048970.913 8  91206987.109 8  22273676.978    22273676.937    22273681.250
  22273680.927          48.500          49.750
 110475982.560 8  86085184.28347  21022878.730    21022878.153
  21022879.421          50.000          46.0004
 119984919.068 6  93494740.367 7  22832370.556    22832370.332    22832376.024
  22832375.357          39.750          46.500
 132273510.742 6 103070269.64043  25170809.963    25170809.289
  25170809.872          38.750          18.0004
 111538370.270 8  86913019.616 8  21225044.640    21225044.546    21225047.785
  21225048.314          52.750          53.750
 105679054.908 8  82347316.47247  20110053.230    20110052.628
  20110054.150          48.500          46.0004
 127409615.000 7  99280227.801 7  24245245.441    24245245.088    24245249.596
  24245248.826          43.500          42.250
 122213960.347 7  95231659.640 7  23256544.671    23256544.429    23256549.048
  23256547.949          44.000          44.750
 118416687.894 7  92272745.365 7  22533944.704    22533944.685    22533946.136
  22533946.320          47.750          45.250
 20  1  1  1 48  0.0000000  0  9G27G21G24G13G10G20G08G32G15
 117033403.445 7  91194856.611 8  22270714.759    22270714.539    22270718.565
  22270718.363          47.750          49.750
 110502695.952 8  86105999.90247  21027962.251    21027961.585
  21027963.031          50.000          46.0004
 119924709.972 6  93447824.226 7  22820913.084    22820913.617    22820917.942
  22820918.323          41.000          45.500
 132382712.356 6 103155361.78542  25191590.937    25191590.023
  25191591.578          38.500          16.0004
 111493872.248 8  86878345.846 8  21216576.665    21216576.721    21216579.971
  21216580.673          53.000          53.750
 105678794.259 8  82347113.37247  20110003.574    20110003.012
  20110004.576          48.000          45.7504
 127339435.265 7  99225542.309 7  24231890.935    24231890.166    24231895.293
  24231895.034          43.250          42.750
 122111082.995 7  95151495.485 7  23236967.756    23236967.984    23236972.032
  23236971.685          44.750          45.500
 118510039.029 8  92345486.514 7  22551709.331    22551708.845    22551710.628
  22551710.179          48.250          44.750
 20  1  1  1 48 30.0000000  0  9G27G21G24G13G10G20G08G32G15
 117018442.067 8  91183198.394 8  22267867.792    22267867.463    22267871.320
  22267871.823          48.250          50.000
 110529787.447 8  86127110.15447  21033117.395    21033116.730
  21033118.316          49.750          46.0004
 119864935.116 7  93401246.394 7  22809538.920    22809539.110    22809542.592
  22809542.811          42.000          46.000
 132492031.063 6 103240545.21142  25212393.301    25212392.315
  25212394.699          38.250          16.7504
 111449617.504 8  86843861.645 8  21208155.420    21208155.391    21208158.747
  21208159.171          52.500          53.750
 105678845.210 7  82347153.07647  20110013.134    20110012.738
  20110014.212          47.750          45.7504
 127269680.517 7  99171187.959 7  24218615.989    24218615.683    24218621.723
  24218621.113          42.000          43.250
 122008410.095 7  95071490.626 7  23217429.267    23217429.290    23217433.709
  23217433.666          43.500          45.500
 118603682.039 7  92418455.086 7  22569528.512    22569528.572    22569529.880
  22569529.737          47.750          44.750
 20  1  1  1 49  0.0000000  0  9G27G21G24G13G10G20G08G32G15
 117004086.772 8  91172012.435 8  22265136.082    22265135.970    22265139.458
  22265139.936          48.000          49.750
 110557256.714 8  86148514.77147  21038344.866    21038344.164
  21038345.529          49.750          46.0004
 119805597.574 7  93355009.377 7  22798247.158    22798247.582    22798251.366
  22798251.642          42.250          46.250
 132601463.862 6 103325817.50842  25233217.829    25233217.614
  25233217.217          38.500          15.5004
 111405605.722 8  86809566.755 9  21199779.941    21199780.106    21199783.716
  21199784.042          52.500          54.000
 105679207.397 7  82347435.29747  20110082.230    20110081.649
  20110083.223          47.500          46.0004
 127200352.402 6  99117166.027 7  24205422.697    24205422.135    24205428.978
  24205428.094          41.750          43.500
 121905943.105 7  94991646.231 7  23197930.652    23197930.531    23197935.316
  23197934.961          43.250          45.750
 118697614.076 7  92491648.888 7  22587403.207    22587403.520    22587404.249
  22587404.235          47.500          44.750
 20  1  1  1 49 30.0000000  0  9G27G21G24G13G10G20G08G32G15
 116990336.822 8  91161298.195 8  22262519.500    22262519.368    22262523.333
  22262523.251          48.250          50.000
 110585102.848 8  86170213.05447  21043643.490    21043643.004
  21043644.541          49.500          46.0004
 119746698.277 7  93309113.843 7  22787039.370    22787039.089    22787043.060
  22787043.219          42.500          46.000
 132711007.306 6 103411176.03042  25254064.391    25254063.288
  25254062.295          38.000          14.7504
 111361836.012 8  86775460.499 8  21191451.146    21191451.206    21191454.326
  21191454.918          53.000          53.750
 105679879.628 8  82347959.11647  20110210.070    20110209.411
  20110211.115          49.250          46.0004
 127131452.417 7  99063477.727 7  24192312.267    24192312.686    24192316.567
  24192316.994          43.000          43.000
 121803682.969 7  94911963.028 7  23178471.175    23178471.324    23178475.834
  23178475.613          43.250          45.750
 118791831.401 7  92565064.964 7  22605332.286    22605332.689    22605333.356
  22605333.759          47.750          44.500
 20  1  1  1 50  0.0000000  0  9G27G21G24G13G10G20G08G32G15
 116977194.189 8  91151057.177 8  22260018.839    22260018.653    22260022.227
  22260022.028          48.750          50.000
 110613328.083 8  86192206.74447  21049014.808    21049013.982
  21049015.633          49.750          45.7504
 119688242.532 6  93263563.910 7  22775915.171    22775915.587    22775919.863
  22775919.611          41.750          47.000
 132820660.723 6 103496620.22842  25274930.703    25274929.293
  25274929.873          36.750          15.0004
 111318310.167 8  86741544.264 8  21183168.321    21183168.418    21183171.892
  21183172.155          52.750          53.750
 105680863.097 8  82348725.46047  20110397.406    20110396.614
  20110398.194          49.000          45.7504
 127062984.114 7  99010125.782 7  24179283.626    24179282.896    24179288.291
  24179287.696          42.250          43.250
 121701633.231 7  94832443.745 7  23159051.482    23159051.828    23159055.913
  23159055.986          43.500          45.250
 118886332.848 7  92638702.451 7  22623314.885    22623315.382    22623317.049
  22623316.761          47.250          44.750
 20  1  1  1 50 30.0000000  0  8G27G21G24G10G20G08G32G15
 116964658.738 7  91141289.291 8  22257633.210    22257633.063    22257636.531
  22257636.528          47.750          49.500
 110641932.168 8  86214495.63647  21054458.103    21054457.373
  21054458.679          49.750          46.0004
 119630232.000 7  93218360.906 7  22764876.712    22764876.569    22764879.718
  22764880.696          42.000          46.250
 111275027.895 8  86707817.827 9  21174932.027    21174932.212    21174935.439
  21174935.816          52.750          54.000
 105682157.941 8  82349734.43547  20110643.542    20110643.058
  20110644.615          48.250          45.7504
 126994948.960 7  98957111.345 7  24166336.640    24166336.450    24166342.008
  24166341.103          42.250          43.250
 121599795.425 7  94753089.629 7  23139672.249    23139672.771    23139677.122
  23139677.026          43.500          46.000
 118981115.148 8  92712558.778 7  22641352.133    22641351.686    22641353.381
  22641352.896          48.250          44.750
 20  1  1  1 51  0.0000000  0  8G27G21G24G10G20G08G32G15
 116952730.098 8  91131994.242 8  22255363.294    22255363.135    22255366.565
  22255366.936          48.000          50.000
 110670914.889 8  86237079.57247  21059973.130    21059972.490
  21059973.942          49.750          46.0004
 119572668.614 7  93173506.349 7  22753922.164    22753921.928    22753926.771
  22753926.739          42.250          46.500
 111231988.705 8  86674280.801 8  21166741.748    21166742.040    21166745.171
  21166745.744          52.750          53.500
 105683763.061 8  82350985.18447  20110949.294    20110948.528
  20110950.050          48.000          46.0004
 126927348.971 7  98904436.036 7  24153473.205    24153472.529    24153477.580
  24153477.502          43.500          42.750
 121498170.834 7  94673901.643 7  23120334.002    23120334.355    23120338.379
  23120338.284          43.750          45.000
 119076175.033 8  92786631.407 7  22659441.045    22659441.211    22659442.344
  22659442.199          48.000          44.750
 20  1  1  1 51 30.0000000  0  8G27G21G24G10G20G08G32G15
 116941409.213 8  91123172.768 8  22253208.824    22253208.813    22253212.743
  22253212.724          48.250          50.000
 110700277.184 8  86259959.27347  21065560.593    21065559.935
  21065561.475          49.750          45.7504
 119515556.008 6  93129002.997 7  22743053.463    22743054.412    22743058.441
  22743058.453          41.250          46.500
 111189193.644 8  86640934.002 9  21158598.230    21158598.406    21158601.763
  21158602.125          53.000          54.250
 105685679.301 8  82352478.36647  20111313.818    20111313.241
  20111314.618          48.000          46.0004
 126860186.871 7  98852101.948 7  24140692.031    24140692.328    24140696.496
  24140696.687          43.500          42.500
 121396762.080 7  94594881.833 7  23101036.578    23101037.400    23101040.795
  23101040.710          44.250          45.250
 119171510.485 8  92860918.774 7  22677583.175    22677583.068    22677583.763
  22677583.943          48.250          44.250
 20  1  1  1 52  0.0000000  0  8G27G21G24G10G20G08G32G15
 116930696.018 8  91114824.809 8  22251170.680    22251170.377    22251173.993
  22251174.057          48.000          49.500
 110730018.754 8  86283134.52147  21071220.275    21071219.699
  21071221.145          50.000          46.0004
 119458896.400 6  93084852.685 7  22732272.267    22732272.368    22732276.049
  22732276.083          41.750          45.750
 111146642.133 8  86607776.991 8  21150500.998    21150500.996    21150504.192
  21150504.904          52.750          53.750
 105687906.024 8  82354213.47147  20111737.527    20111736.817
  20111738.392          48.000          46.0004
 126793464.228 7  98800110.285 7  24127995.578    24127995.294    24128000.348
  24127999.763          42.750          43.000
 121295570.747 7  94516031.453 7  23081780.742    23081781.392    23081784.505
  23081784.544          44.500          44.750
 119267118.378 7  92935418.418 7  22695776.491    22695776.651    22695777.875
  22695777.424          47.750          44.500
 20  1  1  1 52 30.0000000  0  8G27G21G24G10G20G08G32G15
 116920591.557 8  91106951.199 8  22249247.224    22249247.231    22249251.078
  22249250.848          48.250          49.250
 110760140.904 8  86306606.31947  21076952.342    21076951.738
  21076953.090          49.750          46.0004
 119402693.483 6  93041058.207 7  22721576.425    22721577.142    22721581.327
  22721581.273          41.250          47.000
 111104335.396 8  86574810.711 9  21142450.186    21142450.321    21142453.629
  21142454.198          53.000          54.250
 105690444.215 8  82356191.28747  20112220.741    20112220.071
  20112221.349          49.000          45.5004
 126727184.101 7  98748463.418 7  24115382.382    24115381.823    24115386.982
  24115387.008          42.250          43.000
 121194599.599 7  94437352.631 7  23062566.547    23062566.145    23062570.282
  23062570.982          44.250          45.250
 119362997.118 7  93010129.125 7  22714021.824    22714021.811    22714022.596
  22714022.467          47.500          44.500
 20  1  1  1 53  0.0000000  0  8G27G21G24G10G20G08G32G15
 116911094.814 8  91099551.131 8  22247440.391    22247440.219    22247443.622
  22247443.709          48.500          49.500
 110790642.529 8  86330373.81647  21082756.786    21082756.057
  21082757.464          50.000          46.0004
 119346948.761 7  92997620.761 7  22710969.621    22710969.007    22710973.864
  22710973.366          42.500          46.750
 111062272.407 8  86542034.356 9  21134445.781    21134446.044    21134449.171
  21134449.717          53.250          54.000
 105693292.635 8  82358410.83647  20112762.641    20112761.905
  20112763.484          48.250          45.5004
 126661347.697 7  98697162.333 7  24102854.505    24102853.983    24102859.822
  24102859.723          42.250          43.500
 121093849.373 7  94358845.953 7  23043394.212    23043394.110    23043398.416
  23043398.384          43.500          45.750
 119459142.592 7  93085047.668 7  22732317.489    22732317.779    22732319.002
  22732318.595          47.500          44.500
 20  1  1  1 53 30.0000000  0  8G27G21G24G10G20G08G32G15
 116902206.317 8  91092625.030 8  22245749.106    22245748.725    22245752.658
  22245752.370          48.500          49.500
 110821524.297 8  86354437.53147  21088633.213    21088632.695
  21088634.013          49.750          46.0004
 119291665.008 7  92954542.524 7  22700449.957    22700448.693    22700453.189
  22700453.581          43.500          46.750
 111020453.676 8  86509448.339 9  21126487.954    21126487.971    21126491.548
  21126492.026          53.000          54.250
 105696451.556 8  82360872.33747  20113363.617    20113363.113
  20113364.532          48.750          45.7504
 126595957.146 7  98646208.652 7  24090410.760    24090410.583    24090415.837
  24090415.285          42.750          43.250
 120993322.388 7  94280513.248 7  23024264.655    23024265.012    23024269.446
  23024268.928          44.250          46.250
 119555552.527 7  93160172.274 7  22750663.863    22750663.829    22750664.782
  22750665.051          47.500          44.500
 20  1  1  1 54  0.0000000  0  8G27G21G24G10G20G08G32G15
 116893925.930 8  91086172.758 8  22244172.905    22244172.708    22244176.660
  22244176.494          48.750          49.500
 110852786.113 8  86378797.38347  21094582.285    21094581.617
  21094582.966          50.250          46.0004
 119236844.616 7  92911825.336 7  22690016.573    22690016.676    22690022.089
  22690021.296          42.250          47.500
 110978879.141 8  86477052.603 9  21118576.806    21118576.758    21118579.810
  21118580.588          53.250          54.000
 105699920.423 8  82363575.35447  20114024.063    20114023.136
  20114024.631          48.000          45.7504
 126531014.628 7  98595604.077 7  24078053.198    24078052.512    24078057.517
  24078057.988          43.000          42.750
 120893020.271 7  94202355.773 7  23005178.234    23005177.862    23005182.277
  23005182.278          44.250          46.250
 119652224.074 7  93235500.722 7  22769059.195    22769059.759    22769060.870
  22769060.892          47.000          44.250
 20  1  1  1 54 30.0000000  0  8G27G21G24G10G20G08G32G15
 116886255.356 8  91080195.686 8  22242713.720    22242713.461    22242717.129
  22242716.864          49.500          49.250
 110884429.865 8  86403454.84947  21100603.855    21100603.352
  21100604.530          50.000          46.0004
 119182491.765 7  92869472.464 7  22679673.787    22679673.772    22679678.568
  22679678.692          42.750          47.250
 110937550.535 8  86444848.498 9  21110712.061    21110712.157    21110715.602
  21110716.065          53.250          54.250
 105703701.004 8  82366521.26147  20114743.282    20114742.678
  20114744.080          48.500          45.7504
 126466523.355 7  98545351.134 7  24065780.916    24065780.905    24065785.454
  24065785.163          43.500          43.000
 120792946.489 7  94124376.213 7  22986134.169    22986134.111    22986138.771
  22986138.294          44.250          45.500
 119749156.111 7  93311032.176 7  22787505.043    22787505.677    22787506.387
  22787505.877          47.250          44.000
 20  1  1  1 55  0.0000000  0  8G27G21G24G10G20G08G32G15
 116879192.822 8  91074692.414 8  22241369.610    22241369.812    22241373.159
  22241373.311          49.500          49.500
 110916454.256 8  86428408.91747  21106697.986    21106697.366
  21106698.694          50.250          46.0004
 119128607.302 7  92827484.625 7  22669420.138    22669420.410    22669424.056
  22669424.634          42.250          46.750
 110896466.164 8  86412834.714 9  21102893.939    21102894.155    21102897.506
  21102897.806          53.500          54.250
 105707791.631 8  82369708.76747  20115521.724    20115521.045
  20115522.482          48.500          45.7504
 126402483.674 7  98495450.100 7  24053594.182    24053593.836    24053599.189
  24053599.247          43.000          42.750
 120693101.135 7  94046574.640 7  22967134.238    22967134.302    22967138.761
  22967138.594          44.250          45.500
 119846343.945 7  93386762.950 7  22805999.475    22805999.844    22806000.670
  22806000.876          47.750          44.000
 20  1  1  1 55 30.0000000  0  8G27G21G24G10G20G08G32G15
 116872738.703 8  91069663.212 8  22240141.459    22240141.212    22240145.253
  22240145.430          48.500          49.750
 110948859.049 8  86453659.39747  21112864.215    21112863.670
  21112865.034          49.750          46.0004
 119075194.445 7  92785864.203 7  22659255.581    22659256.070    22659260.644
  22659260.510          42.250          46.500
 110855626.543 8  86381011.632 9  21095122.405    21095122.486    21095125.799
  21095126.357          53.000          54.000
 105712192.129 8  82373137.72847  20116358.978    20116358.404
  20116359.788          48.000          45.7504
 126338897.923 7  98445902.760 7  24041494.594    24041493.107    24041499.058
  24041499.410          42.750          43.000
 120593486.427 7  93968952.784 7  22948178.168    22948178.738    22948182.457
  22948182.170          44.500          45.250
 119943785.522 7  93462691.448 7  22824542.240    22824542.030    22824542.899
  22824543.087          47.750          44.000
 20  1  1  1 56  0.0000000  0  8G27G21G24G10G20G08G32G15
 116866893.361 8  91065108.396 8  22239028.875    22239028.950    22239032.663
  22239032.618          49.500          49.250
 110981645.351 8  86479207.16047  21119103.324    21119102.831
  21119103.943          50.250          45.7504
 119022255.540 7  92744613.111 7  22649183.020    22649182.458    22649186.293
  22649186.463          43.500          46.750
 110815032.159 8  86349379.654 9  21087397.623    21087397.757    21087401.173
  21087401.477          53.000          54.000
 105716903.073 8  82376808.59347  20117255.558    20117254.903
  20117256.323          48.750          45.7504
 126275768.788 7  98396711.202 7  24029481.505    24029482.247    24029486.004
  24029485.781          43.500          43.000
 120494104.552 7  93891512.371 7  22929266.391    22929266.572    22929270.654
  22929270.793          44.000          45.750
 120041478.704 7  93538816.001 7  22843132.626    22843132.374    22843133.463
  22843133.226          47.500          43.750
 20  1  1  1 56 30.0000000  0  8G27G21G24G10G20G08G32G15
 116861657.856 8  91061028.780 8  22238032.820    22238032.467    22238036.411
  22238036.342          49.250          49.500
 111014814.166 8  86505052.98547  21125415.163    21125414.512
  21125415.825          50.750          46.0004
 118969794.487 7  92703734.378 7  22639198.498    22639199.172    22639203.088
  22639203.360          42.000          45.250
 110774684.408 8  86317939.850 9  21079719.425    21079719.756    21079723.405
  21079723.588          53.250          54.250
 105721925.246 8  82380721.98047  20118211.285    20118210.474
  20118211.972          48.250          45.5004
 126213098.997 7  98347877.581 7  24017555.728    24017555.344    24017559.993
  24017560.283          42.750          43.000
 120394958.441 7  93814255.662 7  22910399.828    22910400.087    22910404.193
  22910404.283          45.000          46.250
 120139421.447 7  93615135.011 7  22861770.011    22861770.573    22861771.735
  22861771.145          46.750          43.750
 20  1  1  1 57  0.0000000  0  8G27G21G24G10G20G08G32G15
 116857030.487 8  91057423.027 8  22237152.217    22237152.090    22237155.944
  22237156.238          50.000          49.750
 111048363.813 8  86531195.55947  21131799.464    21131798.912
  21131800.127          50.750          45.7504
 118917811.727 7  92663228.320 7  22629307.274    22629307.227    22629311.537
  22629311.342          43.750          46.250
 110734581.215 8  86286690.613 9  21072088.274    21072088.358    21072091.532
  21072092.205          53.250          54.000
 105727256.951 8  82384876.54847  20119226.034    20119225.101
  20119226.689          48.750          45.7504
 126150889.008 7  98299402.265 7  24005717.634    24005717.312    24005721.987
  24005721.036          43.000          42.750
 120296048.362 7  93737182.871 7  22891577.453    22891577.214    22891582.434
  22891582.326          44.000          46.500
 120237609.535 7  93691645.176 7  22880454.972    22880454.638    22880455.903
  22880456.158          46.750          44.000
 20  1  1  1 57 30.0000000  0  8G27G21G24G10G20G08G32G15
 116853012.062 8  91054291.781 8  22236387.783    22236387.349    22236391.229
  22236391.252          49.500          49.500
 111082295.269 8  86557635.64347  21138256.434    21138255.775
  21138257.110          50.500          45.7504
 118866311.209 7  92623098.013 7  22619507.250    22619507.335    22619510.756
  22619511.368          44.000          46.000
 110694724.261 8  86255633.257 9  21064503.705    21064503.794    21064507.327
  21064507.592          53.500          54.000
 105732899.079 8  82389273.01447  20120299.567    20120298.725
  20120300.320          49.000          45.7504
 126089141.700 7  98251287.493 7  23993967.721    23993967.248    23993971.939
  23993971.624          42.250          43.250
 120197376.974 7  93660296.087 7  22872800.945    22872801.261    22872805.545
  22872806.035          44.500          47.000
 120336041.226 7  93768345.182 7  22899185.819    22899186.117    22899187.266
  22899186.624          47.250          43.750
 20  1  1  1 58  0.0000000  0  8G27G21G24G10G20G08G32G15
 116849602.542 8  91051635.015 8  22235738.606    22235738.558    22235742.486
  22235742.324          48.000          49.250
 111116608.859 8  86584373.50647  21144786.086    21144785.418
  21144786.888          50.500          45.7504
 118815295.528 7  92583345.519 7  22609798.937    22609799.217    22609803.497
  22609803.541          44.000          47.000
 110655113.511 8  86224767.743 9  21056965.967    21056966.161    21056969.626
  21056970.063          53.500          54.250
 105738851.400 8  82393911.18747  20121432.274    20121431.563
  20121432.992          48.500          45.7504
 126027858.883 7  98203534.654 7  23982305.457    23982305.288    23982310.214
  23982310.252          42.000          43.500
 120098946.258 7  93583596.848 7  22854070.079    22854070.425    22854075.140
  22854075.016          45.250          47.000
 120434713.981 7  93845233.046 7  22917962.424    22917963.024    22917963.812
  22917963.874          47.000          43.250
 20  1  1  1 58 30.0000000  0  8G27G21G24G10G20G08G32G15
 116846800.688 8  91049451.728 8  22235205.774    22235205.518    22235209.606
  22235209.476          49.750          50.000
 111151303.714 8  86611408.44147  21151388.012    21151387.586
  21151389.062          50.250          45.5004
 118764765.445 7  92543971.430 7  22600183.465    22600183.566    22600187.601
  22600187.567          45.000          47.000
 110615747.995 8  86194093.329 9  21049474.950    21049475.058    21049478.454
  21049478.880          53.000          54.250
 105745113.065 8  82398790.39847  20122623.638    20122623.194
  20122624.570          49.000          45.5004
 125967041.693 6  98156144.628 7  23970732.189    23970731.606    23970737.198
  23970736.641          41.750          43.500
 120000756.892 7  93507085.648 7  22835385.497    22835385.596    22835390.048
  22835390.092          44.750          46.500
 120533623.828 7  93922305.652 7  22936784.356    22936784.846    22936785.433
  22936785.715          47.000          43.250
 20  1  1  1 59  0.0000000  0  8G27G21G24G10G20G08G32G15
 116844607.417 8  91047742.691 8  22234788.126    22234787.906    22234791.735
  22234791.881          48.000          49.750
 111186380.834 8  86638741.25847  21158063.295    21158062.567
  21158063.920          50.250          45.5004
 118714724.952 7  92504978.816 7  22590661.196    22590661.522    22590664.647
  22590665.819          44.750          46.250
 110576628.976 8  86163610.976 9  21042030.951    21042030.908    21042034.258
  21042034.739          53.000          54.500
 105751684.970 8  82403911.35347  20123874.336    20123873.715
  20123875.171          48.750          45.5004
 125906692.893 7  98109119.605 7  23959248.553    23959248.539    23959252.960
  23959252.389          42.000          43.250
 119902811.818 7  93430764.804 7  22816746.935    22816747.148    22816751.846
  22816751.728          45.500          46.500
 120632769.426 7  93999561.961 7  22955651.196    22955651.571    22955653.352
  22955652.241          46.500          43.500
 20  1  1  1 59 30.0000000  0  8G27G21G24G10G20G08G32G15
 116843022.466 8  91046507.645 8  22234486.577    22234486.576    22234490.366
  22234490.316          49.250          49.500
 111221839.924 8  86666371.71147  21164810.944    21164810.190
  21164811.573          50.500          45.5004
 118665175.986 7  92466369.243 7  22581231.420    22581232.730    22581235.940
  22581236.904          43.500          46.500
 110537756.440 8  86133320.692 9  21034633.868    21034633.898    21034637.002
  21034637.645          53.250          54.500
 105758566.642 8  82409273.69047  20125183.778    20125183.219
  20125184.681          48.750          45.7504
 125846814.473 6  98062461.098 7  23947853.477    23947853.781    23947858.816
  23947858.235          41.750          44.250
 119805112.662 7  93354635.588 7  22798155.161    22798155.529    22798160.245
  22798160.434          44.000          46.750
 120732147.863 7  94076999.688 7  22974561.861    22974562.585    22974563.387
  22974563.626          45.500          43.000
 20  1  1  2  0  0.0000000  0  8G27G21G24G10G20G08G32G15
 116842045.810 7  91045746.611 8  22234300.658    22234300.592    22234304.274
  22234304.682          47.750          49.500
 111257681.585 8  86694300.27247  21171631.224    21171630.633
  21171632.155          50.250          45.7504
 118616121.380 7  92428144.911 7  22571897.523    22571897.538    22571902.646
  22571901.617          44.750          47.250
 110499130.820 8  86103222.821 9  21027283.473    21027283.654    21027287.090
  21027287.475          53.000          54.250
 105765758.513 8  82414877.75447  20126552.561    20126551.850
  20126553.163          48.750          45.5004
 125787408.224 7  98016170.524 7  23936549.674    23936548.431    23936554.417
  23936554.309          42.250          44.250
 119707661.593 7  93278699.693 7  22779610.976    22779611.471    22779616.324
  22779615.742          45.250          47.000
 120831756.816 7  94154617.034 7  22993517.208    22993517.498    22993518.623
  22993518.448          46.250          43.750
 20  1  1  2  0 30.0000000  0  8G27G21G24G10G20G08G32G15
 116841676.982 8  91045459.199 8  22234230.579    22234230.609    22234234.518
  22234234.471          48.750          50.000
 111293905.521 8  86722526.70947  21178524.350    21178523.907
  21178525.278          50.500          45.5004
 118567563.829 7  92390307.820 7  22562658.069    22562657.513    22562661.323
  22562661.100          45.750          46.500
 110460751.947 8  86073317.201 9  21019980.128    21019980.327    21019983.475
  21019984.085          52.750          54.250
 105773260.150 8  82420723.18547  20127979.939    20127979.330
  20127980.720          48.500          45.7504
 125728476.149 7  97970249.435 7  23925335.125    23925334.714    23925339.551
  23925339.578          42.250          43.750
 119610460.083 7  93202958.258 7  22761114.331    22761114.609    22761119.049
  22761119.157          45.250          46.750
 120931593.174 7  94232411.594 7  23012515.735    23012515.688    23012516.725
  23012516.935          46.750          43.750
 20  1  1  2  1  0.0000000  0  8G27G21G24G10G20G08G32G15
 116841915.576 8  91045645.103 8  22234276.414    22234276.062    22234279.916
  22234279.961          49.000          49.750
 111330511.739 8  86751051.02747  21185490.391    21185489.706
  21185491.184          50.500          45.7504
 118519504.532 7  92352859.027 7  22553512.006    22553512.207    22553514.895
  22553515.951          44.750          45.750
 110422619.884 8  86043603.910 9  21012723.912    21012724.033    21012727.410
  21012727.818          53.250          54.500
 105781071.392 8  82426809.86847  20129466.605    20129465.657
  20129467.160          49.000          45.5004
 125670019.723 7  97924698.967 7  23914210.998    23914210.639    23914216.318
  23914215.275          42.250          44.000
 119513509.829 7  93127412.601 7  22742665.717    22742665.599    22742669.797
  22742669.681          45.500          46.250
 121031654.113 7  94310381.124 7  23031556.552    23031556.895    23031557.772
  23031558.038          46.250          43.250
 20  1  1  2  1 30.0000000  0  8G27G21G24G10G20G08G32G15
 116842762.219 8  91046304.816 8  22234437.485    22234437.152    22234441.107
  22234440.789          48.750          49.500
 111367500.946 8  86779873.78747  21192529.112    21192528.524
  21192530.053          50.250          45.5004
 118471947.442 7  92315801.578 7  22544461.048    22544462.164    22544465.447
  22544466.748          43.500          46.250
 110384735.707 8  86014083.780 9  21005514.680    21005514.886    21005518.245
  21005518.680          53.000          54.250
 105789193.109 8  82433138.48447  20131011.933    20131011.301
  20131012.678          49.000          45.5004
 125612042.141 7  97879521.648 7  23903178.574    23903178.602    23903182.989
  23903182.951          42.750          44.000
 119416813.527 7  93052064.819 7  22724264.293    22724265.160    22724269.356
  22724269.503          45.000          47.000
 121131938.415 7  94388524.726 7  23050639.968    23050640.225    23050641.321
  23050641.296          46.500          43.000
 20  1  1  2  2  0.0000000  0  8G27G21G24G10G20G08G32G15
 116844215.829 8  91047437.500 8  22234713.823    22234713.697    22234717.578
  22234717.666          48.500          50.000
 111404872.578 8  86808994.53347  21199640.679    21199640.147
  21199641.583          50.250          45.5004
 118424894.029 7  92279136.591 7  22535508.072    22535508.268    22535512.183
  22535512.384          45.000          47.000
 110347098.767 8  85984756.310 9  20998352.542    20998352.753    20998356.255
  20998356.674          52.750          54.250
 105797624.254 8  82439708.21047  20132616.505    20132615.545
  20132617.189          48.750          45.7504
 125554543.983 7  97834717.883 7  23892236.811    23892236.230    23892241.277
  23892241.549          42.250          43.750
 119320372.197 7  92976915.740 7  22705912.075    22705912.337    22705917.173
  22705917.051          44.500          46.750
 121232442.474 7  94466839.556 7  23069765.347    23069765.250    23069766.302
  23069766.635          45.750          43.000
 20  1  1  2  2 30.0000000  0  8G27G21G24G10G20G08G32G15
 116846276.293 7  91049043.034 8  22235105.779    22235105.663    22235109.554
  22235109.605          47.750          49.500
 111442626.611 8  86838413.24847  21206825.254    21206824.472
  21206826.007          50.500          45.5004
 118378346.607 7  92242865.879 7  22526650.198    22526650.190    22526654.986
  22526654.913          44.750          47.750
 110309709.447 8  85955621.784 9  20991237.680    20991237.762    20991241.144
  20991241.715          52.750          54.500
 105806365.025 8  82446519.19747  20134279.660    20134278.909
  20134280.435          48.750          45.7504
 125497527.596 7  97790289.537 7  23881386.994    23881386.284    23881391.750
  23881391.182          42.750          43.750
 119224187.893 7  92901966.944 7  22687609.016    22687609.253    22687613.966
  22687614.034          45.000          47.500
 121333163.711 7  94545323.632 7  23088931.663    23088932.465    23088932.966
  23088933.408          45.250          42.750
 20  1  1  2  3  0.0000000  0  8G27G21G24G10G20G08G32G15
 116848942.449 8  91051120.560 8  22235613.073    22235612.987    22235616.713
  22235616.982          48.250          49.750
 111480762.506 8  86868129.52547  21214082.100    21214081.553
  21214083.084          50.250          45.5004
 118332307.078 7  92206990.923 7  22517889.360    22517889.323    22517893.638
  22517893.871          45.000          47.750
 110272567.156 8  85926679.736 9  20984169.848    20984169.881    20984173.242
  20984173.733          53.250          54.500
 105815414.792 8  82453570.96947  20136001.837    20136001.060
  20136002.579          48.500          45.5004
 125440993.811 7  97746237.242 7  23870629.086    23870628.046    23870633.163
  23870632.965          43.000          43.750
 119128261.577 7  92827219.176 7  22669355.056    22669355.095    22669359.829
  22669359.905          45.500          47.500
 121434098.829 7  94623974.344 7  23108139.083    23108139.502    23108140.467
  23108140.227          44.500          42.500
 20  1  1  2  3 30.0000000  0  8G27G21G24G10G20G08G32G15
 116852215.173 8  91053670.722 8  22236235.929    22236235.612    22236239.823
  22236239.714          49.250          49.500
 111519281.520 8  86898144.33747  21221412.258    21221411.594
  21221412.871          50.500          45.5004
 118286778.318 7  92171513.984 7  22509225.049    22509225.386    22509229.309
  22509229.795          44.250          47.000
 110235673.251 8  85897931.251 9  20977149.160    20977149.202    20977152.576
  20977153.079          53.250          54.500
 105824774.240 8  82460864.03847  20137782.796    20137782.106
  20137783.579          49.000          45.7504
 125384945.648 7  97702563.349 7  23859962.429    23859962.534    23859967.781
  23859967.709          42.500          43.750
 119032596.264 7  92752674.775 7  22651150.446    22651151.070    22651155.099
  22651155.226          45.250          47.000
 121535246.630 7  94702790.787 7  23127387.035    23127387.289    23127388.593
  23127387.811          45.750          43.500
 20  1  1  2  4  0.0000000  0  8G27G21G24G10G20G08G32G15
 116856093.521 8  91056692.797 8  22236973.902    22236973.685    22236977.627
  22236977.627          49.250          49.750
 111558182.947 8  86928457.12347  21228814.789    21228814.234
  21228815.511          50.500          45.5004
 118241762.675 7  92136436.895 7  22500659.136    22500659.369    22500663.681
  22500663.658          45.000          47.500
 110199027.411 8  85869376.057 9  20970175.848    20970175.827    20970179.357
  20970179.621          53.750          54.750
 105834442.989 8  82468398.11847  20139622.768    20139621.858
  20139623.402          48.500          45.5004
 125329384.506 7  97659268.958 7  23849390.815    23849390.327    23849394.562
  23849394.418          43.500          43.500
 118937193.208 7  92678334.726 7  22632996.203    22632996.761    22633000.340
  22633000.548          46.250          47.000
 121636603.825 7  94781770.418 7  23146675.297    23146674.910    23146675.914
  23146675.683          46.500          42.000
 20  1  1  2  4 30.0000000  0  8G27G21G24G10G20G08G32G15
 116860577.681 8  91060186.942 8  22237827.310    22237827.127    22237831.109
  22237831.115          50.000          49.500
 111597467.403 8  86959068.38447  21236290.468    21236289.926
  21236291.285          50.250          45.5004
 118197262.446 7  92101761.379 8  22492192.009    22492191.133    22492195.948
  22492195.543          46.000          48.000
 110162630.419 8  85841014.767 9  20963249.700    20963249.680    20963253.109
  20963253.446          53.250          54.750
 105844421.720 8  82476173.75347  20141521.546    20141520.930
  20141522.317          48.750          45.5004
 125274312.616 7  97616355.790 7  23838910.412    23838910.245    23838915.292
  23838914.670          43.500          43.500
 118842054.796 7  92604200.891 7  22614891.405    22614891.970    22614895.894
  22614896.431          45.500          46.750
 121738168.862 7  94860911.988 7  23166001.906    23166002.046    23166003.872
  23166003.228          45.500          43.000
 20  1  1  2  5  0.0000000  0  8G27G21G24G10G20G08G32G15
 116865665.942 8  91064151.812 8  22238795.488    22238795.296    22238799.065
  22238799.091          49.000          49.500
 111637133.777 8  86989977.24147  21243838.534    21243838.093
  21243839.544          50.000          45.2504
 118153278.922 7  92067488.513 8  22483820.782    22483821.220    22483826.344
  22483825.623          44.000          48.500
 110126481.249 8  85812846.586 9  20956370.815    20956370.730    20956374.128
  20956374.606          53.250          54.750
 105854709.058 8  82484189.85847  20143479.286    20143478.480
  20143479.999          48.250          45.7504
 125219730.524 7  97573824.295 7  23828524.472    23828523.758    23828528.967
  23828527.745          43.750          43.500
 118747181.623 7  92530273.741 7  22596838.252    22596838.683    22596842.708
  22596841.975          45.750          47.000
 121839937.373 7  94940212.119 7  23185367.580    23185367.857    23185368.871
  23185368.846          44.750          42.000
 20  1  1  2  5 30.0000000  0  8G27G21G24G10G20G08G32G15
 116871358.657 8  91068587.683 8  22239878.938    22239878.681    22239883.017
  22239882.768          48.750          49.500
 111677182.416 8  87021183.96347  21251459.753    21251459.025
  21251460.616          50.750          45.5004
 118109815.395 7  92033620.850 7  22475550.323    22475550.721    22475554.654
  22475555.004          45.250          47.750
 110090580.812 8  85784872.221 9  20949538.924    20949539.118    20949542.326
  20949542.925          53.500          54.750
 105865305.767 8  82492447.03247  20145495.553    20145494.940
  20145496.471          48.750          45.5004
 125165640.952 7  97531676.601 7  23818231.172    23818230.743    23818236.009
  23818235.944          42.750          43.500
 118652576.193 7  92456555.222 7  22578835.447    22578835.479    22578840.002
  22578839.929          45.750          47.500
 121941907.890 7  95019669.623 7  23204772.418    23204772.040    23204773.246
  23204773.501          45.500          43.250
 20  1  1  2  6  0.0000000  0  8G27G21G24G10G20G08G32G15
 116877655.448 8  91073494.267 8  22241076.927    22241077.019    22241080.899
  22241080.922          48.750          49.500
 111717613.670 8  87052688.82947  21259153.609    21259152.878
  21259154.275          50.500          45.2504
 118066873.835 7  92000159.915 7  22467379.403    22467378.920    22467383.185
  22467383.792          45.500          47.750
 110054929.503 8  85757091.991 9  20942754.803    20942754.825    20942758.158
  20942758.780          53.500          54.500
 105876212.067 8  82500945.44547  20147571.191    20147570.395
  20147571.883          49.000          45.5004
 125112045.460 7  97489913.878 7  23808032.771    23808031.568    23808036.718
  23808036.462          42.500          44.000
 118558240.424 7  92383046.858 7  22560883.449    22560883.624    22560888.373
  22560888.377          45.750          47.750
 122044077.905 7  95099282.613 7  23224214.836    23224214.494    23224215.692
  23224215.122          45.250          42.250
 20  1  1  2  6 30.0000000  0  8G27G21G24G10G20G08G32G15
 116884555.737 8  91078871.104 8  22242390.622    22242390.031    22242394.186
  22242393.991          49.250          49.500
 111758427.366 8  87084491.70347  21266920.019    21266919.478
  21266920.852          50.000          45.0004
 118024456.430 7  91967107.415 8  22459308.424    22459307.416    22459312.584
  22459311.888          46.250          48.500
 110019527.423 8  85729505.965 9  20936018.040    20936018.077    20936021.295
  20936021.885          53.250          54.750
 105887427.436 8  82509684.69447  20149705.455    20149704.608
  20149706.003          49.000          45.7504
 125058945.848 7  97448537.556 7  23797927.805    23797926.904    23797931.844
  23797932.132          42.250          43.500
 118464176.013 7  92309749.951 7  22542983.878    22542984.226    22542988.105
  22542988.404          45.500          47.500
 122146444.661 7  95179048.911 7  23243694.253    23243694.585    23243695.624
  23243695.784          45.250          42.500
 20  1  1  2  7  0.0000000  0  8G27G21G24G10G20G08G32G15
 116892059.348 8  91084718.064 8  22243817.953    22243817.955    22243822.343
  22243821.901          49.000          49.500
 111799623.685 8  87116592.72147  21274759.686    21274758.826
  21274760.314          50.500          45.0004
 117982565.859 7  91934465.394 8  22451336.245    22451335.623    22451340.130
  22451340.337          46.500          48.000
 109984375.147 8  85702114.585 9  20929328.793    20929328.883    20929332.147
  20929332.664          53.000          55.000
 105898952.232 8  82518665.05447  20151898.357    20151897.748
  20151899.213          49.250          45.7504
 125006344.138 7  97407549.218 7  23787917.573    23787917.634    23787922.165
  23787921.472          42.750          43.000
 118370385.111 7  92236666.129 7  22525136.054    22525136.262    22525140.460
  22525140.402          45.000          47.250
 122249006.021 7  95258966.834 6  23263211.271    23263211.803    23263211.889
  23263212.468          45.250          41.750
 20  1  1  2  7 30.0000000  0  8G27G21G24G10G20G08G32G15
 116900164.729 8  91091033.934 8  22245360.916    22245360.391    22245364.039
  22245364.382          49.000          49.250
 111841201.540 8  87148991.05147  21282671.404    21282670.929
  21282672.299          50.250          45.2504
 117941203.094 7  91902234.672 7  22443465.002    22443464.842    22443468.884
  22443469.166          46.250          47.250
 109949471.891 8  85674917.253 9  20922686.794    20922686.912    20922690.175
  20922690.770          53.250          54.500
 105910785.635 8  82527885.88647  20154150.253    20154149.476
  20154150.893          49.000          45.7504
 124954241.237 7  97366949.562 7  23778003.011    23778002.461    23778007.166
  23778007.288          43.250          42.500
 118276868.433 7  92163796.004 7  22507340.490    22507340.808    22507345.258
  22507345.156          46.000          47.750
 122351758.769 7  95339033.890 7  23282764.219    23282764.488    23282765.400
  23282765.590          44.750          42.000
 20  1  1  2  8  0.0000000  0  8G27G21G24G10G20G08G32G15
 116908871.410 8  91097818.350 8  22247017.561    22247017.178    22247021.170
  22247021.025          49.250          49.750
 111883161.062 8  87181686.77947  21290655.927    21290655.408
  21290657.046          49.500          45.0004
 117900370.559 7  91870417.122 7  22435694.043    22435694.497    22435698.253
  22435698.443          45.000          47.000
 109914818.014 8  85647914.241 9  20916092.372    20916092.462    20916095.871
  20916096.344          53.250          55.000
 105922927.731 8  82537347.25447  20156461.176    20156460.102
  20156461.552          48.500          45.5004
 124902638.614 7  97326739.733 7  23768183.909    23768183.014    23768188.162
  23768188.040          43.000          44.000
 118183627.897 7  92091141.045 7  22489597.255    22489597.638    22489601.720
  22489601.977          46.500          47.500
 122454700.405 7  95419248.121 7  23302353.122    23302354.101    23302354.424
  23302354.279          43.500          42.000
 20  1  1  2  8 30.0000000  0  8G27G21G24G10G20G08G32G15
 116918179.284 8  91105071.233 8  22248788.761    22248788.507    22248792.369
  22248792.229          49.250          49.250
 111925502.635 8  87214680.20047  21298713.632    21298712.747
  21298714.507          49.500          45.2504
 117860070.833 7  91839014.728 7  22428025.372    22428025.137    22428030.210
  22428029.745          45.500          47.750
 109880414.150 8  85621106.038 9  20909545.447    20909545.708    20909548.932
  20909549.470          53.250          54.750
 105935378.849 8  82547049.41947  20158830.106    20158829.534
  20158831.033          48.500          45.7504
 124851538.897 7  97286921.776 7  23758459.238    23758459.411    23758463.696
  23758464.004          43.000          43.750
 118090665.688 7  92018702.976 7  22471907.390    22471907.081    22471911.327
  22471911.296          46.500          47.250
 122557828.785 7  95499607.881 7  23321978.286    23321978.520    23321979.322
  23321978.905          44.250          42.500
 20  1  1  2  9  0.0000000  0  8G27G21G24G10G20G08G32G15
 116928087.959 8  91112792.261 8  22250674.259    22250674.125    22250678.077
  22250678.067          49.250          49.500
 111968226.405 8  87247971.44347  21306843.504    21306842.899
  21306844.315          50.000          44.7504
 117820306.429 7  91808029.485 7  22420458.650    22420458.540    22420462.720
  22420462.814          45.750          47.000
 109846260.849 8  85594493.079 9  20903046.430    20903046.380    20903049.814
  20903050.266          53.250          54.750
 105948139.358 8  82556992.67547  20161258.361    20161257.779
  20161259.220          48.750          45.5004
 124800943.863 7  97247497.069 7  23748831.606    23748831.155    23748836.394
  23748836.043          43.250          43.750
 117997983.889 7  91946483.412 7  22454270.288    22454270.599    22454274.561
  22454275.172          45.750          47.750
 122661141.924 7  95580111.603 7  23341637.872    23341638.473    23341638.820
  23341639.099          44.000          42.250
 20  1  1  2  9 30.0000000  0  8G27G21G24G10G20G08G32G15
 116938596.420 8  91120980.669 8  22252673.977    22252673.913    22252677.739
  22252677.857          49.000          49.500
 112011331.929 8  87281560.16047  21315046.187    21315045.590
  21315046.920          49.750          44.5004
 117781079.482 7  91777463.054 7  22412994.477    22412993.856    22412998.004
  22412998.180          46.000          47.500
 109812357.957 8  85568075.240 9  20896594.823    20896594.999    20896598.357
  20896598.774          53.000          54.750
 105961208.550 8  82567176.46447  20163745.409    20163744.833
  20163746.170          49.000          45.5004
 124750854.579 7  97208466.471 7  23739299.684    23739299.660    23739304.182
  23739303.912          43.250          43.750
 117905583.831 7  91874483.392 8  22436686.815    22436687.310    22436691.881
  22436691.877          45.500          48.250
 122764636.899 7  95660757.025 6  23361332.149    23361332.424    23361333.544
  23361333.249          44.000          41.750
 20  1  1  2 10  0.0000000  0  8G27G21G24G10G20G08G32G15
 116949703.241 8  91129635.317 8  22254787.733    22254787.291    22254791.231
  22254791.474          49.000          49.750
 112054818.195 8  87315445.54747  21323321.425    21323320.804
  21323322.282          49.500          44.7504
 117742390.025 7  91747315.438 7  22405631.351    22405632.069    22405636.066
  22405636.152          45.250          47.000
 109778704.928 8  85541852.103 9  20890190.863    20890191.090    20890194.440
  20890194.907          53.250          54.750
 105974585.872 8  82577600.34547  20166290.881    20166290.306
  20166291.814          48.500          45.7504
 124701272.086 7  97169830.758 7  23729864.775    23729864.114    23729869.321
  23729868.265          43.000          44.000
 117813466.500 7  91802703.680 7  22419157.892    22419158.053    22419162.389
  22419161.983          46.250          47.750
 122868310.240 7  95741541.417 6  23381060.949    23381061.060    23381063.051
  23381061.877          43.750          41.750
 20  1  1  2 10 30.0000000  0  8G27G21G24G10G20G08G32G15
 116961408.896 8  91138756.593 8  22257015.107    22257014.669    22257019.386
  22257019.157          48.000          50.000
 112098686.362 8  87349628.52747  21331669.281    21331668.785
  21331670.003          49.500          44.5004
 117704241.788 7  91717589.506 7  22398372.397    22398372.799    22398376.627
  22398376.156          45.000          47.000
 109745303.224 8  85515824.809 9  20883834.879    20883834.934    20883838.290
  20883838.826          53.000          55.000
 105988272.535 8  82588265.27647  20168895.658    20168894.784
  20168896.254          48.250          45.5004
 124652198.935 7  97131591.946 7  23720526.100    23720525.823    23720530.651
  23720530.859          42.250          43.750
 117721634.801 7  91731146.530 8  22401682.953    22401683.221    22401687.451
  22401687.366          46.750          48.250
 122972161.226 7  95822464.239 6  23400823.206    23400822.925    23400824.108
  23400823.582          43.250          41.000
 20  1  1  2 11  0.0000000  0  8G27G21G24G10G20G08G32G15
 116973711.735 7  91148343.199 8  22259355.950    22259356.067    22259359.631
  22259359.925          46.750          49.500
 112142935.268 8  87384108.18647  21340089.670    21340088.930
  21340090.395          49.250          44.7504
 117666636.536 7  91688286.733 7  22391216.023    22391216.747    22391220.308
  22391220.293          45.250          47.250
 109712152.068 8  85489992.737 9  20877526.413    20877526.459    20877529.880
  20877530.340          53.000          55.000
 106002267.305 7  82599170.28947  20171558.682    20171557.948
  20171559.422          47.750          45.7504
 124603635.723 7  97093750.457 7  23711284.724    23711283.776    23711289.705
  23711289.261          42.500          43.750
 117630089.485 7  91659812.539 8  22384262.010    22384262.753    22384266.269
  22384266.813          46.000          48.000
 123076186.050 7  95903522.532 6  23420618.241    23420619.114    23420618.955
  23420619.133          43.250          41.250
 20  1  1  2 11 30.0000000  0  8G27G21G24G10G20G08G32G15
 116986612.023 8  91158395.365 8  22261811.004    22261810.688    22261814.658
  22261814.827          48.000          49.500
 112187565.736 8  87418885.16347  21348582.645    21348581.928
  21348583.287          49.500          44.7504
 117629576.831 7  91659409.022 7  22384163.937    22384163.879    22384167.382
  22384168.616          46.750          46.250
 109679252.832 8  85464356.976 9  20871265.738    20871265.931    20871269.165
  20871269.693          53.000          54.750
 106016571.520 8  82610316.43447  20174280.454    20174279.920
  20174281.411          48.750          45.5004
 124555585.489 7  97056308.720 7  23702141.669    23702141.146    23702146.141
  23702145.613          42.750          43.500
 117538833.387 7  91588703.917 7  22366897.101    22366897.171    22366901.394
  22366901.339          46.750          47.750
 123180383.288 7  95984715.161 6  23440446.883    23440446.967    23440447.736
  23440447.743          43.500          41.250
 20  1  1  2 12  0.0000000  0  8G27G21G24G10G20G08G32G15
 117000106.955 8  91168910.886 8  22264378.925    22264378.882    22264382.926
  22264382.813          48.500          49.500
 112232575.614 8  87453957.78247  21357147.506    21357146.896
  21357148.322          49.750          44.7504
 117593062.665 7  91630956.428 7  22377215.845    22377215.460    22377219.995
  22377220.088          47.000          47.250
 109646603.654 8  85438916.061 9  20865053.065    20865052.952    20865056.400
  20865056.673          52.750          55.000
 106031182.913 8  82621701.93447  20177061.001    20177060.404
  20177061.948          48.500          45.5004
 124508047.353 7  97019266.035 7  23693094.841    23693094.909    23693099.381
  23693099.172          42.500          43.750
 117447866.108 7  91517820.334 8  22349586.176    22349586.712    22349590.743
  22349590.905          45.750          48.000
 123284748.655 7  96066038.804 6  23460307.136    23460306.880    23460308.216
  23460308.029          43.750          41.500
 20  1  1  2 12 30.0000000  0  8G27G21G24G10G20G08G32G15
 117014197.631 7  91179890.630 8  22267060.456    22267060.292    22267064.378
  22267064.170          47.750          49.500
 112277966.608 8  87489327.38047  21365785.246    21365784.693
  21365786.087          49.500          44.7504
 117557097.799 7  91602931.865 7  22370371.539    22370371.562    22370375.979
  22370375.987          46.750          47.750
 109614206.685 8  85413671.671 9  20858888.049    20858888.120    20858891.196
  20858891.739          52.750          54.750
 106046103.477 8  82633328.34647  20179900.247    20179899.709
  20179901.266          49.000          45.5004
 124461025.029 7  96982625.259 7  23684147.482    23684147.089    23684151.439
  23684151.142          42.500          43.750
 117357191.271 7  91447164.649 8  22332331.247    22332331.752    22332335.711
  22332335.965          46.500          48.250
 123389281.442 7  96147492.903 6  23480198.852    23480198.359    23480199.344
  23480200.162          43.000          41.750
 20  1  1  2 13  0.0000000  0  8G27G21G24G10G20G08G32G15
 117028882.042 7  91191333.007 8  22269854.786    22269854.378    22269858.430
  22269858.664          47.750          49.500
 112323737.047 8  87524992.64947  21374495.346    21374494.619
  21374495.972          49.750          44.7504
 117521683.197 7  91575336.064 7  22363632.172    22363632.569    22363636.879
  22363636.832          47.750          47.750
 109582060.985 8  85388623.077 9  20852770.719    20852770.908    20852774.342
  20852774.627          53.000          55.000
 106061331.698 8  82645194.49347  20182798.186    20182797.521
  20182798.998          49.000          45.5004
 124414518.767 7  96946386.614 7  23675297.325    23675296.904    23675301.954
  23675301.509          42.500          44.500
 117266809.387 7  91376737.230 8  22315132.311    22315132.477    22315136.580
  22315136.801          46.000          48.000
 123493978.298 7  96229074.848 6  23500121.786    23500122.224    23500123.041
  23500122.272          43.500          41.500
 20  1  1  2 13 30.0000000  0  8G27G21G24G10G20G08G32G15
 117044160.235 7  91203238.082 8  22272762.097    22272761.909    22272765.445
  22272765.588          47.500          49.000
 112369888.125 8  87560954.52047  21383277.293    21383276.642
  21383278.160          49.750          44.7504
 117486821.519 7  91548171.112 7  22356998.453    22356998.305    22357002.667
  22357002.954          47.250          47.250
 109550167.750 8  85363771.211 9  20846701.750    20846701.918    20846705.150
  20846705.527          53.000          54.750
 106076868.613 8  82657301.18247  20185754.345    20185754.068
  20185755.596          48.000          45.5004
 124368530.725 7  96910551.786 7  23666546.149    23666545.653    23666550.378
  23666550.601          42.500          43.750
 117176723.024 7  91306540.080 8  22297989.237    22297989.477    22297994.131
  22297993.864          46.750          48.250
 123598837.593 7  96310783.382 6  23520076.108    23520076.180    23520076.917
  23520076.604          44.000          40.750
 20  1  1  2 14  0.0000000  0  8G27G21G24G10G20G08G32G15
 117060030.409 7  91215604.449 8  22275782.109    22275781.872    22275786.041
  22275785.911          47.500          49.500
 112416418.461 8  87597211.90747  21392131.946    21392131.254
  21392132.538          49.750          44.5004
 117452513.859 7  91521437.873 7  22350470.023    22350469.811    22350473.797
  22350474.150          45.750          46.750
 109518526.250 8  85339115.500 9  20840680.667    20840680.709    20840684.164
  20840684.503          52.750          55.000
 106092712.827 8  82669647.32047  20188769.753    20188769.045
  20188770.550          48.250          45.5004
 124323062.047 7  96875121.644 7  23657893.100    23657892.865    23657898.445
  23657898.251          42.750          43.750
 117086932.994 7  91236573.837 8  22280903.063    22280903.426    22280907.178
  22280907.401          46.750          48.250
 123703856.020 7  96392615.901 6  23540060.168    23540060.329    23540061.874
  23540061.551          43.250          41.500
 20  1  1  2 14 30.0000000  0  8G27G21G24G10G20G08G32G15
 117076492.372 7  91228431.931 8  22278914.828    22278914.581    22278918.522
  22278918.487          47.750          49.250
 112463328.563 8  87633765.22447  21401058.668    21401057.829
  21401059.366          49.500          44.7504
 117418762.890 7  91495138.414 7  22344046.931    22344047.283    22344051.735
  22344051.598          46.750          47.750
 109487137.447 8  85314656.699 9  20834707.437    20834707.556    20834710.797
  20834711.255          52.500          54.750
 106108866.023 8  82682234.22247  20191843.592    20191842.918
  20191844.427          48.500          45.5004
 124278114.418 7  96840097.524 7  23649339.863    23649340.264    23649344.407
  23649344.759          42.500          44.000
 116997441.618 7  91166840.317 8  22263873.498    22263873.830    22263877.575
  22263877.858          47.250          48.500
 123809031.823 7  96474571.060 6  23560074.291    23560074.272    23560076.015
  23560075.086          43.500          41.500
 20  1  1  2 15  0.0000000  0  8G27G21G24G10G20G08G32G15
 117093544.942 7  91241719.643 8  22282159.895    22282159.775    22282163.614
  22282163.517          47.750          49.500
 112510617.754 8  87670613.93647  21410057.311    21410056.773
  21410058.373          49.250          44.7504
 117385569.586 7  91469273.495 7  22337730.838    22337730.426    22337735.136
  22337735.128          46.500          46.750
 109456001.350 8  85290394.806 9  20828782.289    20828782.511    20828785.992
  20828786.284          52.750          55.000
 106125327.461 8  82695061.31047  20194976.260    20194975.410
  20194977.040          49.000          45.2504
 124233689.175 7  96805480.453 7  23640886.533    23640886.325    23640890.516
  23640890.993          42.750          43.750
 116908250.329 7  91097340.617 8  22246900.939    22246900.968    22246905.270
  22246905.228          46.750          48.250
 123914362.448 7  96556646.830 7  23580118.636    23580118.345    23580119.541
  23580119.164          43.250          42.000
 20  1  1  2 15 30.0000000  0  8G27G21G24G10G20G08G32G15
 117111187.199 8  91255466.840 8  22285516.832    22285516.240    22285520.902
  22285520.799          48.000          49.250
 112558285.942 8  87707757.96947  21419128.355    21419127.824
  21419129.171          49.500          44.7504
 117352936.509 7  91443845.127 7  22331520.794    22331521.115    22331524.856
  22331525.232          46.250          47.500
 109425118.319 8  85266330.109 9  20822905.756    20822905.766    20822908.988
  20822909.402          53.000          54.750
 106142096.976 8  82708128.46547  20198166.980    20198166.423
  20198168.167          48.000          45.5004
 124189787.979 7  96771271.715 7  23632532.450    23632532.254    23632536.823
  23632536.729          42.750          44.250
 116819360.833 7  91028076.096 8  22229985.679    22229986.373    22229990.028
  22229990.041          47.250          48.500
 124019845.498 7  96638841.411 6  23600190.700    23600191.223    23600193.449
  23600191.956          42.750          41.250
 20  1  1  2 16  0.0000000  0  8G27G21G24G10G20G08G32G15
 117129417.240 8  91269672.052 8  22288985.811    22288985.535    22288989.797
  22288989.915          48.000          49.250
 112606331.924 8  87745196.39347  21428271.299    21428270.721
  21428272.092          50.250          44.5004
 117320864.459 7  91418853.900 7  22325417.791    22325417.671    22325421.778
  22325422.105          46.750          47.250
 109394487.542 8  85242461.969 9  20817076.671    20817076.874    20817080.161
  20817080.592          53.000          55.000
 106159173.729 8  82721435.02647  20201416.880    20201416.214
  20201417.669          49.000          45.7504
 124146411.144 7  96737471.594 7  23624278.447    23624277.480    23624282.858
  23624281.842          42.750          44.000
 116730773.806 7  90959047.257 8  22213128.561    22213128.599    22213132.610
  22213132.488          47.500          48.750
 124125477.617 7  96721152.115 7  23620292.305    23620292.085    23620293.679
  23620293.673          43.500          42.000
