     2.11           OBSERVATION DATA    M (MIXED)           RINEX VERSION / TYPE
teqc  2008Oct2                          20220524 02:03:20UTCPGM / RUN BY / DATE
MSXP|IAx86-PII|bcc32 5.0|MSWin95->XP|486/DX+                COMMENT
BIT 2 OF LLI FLAGS DATA COLLECTED UNDER A/S CONDITION       COMMENT
-Unknown-                                                   MARKER NAME
-Unknown-           -Unknown-                               OBSERVER / AGENCY
235-1829            TPS E_GGD           2.3 Aug,01,2003 p2  REC # / TYPE / VERS
-Unknown-           -Unknown-                               ANT # / TYPE
  1240235.3704  4530663.6540  4302600.6161                  APPROX POSITION XYZ
        0.0000        0.0000        0.0000                  ANTENNA: DELTA H/E/N
     1     1                                                WAVELENGTH FACT L1/2
     7    L1    L2    C1    P1    P2    S1    S2            # / TYPES OF OBSERV
 SNR is mapped to RINEX snr flag value [0-9]                COMMENT
  L1 & L2: min(max(int(snr_dBHz/6), 0), 9)                  COMMENT
pseudorange smoothing corrections not applied               COMMENT
rx board ID = AGUS451XLHC                                   COMMENT
  2020     5     3     0     0    0.0000000     GPS         TIME OF FIRST OBS
    14                                                      LEAP SECONDS
                                                            END OF HEADER
 20  5  3  0  0  0.0000000  0 10G16R 1R 8G26G14G 3G 9G22G 4G31
 110904754.92947  86419289.95846  21104468.851    21104468.334    21104471.775
        47.000          36.000
 102328939.892 8  79589168.282 7  19142737.266    19142747.763    19142754.757
        50.000          42.000
 115359569.861 6  89724110.241 6  21587965.993    21587967.993    21587971.032
        41.000          41.000
 109128983.17748  85035566.62348  20766547.628    20766547.558    20766554.013
        48.000          49.000
 125260022.24445  97605222.93742  23836188.063    23836184.088    23836191.084
        33.000          12.000
 108939049.24048  84887582.75148  20730409.077    20730409.561    20730415.197
        49.000          51.000
 123937773.71746  96574894.67845  23584570.670    23584570.826    23584576.651
        39.000          34.000
 115690535.83247  90148479.56845  22015170.883    22015169.537    22015171.598
        46.000          35.000
 110413630.33147  86036597.41846  21011007.904    21011008.201    21011012.142
        46.000          37.000
 118897914.94147  92647728.33546  22625517.427    22625517.469    22625519.473
        44.000          39.000
 20  5  3  0  0 30.0000000  0 10G16R 1R 8G26G14G 3G 9G22G 4G31
 110907340.51747  86421304.70246  21104960.751    21104960.529    21104963.828
        46.000          36.000
 102431128.814 8  79668648.572    19161853.368    19161864.236    19161874.280
        50.000           2.000
 115781982.081 7  90052652.955    21621465.159    21621466.393    21621468.773
        42.000           1.000
 109212318.36248  85100503.13148  20782405.770    20782405.793    20782411.989
        48.000          49.000
 125416506.39245  97727158.61342  23865966.185    23865962.992    23865968.604
        34.000          12.000
 109054696.97348  84977697.85648  20752416.121    20752416.465    20752422.173
        49.000          51.000
 123921721.08046  96562386.13745  23581516.486    23581516.272    23581521.877
        39.000          34.000
 115845474.51447  90269210.99145  22044654.871    22044653.635    22044655.515
        46.000          34.000
 110434175.06847  86052606.30246  21014917.444    21014917.869    21014921.703
        46.000          37.000
 119063828.50247  92777011.60746  22657089.628    22657089.895    22657092.226
        44.000          40.000
 20  5  3  0  1  0.0000000  0 10G16R 1R 8G26G14G 3G 9G22G 4G31
 110910450.79047  86423728.29646  21105552.759    21105552.299    21105555.880
        47.000          36.000
 102533971.235 8                  19181091.734
        49.000
 115961738.045 7                  21655032.680
        42.000
 109296268.97847  85165919.18848  20798381.213    20798381.149    20798387.490
        47.000          49.000
 125573142.62145  97849212.75342  23895772.954    23895774.103    23895775.358
        35.000          14.000
 109170907.65648  85068251.62348  20774530.258    20774530.617    20774536.262
        48.000          51.000
 123905723.50846  96549920.51945  23578471.859    23578471.741    23578477.521
        39.000          34.000
 116000767.43647  90390218.44045  22074205.649    22074205.145    22074206.760
        46.000          34.000
 110454962.33947  86068804.17946  21018873.412    21018873.351    21018877.375
        46.000          37.000
 119229847.90547  92906377.33146  22688682.512    22688682.116    22688684.929
        44.000          40.000
 20  5  3  0  1 30.0000000  0 10G16R 1R 8G26G14G 3G 9G22G 4G31
 110914104.21347  86426575.11646  21106247.988    21106247.583    21106250.840
        46.000          36.000
 102637483.658 8  79829152.789    19200455.532    19200467.067    19200478.774
        49.000           1.000
 116141884.508 6                  21688674.239
        41.000
 109380850.31848  85231826.72148  20814476.390    20814476.440    20814482.872
        48.000          50.000
 125729946.48145  97971397.54242  23925610.226    23925612.154    23925614.559
        35.000          13.000
 109287695.85348  85159255.40248  20796754.227    20796754.691    20796760.334
        48.000          51.000
 123889797.85346  96537510.92345  23575441.284    23575441.203    23575446.565
        39.000          34.000
 116156428.09847  90511512.44045  22103827.242    22103826.220    22103827.945
        46.000          35.000
 110476009.27347  86085204.38446  21022878.475    21022878.386    21022882.599
        46.000          37.000
 119395987.36247  93035836.62146  22720297.711    22720297.541    22720299.931
        43.000          40.000
 20  5  3  0  2  0.0000000  0 10G16R 1R 8G26G14G 3G 9G22G 4G31
 110918307.13147  86429850.12046  21107047.771    21107047.344    21107050.657
        46.000          36.000
 102741669.457 8                  19219946.242
        49.000
 116322423.133 6  90473003.966 6  21722388.617    21722387.933    21722397.747
        41.000          38.000
 109466065.24648  85298227.95748  20830692.350    20830692.158    20830698.637
        48.000          49.000
 125886921.09646  98093715.35342  23955483.051    23955484.224    23955485.606
        36.000          13.000
 109405063.75648  85250710.89648  20819088.896    20819089.166    20819094.744
        49.000          51.000
 123873948.71946  96525160.96945  23572424.517    23572424.720    23572430.783
        38.000          34.000
 116312457.49047  90633093.75845  22133518.830    22133517.678    22133519.461
        47.000          34.000
 110497320.57347  86101810.59846  21026933.621    21026933.924    21026937.802
        47.000          37.000
 119562248.73647  93165390.91046  22751935.856    22751936.042    22751938.480
        43.000          39.000
 20  5  3  0  2 30.0000000  0 10G16R 1R 8G26G14G 3G 9G22G 4G31
 110923047.14847  86433543.64246  21107949.825    21107949.197    21107952.770
        46.000          36.000
 102846514.342 8                  19239559.311
        49.000
 116503337.142 7  90613714.824 6  21756173.474    21756174.995    21756176.973
        42.000          41.000
 109551898.69547  85365111.15848  20847025.773    20847025.469    20847032.406
        47.000          49.000
 126044051.38246  98216154.52142  23985383.647    23985382.544    23985389.566
        36.000          13.000
 109522995.54048  85342605.78448  20841530.553    20841530.852    20841536.518
        48.000          50.000
 123858162.73146  96512860.21945  23569421.456    23569421.018    23569426.588
        39.000          34.000
 116468838.98247  90754949.45245  22163276.920    22163275.917    22163277.744
        46.000          34.000
 110518883.09047  86118612.55446  21031037.012    21031037.271    21031041.100
        46.000          38.000
 119728615.82347  93295027.57546  22783594.258    22783594.469    22783597.328
        43.000          39.000
 20  5  3  0  3  0.0000000  0 10G16R 1R 8G26G14G 3G 9G22G 4G31
 110928321.85747  86437653.79346  21108953.375    21108952.978    21108956.463
        46.000          36.000
 102952013.368 8  80073783.879 7  19259294.721    19259306.352    19259313.619
        49.000          42.000
 116684619.365 6  90754712.067 6  21790026.810    21790027.155    21790030.397
        41.000          41.000
 109638345.07947  85432471.97648  20863475.946    20863475.872    20863482.577
        47.000          49.000
 126201331.80446  98338710.60042  24015312.906    24015312.601    24015315.701
        36.000          13.000
 109641484.97248  85434935.19848  20864078.301    20864078.587    20864084.282
        48.000          50.000
 123842436.07446  96500605.69145  23566428.687    23566428.521    23566434.336
        38.000          35.000
 116625565.62347  90877074.08745  22193100.788    22193099.968    22193102.104
        46.000          34.000
 110540693.10947  86135607.37946  21035187.490    21035187.594    21035191.217
        46.000          37.000
 119895082.00747  93424741.44446  22815271.934    22815272.144    22815274.873
        43.000          40.000
 20  5  3  0  3 30.0000000  0 10G16R 1R 8G26G14G 3G 9G22G 4G31
 110934142.51247  86442189.37246  21110061.155    21110060.565    21110064.235
        47.000          36.000
 103058175.518 8  80156354.429 7  19279155.301    19279166.439    19279173.434
        50.000          42.000
 116866276.380 6  90896000.827 6  21823950.215    21823950.504    21823953.988
        41.000          41.000
 109725412.49348  85500316.69948  20880044.307    20880044.212    20880050.956
        48.000          49.000
 126358770.91546  98461390.36042  24045272.565    24045273.373    24045277.255
        36.000          14.000
 109760539.41448  85527704.88148  20886733.541    20886733.953    20886739.524
        49.000          51.000
 123826778.57346  96488405.04745  23563449.181    23563448.915    23563454.905
        39.000          35.000
 116782643.48547  90999472.39445  22222991.701    22222990.812    22222992.965
        45.000          34.000
 110562760.69147  86152802.90246  21039386.902    21039386.958    21039390.806
        47.000          37.000
 120061654.47347  93554538.13846  22846969.772    22846969.791    22846972.696
        43.000          40.000
 20  5  3  0  4  0.0000000  0 10G16R 1R 8G26G14G 3G 9G22G 4G31
 110940524.94147  86447162.68946  21111275.692    21111275.337    21111278.784
        46.000          37.000
 103165014.749 8  80239451.590 7  19299141.687    19299152.819    19299159.977
        49.000          42.000
 117048319.996 6  91037590.262 6  21857944.003    21857946.137    21857948.667
        41.000          41.000
 109813113.48647  85568655.12748  20896733.436    20896733.109    20896739.803
        47.000          49.000
 126516381.66146  98584203.83242  24075264.890    24075264.125    24075268.789
        37.000          14.000
 109880170.72648  85620924.07348  20909498.602    20909499.070    20909504.595
        49.000          51.000
 123811204.59946  96476269.50545  23560484.898    23560485.149    23560491.507
        38.000          35.000
 116940083.40347  91122152.83245  22252951.808    22252950.956    22252952.774
        45.000          34.000
 110585100.37647  86170210.45546  21043637.870    21043637.808    21043641.844
        46.000          37.000
 120228344.78347  93684426.66446  22878689.712    22878689.848    22878692.622
        42.000          39.000
 20  5  3  0  4 30.0000000  0 10G16R 1R 8G26G14G 3G 9G22G 4G31
 110947470.44047  86452574.76846  21112597.514    21112596.635    21112600.318
        47.000          36.000
 103272529.463 8  80323074.137 7  19319254.986    19319265.685    19319272.973
        49.000          42.000
 117230746.660 6  91179477.633 6  21892012.039    21892013.217    21892015.678
        41.000          41.000
 109901446.05447  85637485.69248  20913542.258    20913542.325    20913548.966
        47.000          49.000
 126674162.04046  98707149.53542  24105289.192    24105289.321    24105292.524
        37.000          14.000
 110000376.19548  85714590.66048  20932372.949    20932373.405    20932378.949
        48.000          50.000
 123795714.05346  96464198.96745  23557536.980    23557537.409    23557543.576
        39.000          35.000
 117097881.81547  91245112.62245  22282979.886    22282978.813    22282981.027
        47.000          34.000
 110607712.16347  86187830.02946  21047940.518    21047940.540    21047944.626
        46.000          37.000
 120395149.71647  93814404.50346  22910431.726    22910431.641    22910434.575
        42.000          39.000
 20  5  3  0  5  0.0000000  0 10G16R 1R 8G26G14G 3G 9G22G 4G31
 110954973.57147  86458421.35346  21114025.251    21114024.776    21114028.086
        47.000          36.000
 103380712.245 8  80407216.281 7  19339492.507    19339503.578    19339511.041
        50.000          42.000
 117413546.490 7  91321655.231 6  21926147.930    21926150.157    21926152.199
        42.000          41.000
 109990401.81748  85706801.86348  20930470.178    20930470.102    20930476.489
        48.000          49.000
 126832103.97246  98830221.12842  24135344.941    24135344.184    24135349.089
        36.000          14.000
 110121146.81348  85808697.61848  20955354.812    20955355.252    20955360.928
        48.000          51.000
 123780300.40746  96452188.35245  23554604.709    23554604.115    23554610.289
        39.000          35.000
 117256028.72247  91368343.95245  22313074.276    22313073.578    22313075.343
        45.000          33.000
 110630589.75547  86205656.73146  21052293.934    21052293.915    21052298.015
        46.000          37.000
 120562060.51447  93944464.82946  22942193.566    22942193.508    22942196.864
        42.000          38.000
 20  5  3  0  5 30.0000000  0 10G16R 1R 8G26G14G 3G 9G22G 4G31
 110963034.68847  86464702.74746  21115559.057    21115558.612    21115562.045
        46.000          37.000
 103489560.940 8  80491876.359 7  19359855.420    19359865.879    19359873.225
        49.000          42.000
 117596715.446 7  91464119.915 6  21960354.230    21960355.710    21960357.565
        42.000          40.000
 110079977.92247  85776601.41148  20947515.715    20947515.871    20947522.492
        47.000          49.000
 126990205.03246  98953416.69942  24165431.537    24165431.438    24165434.922
        36.000          15.000
 110242478.96848  85903242.14048  20978443.825    20978443.949    20978449.751
        48.000          51.000
 123764962.68946  96440236.91246  23551685.456    23551685.202    23551691.492
        39.000          36.000
 117414519.38947  91491843.15845  22343234.107    22343232.983    22343235.025
        45.000          33.000
 110653732.32747  86223689.90446  21056697.898    21056697.735    21056701.979
        46.000          37.000
 120729073.05247  94074604.43246  22973975.691    22973975.577    22973978.319
        42.000          39.000
 20  5  3  0  6  0.0000000  0 10G16R 1R 8G26G14G 3G 9G22G 4G31
 110971656.85247  86471421.31946  21117200.101    21117199.515    21117203.075
        47.000          37.000
 103599075.991 8  80577054.724 7  19380341.714    19380352.808    19380359.980
        49.000          42.000
 117780251.323 7  91606869.991 6  21994628.986    21994629.819    21994631.849
        42.000          40.000
 110170174.08748  85846884.12748  20964679.840    20964679.726    20964686.229
        48.000          49.000
 127148465.25146  99076736.27142  24195546.365    24195545.189    24195551.286
        36.000          15.000
 110364371.74748  85998223.51648  21001638.885    21001639.452    21001645.184
        48.000          50.000
 123749702.61846  96428345.95946  23548782.093    23548781.516    23548787.825
        38.000          36.000
 117573352.30647  91615609.04545  22373458.934    22373457.856    22373460.090
        46.000          34.000
 110677141.64347  86241930.94546  21061152.292    21061152.609    21061156.657
        46.000          37.000
 120896186.20947  94204822.44446  23005776.495    23005776.287    23005778.793
        42.000          39.000
 20  5  3  0  6 30.0000000  0 10G16R 1R 8G26G14G 3G 9G22G 4G31
 110980842.04047  86478578.60646  21118947.883    21118947.318    21118950.417
        47.000          37.000
 103709257.202 8  80662751.210 7  19400953.154    19400964.511    19400971.501
        49.000          42.000
 117964152.382 6  91749904.107 6  22028970.472    22028971.263    22028974.040
        41.000          40.000
 110260989.39947  85917649.29548  20981961.364    20981961.189    20981967.640
        47.000          49.000
 127306883.65646  99200179.17342  24225692.894    24225692.682    24225696.124
        36.000          15.000
 110486823.53948  86093640.47948  21024940.866    21024941.282    21024946.960
        48.000          51.000
 123734521.15046  96416516.26245  23545893.263    23545893.335    23545898.841
        39.000          35.000
 117732524.86647  91739639.59345  22403748.606    22403747.658    22403749.722
        45.000          34.000
 110700818.94547  86260380.79546  21065658.563    21065658.265    21065661.955
        46.000          37.000
 121063398.54347  94335117.73046  23037595.722    23037595.595    23037598.219
        43.000          39.000
 20  5  3  0  7  0.0000000  0 10G16R 1R 8G26G14G 3G 9G22G 4G31
 110990589.87347  86486174.31846  21120802.866    21120802.323    21120805.599
        47.000          37.000
 103820101.446 8  80748963.389 7  19421688.452    19421700.481    19421707.662
        49.000          42.000
 118148413.150 6  91893217.982 6  22063380.131    22063381.315    22063383.389
        41.000          40.000
 110352419.90148  85988893.83548  20999359.946    20999359.694    20999366.274
        48.000          49.000
 127465457.06345  99323742.78042  24255868.393    24255867.282    24255870.209
        35.000          14.000
 110609829.72248  86189489.44348  21048348.194    21048348.594    21048354.273
        49.000          50.000
 123719416.44646  96404746.38246  23543018.253    23543018.936    23543024.283
        40.000          36.000
 117892031.45047  91863930.41545  22434102.149    22434100.669    22434102.798
        46.000          34.000
 110724762.44047  86279038.07046  21070214.438    21070214.613    21070218.558
        47.000          38.000
 121230705.22246  94465486.53546  23069432.991    23069432.811    23069435.701
        41.000          39.000
 20  5  3  0  7 30.0000000  0 10G16R 1R 8G26G14G 3G 9G22G 4G31
 111000902.39547  86494210.04846  21122765.259    21122764.849    21122767.971
        47.000          37.000
 103931608.455 8  80835691.049 7  19442549.431    19442559.874    19442567.097
        49.000          42.000
 118333031.239 7  92036809.778 6  22097856.097    22097857.496    22097859.602
        42.000          39.000
 110444464.56448  86060616.93448  21016875.696    21016875.389    21016881.883
        48.000          49.000
 127624184.77845  99447426.66342  24286072.998    24286071.769    24286079.817
        34.000          14.000
 110733388.57148  86285769.04948  21071860.685    21071861.090    21071866.761
        48.000          50.000
 123704389.41646  96393037.03546  23540159.398    23540159.381    23540164.606
        39.000          36.000
 118051869.38647  91988479.42845  22464517.761    22464516.912    22464519.150
        45.000          33.000
 110748973.22047  86297903.61546  21074821.758    21074821.797    21074825.643
        46.000          38.000
 121398104.39447  94595927.41246  23101288.141    23101287.909    23101290.736
        43.000          39.000
 20  5  3  0  8  0.0000000  0 10G16R 1R 8G26G14G 3G 9G22G 4G31
 111011786.82047  86502691.42046  21124836.581    21124836.178    21124839.244
        47.000          37.000
 104043782.765 8  80922937.724 7  19463532.940    19463544.699    19463551.729
        50.000          42.000
 118518009.294 6  92180681.551 6  22132399.474    22132400.608    22132402.886
        41.000          39.000
 110537127.28348  86132821.63648  21034508.664    21034508.613    21034514.882
        48.000          49.000
 127783070.98445  99571234.08742  24316309.074    24316307.864    24316311.859
        34.000          13.000
 110857503.33848  86382481.84048  21095478.942    21095479.283    21095485.028
        48.000          50.000
 123689446.13046  96381392.93346  23537315.555    23537315.387    23537320.771
        40.000          36.000
 118212041.10247  92113288.53345  22494997.988    22494996.717    22494998.517
        45.000          33.000
 110773457.44547  86316982.23446  21079480.769    21079480.934    21079484.963
        46.000          38.000
 121565599.31347  94726442.90646  23133161.060    23133161.457    23133163.867
        42.000          39.000
 20  5  3  0  8 30.0000000  0 10G16R 1R 8G26G14G 3G 9G22G 4G31
 111023237.08447  86511613.70446  21127015.259    21127015.081    21127018.233
        47.000          37.000
 104156616.085 8  81010696.958 7  19484641.485    19484652.305    19484659.510
        49.000          42.000
 118703336.737 6  92324825.069 6  22167007.904    22167008.311    22167011.548
        40.000          39.000
 110630398.72548  86205500.66848  21052257.590    21052257.601    21052264.164
        49.000          49.000
 127942107.07445  99695158.25342  24346571.899    24346572.738    24346575.239
        33.000          13.000
 110982164.05948  86479620.04848  21119201.063    21119201.473    21119207.252
        48.000          50.000
 123674579.35246  96369808.44446  23534485.896    23534486.017    23534491.688
        39.000          36.000
 118372535.62347  92238349.17945  22525538.568    22525537.612    22525539.390
        46.000          33.000
 110798207.98047  86336268.36546  21084190.890    21084190.809    21084194.749
        46.000          38.000
 121733180.13847  94857025.33146  23165050.863    23165051.011    23165053.468
        42.000          38.000
 20  5  3  0  9  0.0000000  0 10G16R 1R 8G26G14G 3G 9G22G 4G31
 111035251.60747  86520975.67346  21129301.675    21129301.287    21129304.371
        47.000          37.000
 104270104.701 8  81098965.858 7  19505872.133    19505882.802    19505890.012
        49.000          42.000
 118889007.680 6  92469235.782 6  22201681.076    22201682.000    22201684.936
        40.000          40.000
 110724274.44948  86278650.57548  21070121.554    21070121.444    21070128.012
        48.000          49.000
 128101288.81245  99819195.90042  24376863.289    24376863.310    24376865.850
        34.000          14.000
 111107365.54848  86577179.63948  21143026.046    21143026.551    21143032.295
        48.000          50.000
 123659786.66146  96358281.69346  23531671.690    23531670.881    23531676.851
        39.000          36.000
 118533347.18947  92363656.88045  22556140.169    22556139.081    22556140.931
        45.000          33.000
 110823222.61847  86355760.29246  21088951.023    21088950.948    21088954.941
        47.000          38.000
 121900841.65247  94987670.65746  23196955.965    23196955.950    23196958.283
        42.000          38.000
 20  5  3  0  9 30.0000000  0 10G16R 1R 8G26G14G 3G 9G22G 4G31
 111047838.59847  86530783.71746  21131696.762    21131696.215    21131699.965
        47.000          37.000
 104384253.920 8  81187748.569 7  19527225.778    19527236.977    19527244.014
        50.000          42.000
 119075025.860 6  92613916.556 6  22236417.790    22236419.382    22236422.347
        39.000          40.000
 110818759.33248  86352275.15048  21088101.447    21088101.472    21088107.760
        48.000          49.000
 128260621.32545  99943351.07242  24407183.651    24407181.233    24407185.677
        34.000          12.000
 111233112.08048  86675163.93648  21166955.036    21166955.289    21166961.041
        49.000          50.000
 123645075.25946  96346818.27246  23528871.204    23528871.157    23528877.182
        39.000          36.000
 118694478.87547  92489214.00545  22586802.389    22586801.471    22586803.357
        44.000          33.000
 110848508.56647  86375463.62646  21093762.791    21093762.778    21093766.756
        47.000          37.000
 122068588.19347  95118382.21146  23228877.078    23228876.754    23228879.386
        42.000          38.000
 20  5  3  0 10  0.0000000  0 10G16R 1R 8G26G14G 3G 9G22G 4G31
 109485582.22847  85313441.09246  20834409.022    20834408.825    20834412.019
        47.000          37.000
 102896506.466 8  80030611.643 7  19248911.220    19248922.878    19248930.061
        49.000          42.000
 117656021.419 6  91510246.378 6  21971429.765    21971430.730    21971433.762
        40.000          40.000
 109338436.82748  85198777.08448  20806405.491    20806405.429    20806411.868
        48.000          49.000
 126844691.25445  98840028.89342  24137741.147    24137740.737    24137745.187
        34.000          12.000
 109783987.50748  85545975.94548  20891195.733    20891195.965    20891201.805
        48.000          50.000
 122055026.98646  95107819.63446  23226294.874    23226295.152    23226301.402
        39.000          36.000
 117280515.27047  91387424.16445  22317734.099    22317733.195    22317735.077
        45.000          32.000
 109298649.24547  85167781.03546  20798834.068    20798834.224    20798838.218
        47.000          38.000
 120661005.06547  94021564.16646  22961023.270    22961023.084    22961025.387
        43.000          38.000
 20  5  3  0 10 30.0000000  0 10G16R 1R 8G26G14G 3G 9G22G 4G31
 109499327.86847  85324151.98046  20837024.935    20837024.553    20837027.785
        47.000          38.000
 103011983.643 8  80120427.204 7  19270514.053    19270525.417    19270532.518
        50.000          42.000
 117842734.371 6  91655467.521 6  22006294.877    22006297.024    22006300.691
        40.000          40.000
 109434143.85948  85273353.98048  20824617.848    20824617.775    20824624.298
        48.000          49.000
 127004331.29445  98964423.62142  24168118.311    24168118.810    24168122.245
        34.000          12.000
 109910826.02248  85644811.13648  20915332.126    20915332.525    20915338.361
        49.000          50.000
 122040488.42546  95096490.88946  23223528.778    23223528.771    23223534.593
        39.000          36.000
 117442287.64047  91513480.53345  22348518.321    22348517.383    22348519.135
        45.000          32.000
 109324488.54547  85187915.54746  20803751.143    20803751.275    20803755.386
        47.000          38.000
 120828923.90547  94152409.98746  22992976.888    22992976.909    22992979.282
        42.000          38.000
 20  5  3  0 11  0.0000000  0 10G16R 1R 8G26G14G 3G 9G22G 4G31
 109513662.34848  85335321.70546  20839752.810    20839752.432    20839755.587
        48.000          37.000
 103128130.756 8  80210763.829 7  19292241.862    19292253.205    19292260.232
        50.000          42.000
 118029797.258 6  91800960.804 6  22041229.924    22041231.115    22041233.388
        41.000          40.000
 109530466.69448  85348410.72248  20842947.604    20842947.456    20842953.867
        48.000          49.000
 127164130.58145  99088942.46541  24198528.498    24198525.831    24198532.635
        34.000          11.000
 110038214.24248  85744074.66948  20939573.375    20939573.784    20939579.593
        49.000          50.000
 122026044.39546  95085235.80746  23220780.136    23220780.340    23220786.015
        39.000          36.000
 117604382.38347  91639788.10445  22379363.248    22379362.601    22379364.829
        45.000          32.000
 109350612.81947  85208272.11446  20808722.376    20808722.455    20808726.509
        46.000          38.000
 120996932.59747  94283325.82946  23024947.646    23024947.560    23024950.105
        42.000          37.000
 20  5  3  0 11 30.0000000  0 10G16R 1R 8G26G14G 3G 9G22G 4G31
 109528583.47347  85346948.56346  20842592.204    20842591.778    20842595.124
        47.000          38.000
 103244942.806 8  80301617.625 7  19314093.721    19314105.421    19314112.539
        50.000          42.000
 118217203.633 6  91946721.265 6  22076225.869    22076227.939    22076230.101
        41.000          40.000
 109627399.80148  85423943.00148  20861393.373    20861393.123    20861399.713
        48.000          49.000
 127324083.64945  99213581.17941  24228966.803    24228965.244    24228969.687
        34.000           8.000
 110166146.06048  85843761.78448  20963918.159    20963918.492    20963924.228
        49.000          50.000
 122011691.72146  95074051.93146  23218049.008    23218049.309    23218054.970
        40.000          37.000
 117766792.76847  91766341.62845  22410269.668    22410268.379    22410270.560
        45.000          32.000
 109377018.90147  85228848.27746  20813747.122    20813747.439    20813751.461
        46.000          38.000
 121165025.33747  94414307.15346  23056934.656    23056934.813    23056937.347
        42.000          37.000
 20  5  3  0 12  0.0000000  0 10G16R 1R 8G26G14G 3G 9G22G 4G31
 109544088.01947  85359030.03346  20845542.459    20845542.167    20845545.601
        47.000          38.000
 103362414.014 8  80392984.097 7  19336069.768    19336080.697    19336087.881
        49.000          42.000
 118404945.985 6  92092743.062 6  22111286.184    22111286.653    22111289.376
        40.000          40.000
 109724936.81848  85499945.86248  20879953.808    20879953.968    20879960.476
        48.000          49.000
 127484185.35145  99338335.70941  24259432.886    24259434.118    24259433.917
        32.000          10.000
 110294614.41848  85943866.98248  20988364.831    20988365.255    20988370.949
        48.000          50.000
 121997426.29546  95062936.02846  23215334.151    23215334.886    23215340.205
        40.000          37.000
 117929510.82247  91893134.89745  22441233.584    22441232.534    22441235.044
        44.000          32.000
 109403702.82947  85249640.94346  20818825.284    20818825.211    20818829.128
        46.000          38.000
 121333195.55247  94545348.84746  23088936.475    23088936.608    23088939.180
        42.000          38.000
 20  5  3  0 12 30.0000000  0 10G16R 1R 8G26G14G 3G 9G22G 4G31
 109560188.07348  85371575.52846  20848606.538    20848606.070    20848609.420
        48.000          38.000
 103480554.534 8  80484871.148 7  19358169.807    19358181.526    19358188.478
        50.000          42.000
 118593032.088 6  92239032.193 6  22146408.661    22146411.787    22146413.821
        41.000          40.000
 109823086.62548  85576426.22448  20898631.484    20898631.143    20898637.741
        48.000          49.000
 127644445.35245  99463213.58041  24289930.062    24289928.255    24289932.753
        32.000           7.000
 110423627.55648  86044396.68848  21012915.377    21012915.628    21012921.295
        48.000          50.000
 121983259.39946  95051896.90146  23212638.791    23212638.869    23212644.251
        40.000          37.000
 118092544.27247  92020173.92145  22472258.002    22472256.933    22472259.013
        44.000          32.000
 109430675.93347  85270658.93246  20823958.066    20823958.267    20823961.983
        47.000          38.000
 121501451.40247  94676457.25846  23120954.156    23120954.517    23120957.480
        42.000          38.000
 20  5  3  0 13  0.0000000  0 10G16R 1R 8G26G14G 3G 9G22G 4G31
 109576882.35447  85384584.06046  20851783.165    20851782.830    20851786.360
        47.000          38.000
 103599360.382 8  80577275.680 7  19380395.599    19380406.398    19380413.686
        50.000          42.000
 118781456.104 6  92385584.164 6  22181595.752    22181598.213    22181600.340
        40.000          39.000
 109921844.63848  85653380.50748  20917424.295    20917424.244    20917430.966
        48.000          49.000
 127804858.92645  99588211.03541  24320454.693    24320453.848    24320461.996
        31.000           8.000
 110553180.34148  86145346.89648  21037568.407    21037568.661    21037574.370
        48.000          50.000
 121969188.83646  95040932.83746  23209961.333    23209961.613    23209966.710
        41.000          37.000
 118255887.28247  92147454.17045  22503340.604    22503340.322    22503342.001
        45.000          32.000
 109457936.14547  85291900.65446  20829145.409    20829145.843    20829149.468
        47.000          39.000
 121669788.11947  94807628.69346  23152988.182    23152987.963    23152990.674
        42.000          37.000
 20  5  3  0 13 30.0000000  0 10G16R 1R 8G26G14G 3G 9G22G 4G31
 109594173.30448  85398057.53046  20855073.489    20855073.134    20855076.494
        48.000          38.000
 103718831.310 8  80670197.488 7  19402744.610    19402755.554    19402763.029
        49.000          42.000
 118970215.705 6  92532397.150 6  22216845.563    22216847.044    22216849.642
        39.000          39.000
 110021210.04148  85730808.08748  20936333.341    20936332.833    20936339.413
        48.000          49.000
 127965425.88245  99713328.18541  24351009.976    24351010.605    24351010.874
        32.000           7.000
 110683271.25348  86246716.42448  21062323.783    21062324.219    21062329.834
        48.000          50.000
 121955216.20446  95030045.08946  23207302.501    23207302.638    23207307.653
        41.000          37.000
 118419537.56447  92274973.84445  22534482.989    22534481.880    22534484.094
        44.000          32.000
 109485485.07347  85313367.34246  20834387.755    20834388.108    20834391.982
        46.000          38.000
 121838204.54447  94938862.22846  23185036.547    23185036.159    23185039.261
        42.000          37.000
 20  5  3  0 14  0.0000000  0 10G16R 1R 8G26G14G 3G 9G22G 4G31
 109612059.75747  85411995.02846  20858477.241    20858476.672    20858480.079
        47.000          38.000
 103838963.318 8  80763633.469 7  19425218.229    19425229.241    19425236.421
        49.000          42.000
 119159305.792 6  92679467.149 6  22252157.920    22252158.667    22252160.962
        40.000          39.000
 110121178.23947  85808705.37648  20955356.308    20955356.265    20955362.761
        47.000          49.000
 128126142.57045                  24381592.826
        31.000
 110813895.10948  86348501.23248  21087180.642    21087181.163    21087186.744
        48.000          50.000
 121941339.37846  95019231.99546  23204662.132    23204661.872    23204667.037
        41.000          37.000
 118583489.09747  92402728.26445  22565681.921    22565681.064    22565683.228
        45.000          32.000
 109513320.70147  85335057.43746  20839684.624    20839684.924    20839689.062
        47.000          38.000
 122006695.60946  95070153.93646  23217098.647    23217099.190    23217102.215
        41.000          37.000
 20  5  3  0 14 30.0000000  0 10G16R 1R 8G26G14G 3G 9G22G 4G31
 109630543.29547  85426397.78546  20861994.331    20861993.916    20861997.237
        47.000          38.000
 103959756.236 8  80857583.504 7  19447814.244    19447825.883    19447832.986
        49.000          42.000
 119348723.427 6  92826791.936 6  22287530.105    22287530.861    22287533.664
        39.000          39.000
 110221748.03348  85887071.43948  20974494.266    20974494.035    20974500.600
        48.000          49.000
 128287008.60445                  24412205.067
        30.000
 110945050.08048  86450699.89148  21112138.611    21112139.170    21112144.722
        48.000          49.000
 121927559.59246  95008494.51346  23202039.147    23202039.354    23202044.946
        40.000          38.000
 118747739.34447  92530715.43845  22596937.729    22596936.785    22596938.650
        45.000          31.000
 109541444.33447  85356971.94246  20845036.353    20845036.604    20845040.694
        46.000          39.000
 122175259.97547  95201502.76246  23249176.296    23249176.261    23249178.481
        42.000          36.000
 20  5  3  0 15  0.0000000  0 10G16R 1R 8G26G14G 3G 9G22G 4G31
 109649622.73747  85441264.88746  20865624.837    20865624.432    20865627.882
        47.000          38.000
 104081205.727 8  80952044.195 7  19470534.477    19470545.532    19470552.755
        49.000          42.000
 119538462.929 6  92974367.052 6  22322962.875    22322963.174    22322965.867
        38.000          39.000
 110322914.78248  85965902.66648  20993745.514    20993745.358    20993752.072
        48.000          49.000
 128448019.99745                  24442845.792
        31.000
 111076730.88948  86553308.30448  21137197.008    21137197.201    21137202.727
        48.000          50.000
 121913874.74046  94997831.01646  23199435.495    23199435.102    23199440.661
        40.000          37.000
 118912282.35347  92658930.74845  22628249.198    22628248.249    22628250.341
        44.000          32.000
 109569853.90847  85379109.26546  20850442.354    20850442.556    20850446.997
        47.000          39.000
 122343892.85247  95332904.98646  23281266.202    23281265.842    23281268.534
        42.000          36.000
 20  5  3  0 15 30.0000000  0 10G16R 1R 8G26G14G 3G 9G22G 4G31
 109669302.06447  85456599.42446  20869369.922    20869369.437    20869372.939
        47.000          38.000
 104203313.036 8  81047016.536 7  19493377.011    19493388.224    19493395.763
        49.000          42.000
 119728523.684 6  93122192.031 6  22358454.911    22358456.011    22358459.010
        39.000          39.000
 110424678.92048  86045199.40248  21013110.687    21013110.609    21013116.904
        48.000          49.000
 128609177.73845                  24473511.958
        31.000
 111208937.37948  86656326.33248  21162355.108    21162355.340    21162360.856
        48.000          50.000
 121900287.79746  94987243.79946  23196849.210    23196849.735    23196855.165
        41.000          38.000
 119077117.03347  92787373.32945  22659616.140    22659615.383    22659617.448
        44.000          32.000
 109598552.45047  85401471.75746  20855903.847    20855903.987    20855908.164
        47.000          38.000
 122512594.29746  95464360.61046  23313368.385    23313368.600    23313371.715
        41.000          36.000
 20  5  3  0 16  0.0000000  0 10G16R 1R 8G26G14G 3G 9G22G 4G31
 109689575.11448  85472396.61146  20873227.580    20873227.230    20873230.645
        48.000          38.000
 104326070.087 8  81142494.223 7  19516341.378    19516352.511    19516359.916
        49.000          42.000
 119918895.905 6  93270259.265 6  22394005.199    22394006.905    22394009.031
        39.000          38.000
 110527031.57348  86124954.71048  21032587.560    21032587.572    21032594.148
        48.000          49.000
 128770473.51645                  24504204.512
        32.000
 111341660.06648  86759746.59148  21187611.150    21187611.651    21187617.187
        48.000          49.000
 121886792.50346  94976728.00946  23194281.748    23194282.174    23194287.234
        41.000          38.000
 119242233.72547  92916035.66845  22691036.561    22691036.129    22691038.744
        44.000          31.000
 109627533.69747  85424054.53946  20861418.880    20861418.896    20861423.154
        47.000          39.000
 122681355.41946  95595862.74446  23345483.026    23345483.152    23345485.769
        41.000          36.000
 20  5  3  0 16 30.0000000  0 10G16R 1R 8G26G14G 3G 9G22G 4G31
 109710452.20148  85488664.46746  20877200.467    20877199.969    20877203.384
        48.000          38.000
 104449484.142 8  81238482.918 7  19539428.231    19539439.976    19539447.312
        49.000          42.000
 120109585.267 6  93418573.169 6  22429614.624    22429616.992    22429619.847
        40.000          38.000
 110629979.58347  86205173.94048  21052177.998    21052177.922    21052184.314
        47.000          49.000
 128931914.90544                  24534926.037
        29.000
 111474905.17948  86863573.93348  21212966.795    21212967.341    21212972.864
        48.000          49.000
 121873398.20546  94966290.90946  23191733.104    23191733.150    23191738.318
        41.000          39.000
 119407637.83147  93044921.96045  22722512.172    22722510.988    22722513.324
        45.000          31.000
 109656807.16147  85446865.02646  20866989.474    20866989.719    20866993.559
        47.000          39.000
 122850182.68646  95727416.42746  23377610.007    23377609.944    23377612.454
        41.000          36.000
 20  5  3  0 17  0.0000000  0 10G16R 1R 8G26G14G 3G 9G22G 4G31
 109731930.70147  85505400.95846  20881287.747    20881287.334    20881290.595
        47.000          39.000
 104573550.225 8  81334978.742 7  19562638.902    19562648.619    19562656.300
        49.000          42.000
 120300584.390 6  93567127.979 6  22465284.443    22465284.910    22465287.382
        40.000          38.000
 110733516.97548  86285852.42748  21071880.485    21071880.471    21071886.863
        48.000          49.000
 129093496.72145                  24565675.843
        32.000
 111608666.11948  86967803.23048  21238420.783    21238421.194    21238426.784
        48.000          49.000
 121860101.65746  94955929.97146  23189203.176    23189202.892    23189208.184
        41.000          38.000
 119573321.91247  93174026.40945  22754040.858    22754040.074    22754042.102
        44.000          31.000
 109686369.51047  85469900.61746  20872615.035    20872615.241    20872618.972
        47.000          39.000
 123019070.06946  95859016.95445  23409748.180    23409747.941    23409750.990
        41.000          35.000
 20  5  3  0 17 30.0000000  0 10G16R 1R 8G26G14G 3G 9G22G 4G31
 109754016.71948  85522610.85646  20885490.832    20885490.234    20885493.322
        48.000          38.000
 104698271.831 8  81431984.415 7  19585969.305    19585980.440    19585988.068
        49.000          42.000
 120491895.491 6  93715925.418 6  22501010.961    22501010.257    22501013.200
        40.000          38.000
 110837646.68448  86366992.46048  21091695.949    21091695.837    21091702.152
        48.000          49.000
 129255223.01045                  24596450.299
        32.000
 111742945.31048  87072436.34448  21263973.416    21263973.852    21263979.290
        48.000          50.000
 121846908.43846  94945649.55746  23186692.320    23186692.125    23186697.503
        41.000          38.000
 119739287.71347  93303350.38245  22785623.132    22785622.071    22785624.629
        45.000          31.000
 109716226.43247  85493165.74946  20878296.564    20878296.562    20878300.574
        47.000          39.000
 123188020.60246  95990666.67845  23441898.623    23441898.015    23441900.992
        41.000          35.000
 20  5  3  0 18  0.0000000  0 10G16R 1R 8G26G14G 3G 9G22G 4G31
 109776708.78947  85540292.98746  20889808.866    20889808.420    20889811.500
        47.000          38.000
 104823645.006 8  81529496.870 7  19609422.005    19609434.082    19609441.779
        49.000          42.000
 120683512.695 6  93864960.993 6  22536792.560    22536794.507    22536796.659
        40.000          38.000
 110942364.19348  86448590.51248  21111622.919    21111622.820    21111629.282
        48.000          48.000
 129417089.70845                  24627253.111
        33.000
 111877737.55948  87177469.25148  21289623.550    21289623.978    21289629.449
        48.000          49.000
 121833816.70146  94935448.20746  23184200.219    23184200.621    23184206.442
        41.000          38.000
 119905529.77047  93432889.62045  22817257.900    22817257.165    22817259.194
        44.000          31.000
 109746376.04647  85516658.95046  20884033.889    20884033.723    20884037.782
        46.000          39.000
 123357029.81846  96122362.12845  23474059.772    23474059.337    23474062.640
        40.000          35.000
 20  5  3  0 18 30.0000000  0 10G16R 1R 8G26G14G 3G 9G22G 4G31
 109800002.50048  85558443.93046  20894241.629    20894241.037    20894244.039
        48.000          38.000
 104949662.656 8  81627510.582 7  19632997.330    19633008.363    19633015.738
        49.000          42.000
 120875427.162 6  94014227.757 6  22572630.299    22572632.509    22572635.473
        39.000          38.000
 111047661.78447  86530640.57748  21131660.060    21131660.381    21131666.697
        47.000          49.000
 129579090.05445                  24658080.494
        33.000
 112013034.57647  87282895.48548  21315369.774    21315370.101    21315375.740
        47.000          50.000
 121820821.42746  94925322.03846  23181727.582    23181727.207    23181733.460
        40.000          38.000
 120072039.17847  93562637.18145  22848943.526    22848942.851    22848945.054
        44.000          31.000
 109776813.41747  85540376.38246  20889825.831    20889825.803    20889830.065
        46.000          39.000
 123526089.89246  96254097.22545  23506230.638    23506230.499    23506233.732
        40.000          34.000
 20  5  3  0 19  0.0000000  0 10G16R 1R 8G26G14G 3G 9G22G 4G31
 109823904.47847  85577068.85046  20898789.910    20898789.456    20898792.588
        47.000          39.000
 105076328.740 8  81726028.629 7  19656692.840    19656703.911    19656711.523
        49.000          42.000
 121067641.662 6  94163727.889 6  22608525.443    22608526.005    22608530.289
        38.000          38.000
 111153542.80548  86613145.27148  21151808.804    21151808.746    21151815.067
        48.000          49.000
 129741228.08145                  24688932.409
        32.000
 112148839.17648  87388717.23648  21341212.163    21341212.881    21341218.515
        48.000          49.000
 121807928.79246  94915275.84346  23179274.266    23179273.399    23179279.619
        40.000          38.000
 120238817.85547  93692594.56545  22880680.564    22880679.534    22880682.046
        43.000          31.000
 109807544.64647  85564322.79046  20895673.620    20895673.901    20895678.182
        46.000          39.000
 123695204.09546  96385874.48245  23538412.272    23538412.302    23538414.988
        41.000          35.000
 20  5  3  0 19 30.0000000  0 10G16R 1R 8G26G14G 3G 9G22G 4G31
 109848419.99947  85596171.85546  20903454.981    20903454.501    20903457.832
        47.000          39.000
 105203646.281 8  81825053.366 7  19680510.692    19680521.651    19680528.727
        49.000          42.000
 121260157.002 6  94313462.008 6  22644476.654    22644478.273    22644480.561
        38.000          38.000
 111260009.27148  86696106.15348  21172069.002    21172068.654    21172074.990
        48.000          48.000
 129903506.57145                  24719815.602
        32.000
 112285152.66048  87494935.51948  21367152.042    21367152.475    21367158.120
        48.000          49.000
 121795143.46646  94905313.26446  23176840.621    23176840.473    23176846.470
        40.000          38.000
 120405866.76147  93822762.51545  22912469.002    22912467.885    22912470.233
        43.000          30.000
 109838574.49447  85588501.89146  20901578.521    20901578.777    20901582.582
        47.000          39.000
 123864374.07046  96517695.20246  23570603.926    23570604.241    23570607.181
        41.000          36.000
 20  5  3  0 20  0.0000000  0 10G16R 1R 8G26G14G 3G 9G22G 4G31
 108298109.78547  84388137.91946  20608440.775    20608440.273    20608443.706
        47.000          39.000
 103729033.586 8  80678132.366 7  19404653.474    19404664.632    19404671.737
        49.000          42.000
 119847579.972 6  93214790.953 6  22380687.774    22380688.743    22380691.938
        38.000          38.000
 109791621.42248  85551907.82448  20892643.708    20892643.634    20892650.037
        48.000          48.000
 128490488.89145                  24450926.177
        32.000
 110846535.82847  86373935.37048  21093392.303    21093392.737    21093398.476
        47.000          49.000
 120207024.61646  93667818.07446  22874632.115    22874632.109    22874637.871
        41.000          38.000
 118997747.05447  92725526.36145  22644512.474    22644511.443    22644514.024
        44.000          30.000
 108294463.54648  84385298.55946  20607743.993    20607744.190    20607748.056
        48.000          39.000
 122458162.75446  95421946.09246  23303011.390    23303011.080    23303014.151
        40.000          36.000
 20  5  3  0 20 30.0000000  0  9G16R 1R 8G26G 3G 9G22G 4G31
 108323851.84147  84408196.66646  20613339.408    20613338.918    20613342.141
        47.000          39.000
 103857645.166 8  80778163.568 7  19428712.991    19428724.198    19428731.173
        49.000          42.000
 120040683.912 6  93364982.858 6  22416748.279    22416749.950    22416753.262
        39.000          38.000
 109899248.74448  85635773.26948  20913124.689    20913124.662    20913130.848
        48.000          49.000
 110983855.52348  86480937.71748  21119523.151    21119523.748    21119529.618
        48.000          49.000
 120194452.49646  93658021.63046  22872240.009    22872239.741    22872245.087
        41.000          38.000
 119165323.13347  92856105.09345  22676401.218    22676400.318    22676402.352
        43.000          30.000
 108326089.13247  84409941.87646  20613762.365    20613762.399    20613766.331
        47.000          39.000
 122627435.39546  95553846.80946  23335222.216    23335222.717    23335225.664
        41.000          36.000
 20  5  3  0 21  0.0000000  0  9G16R 1R 8G26G 3G 9G22G 4G31
 108350205.66648  84428732.11046  20618354.202    20618353.887    20618357.123
        48.000          38.000
 103986898.459 8  80878693.894 7  19452893.289    19452903.534    19452911.022
        49.000          42.000
 120234074.243 6  93515397.505 6  22452862.506    22452864.555    22452867.857
        38.000          38.000
 110007450.08347  85720085.99448  20933714.542    20933714.448    20933720.878
        47.000          49.000
 111121671.00447  86588326.38448  21145748.845    21145749.263    21145754.981
        47.000          49.000
 120181984.87546  93648306.60746  22869866.958    22869867.055    22869872.446
        40.000          38.000
 119333154.29247  92986882.59045  22708338.901    22708337.696    22708340.088
        44.000          30.000
 108358010.39847  84434815.59246  20619836.560    20619836.988    20619840.981
        47.000          40.000
 122796752.82946  95685782.43645  23367442.945    23367442.823    23367445.633
        41.000          35.000
 20  5  3  0 21 30.0000000  0  9G16R 1R 8G26G 3G 9G22G 4G31
 108377162.80148  84449737.66746  20623484.055    20623483.591    20623487.058
        48.000          39.000
 104116782.222 8  80979714.583 7  19477189.612    19477201.031    19477208.300
        49.000          42.000
 120427738.324 6  93666025.083 6  22489029.046    22489029.713    22489032.540
        39.000          38.000
 110116213.82547  85804836.96248  20954411.897    20954411.642    20954417.908
        46.000          48.000
 111259970.13847  86696091.92748  21172066.421    21172066.693    21172072.412
        47.000          49.000
 120169613.00146  93638666.20046  22867512.877    22867512.541    22867518.141
        40.000          38.000
 119501228.34347  93117849.36445  22740322.198    22740321.191    22740323.456
        44.000          30.000
 108390218.67247  84459912.94646  20625965.744    20625965.747    20625969.875
        47.000          39.000
 122966104.19846  95817744.49045  23399669.381    23399669.398    23399672.189
        40.000          35.000
 20  5  3  0 22  0.0000000  0  9G16R 1R 8G26G 3G 9G22G 4G31
 108404750.65447  84471234.69546  20628733.712    20628733.428    20628736.718
        47.000          39.000
 104247321.749 8  81081245.308 7  19501610.298    19501621.020    19501628.593
        49.000          42.000
 120621699.771 6  93816883.933 6  22525248.784    22525251.034    22525253.663
        39.000          38.000
 110225564.46947  85890045.24748  20975220.337    20975220.205    20975226.804
        47.000          48.000
 111398776.70947  86804252.87148  21198480.165    21198480.576    21198486.415
        47.000          48.000
 120157364.18046  93629121.67246  22865181.799    22865181.751    22865187.491
        41.000          38.000
 119669568.41147  93249023.41244  22772356.383    22772355.029    22772357.081
        43.000          29.000
 108422741.16647  84485255.15446  20632154.470    20632154.598    20632158.594
        47.000          39.000
 123135513.67146  95949751.82645  23431906.994    23431906.727    23431909.646
        40.000          34.000
 20  5  3  0 22 30.0000000  0  9G16R 1R 8G26G 3G 9G22G 4G31
 108432960.28348  84493216.21946  20634101.893    20634101.422    20634104.827
        48.000          39.000
 104378504.970 8  81183276.675 7  19526150.128    19526161.620    19526169.255
        49.000          42.000
 120815945.148 6  93967963.610 6  22561524.392    22561524.285    22561527.631
        38.000          38.000
 110335489.39447  85975701.03248  20996138.313    20996138.351    20996144.719
        47.000          48.000
 111538077.79648  86912799.15848  21224988.351    21224988.605    21224994.557
        48.000          49.000
 120145229.13846  93619665.80446  22862871.720    22862872.460    22862878.684
        40.000          39.000
 119838161.00047  93380394.24144  22804438.189    22804437.511    22804439.228
        43.000          29.000
 108455568.40247  84510834.81946  20638401.287    20638401.588    20638405.317
        47.000          39.000
 123304968.94746  96081794.86445  23464153.312    23464152.999    23464156.048
        40.000          34.000
 20  5  3  0 23  0.0000000  0  9G16R 1R 8G26G 3G 9G22G 4G31
 108461787.61948  84515679.08146  20639587.585    20639587.090    20639590.605
        48.000          39.000
 104510325.442 8  81285803.684 7  19550810.976    19550821.552    19550828.896
        49.000          42.000
 121010466.085 6  94119257.621 6  22597848.677    22597850.662    22597853.539
        39.000          38.000
 110445981.43648  86061798.72248  21017164.226    21017164.078    21017170.734
        48.000          48.000
 111677865.48147  87021724.61248  21251588.875    21251589.323    21251595.303
        47.000          48.000
 120133203.29146  93610295.02046  22860584.103    22860584.058    22860590.134
        41.000          39.000
 120006997.66947  93511955.25444  22836567.024    22836566.150    22836567.023
        44.000          29.000
 108488696.10747  84536648.61746  20644705.426    20644705.295    20644709.376
        47.000          39.000
 123474463.31846  96213868.35345  23496406.344    23496406.552    23496409.730
        40.000          34.000
 20  5  3  0 23 30.0000000  0  9G16R 1R 8G26G 3G 9G22G 4G31
 108491236.54148  84538626.29346  20645191.751    20645191.154    20645194.322
        48.000          39.000
 104642784.409 8  81388827.316 6  19575590.173    19575600.814    19575608.194
        49.000          41.000
 121205262.696 6  94270766.045 6  22634226.405    22634227.269    22634230.175
        39.000          38.000
 110557041.36947  86148338.92048  21038298.376    21038298.132    21038304.764
        47.000          48.000
 111818140.08847  87131029.47748  21278282.235    21278282.738    21278288.732
        47.000          48.000
 120121290.50146  93601012.34046  22858317.421    22858317.373    22858323.269
        41.000          40.000
 120176077.89347  93643706.05544  22868741.984    22868741.019    22868742.857
        43.000          29.000
 108522127.96747  84562699.41746  20651067.200    20651067.111    20651071.360
        47.000          40.000
 123643997.61446  96345972.96945  23528668.127    23528668.121    23528670.929
        39.000          34.000
 20  5  3  0 24  0.0000000  0  9G16R 1R 8G26G 3G 9G22G 4G31
 108521308.79348  84562059.21946  20650914.318    20650913.724    20650917.063
        48.000          40.000
 104775880.853 8  81492346.758 6  19600487.883    19600499.152    19600506.575
        49.000          41.000
 121400332.395 6  94422486.849 6  22670653.555    22670655.199    22670658.041
        39.000          37.000
 110668667.85547  86235320.59548  21059540.194    21059540.129    21059546.524
        47.000          48.000
 111958899.62148  87240712.22048  21305068.051    21305068.437    21305074.398
        48.000          49.000
 120109492.52747  93591819.12846  22856072.301    22856072.631    22856077.977
        42.000          39.000
 120345400.10047  93775645.41144  22900962.707    22900961.889    22900963.831
        43.000          29.000
 108555865.60947  84588988.48546  20657487.306    20657487.183    20657491.232
        47.000          39.000
 123813570.66646  96478107.76645  23560936.810    23560936.938    23560939.805
        39.000          33.000
 20  5  3  0 24 30.0000000  0  9G16R 1R 8G26G 3G 9G22G 4G31
 108552011.00548  84585983.01546  20656756.713    20656756.138    20656759.469
        48.000          39.000
 104909619.166 8  81596365.421 7  19625507.137    19625517.714    19625525.158
        49.000          42.000
 121595677.816 6  94574422.094 6  22707131.863    22707133.670    22707137.614
        38.000          38.000
 110780864.23347  86322746.34448  21080890.500    21080890.241    21080896.896
        47.000          48.000
 112100146.95647  87350775.05948  21331946.598    21331946.936    21331952.940
        47.000          48.000
 120097815.79447  93582720.38546  22853850.393    22853850.675    22853855.739
        42.000          40.000
 120514966.17347  93907774.78444  22933230.023    22933228.893    22933231.498
        43.000          29.000
 108589915.40147  84615520.78946  20663966.617    20663966.804    20663970.769
        47.000          40.000
 123983186.37146  96610275.78645  23593213.516    23593212.982    23593216.614
        38.000          32.000
 20  5  3  0 25  0.0000000  0  9G16R 1R 8G26G 3G 9G22G 4G31
 108583340.96448  84610395.96846  20662718.487    20662717.942    20662721.193
        48.000          39.000
 105043994.520 8  81700879.568 7  19650644.522    19650655.364    19650662.751
        48.000          42.000
 121791293.116 6  94726567.263 6  22743663.730    22743664.412    22743667.557
        39.000          38.000
 110893625.28547  86410612.08248  21102348.271    21102348.129    21102354.496
        47.000          48.000
 112241876.28847  87461213.48248  21358916.996    21358917.122    21358923.084
        47.000          49.000
 120086258.06747  93573714.39046  22851651.052    22851651.143    22851656.469
        42.000          40.000
 120684769.77047  94040089.25244  22965542.790    22965541.272    22965543.642
        43.000          29.000
 108624275.14647  84642294.60946  20670505.156    20670505.201    20670509.324
        47.000          40.000
 124152839.85046  96742473.25445  23625497.565    23625497.303    23625500.586
        38.000          32.000
 20  5  3  0 25 30.0000000  0  9G16R 1R 8G26G 3G 9G22G 4G31
 108615286.41048  84635288.52946  20668797.548    20668796.913    20668800.273
        49.000          39.000
 105178991.726 8  81805877.371 6  19675898.055    19675909.250    19675916.818
        48.000          41.000
 121987161.477 6  94878909.259 6  22780240.934    22780241.963    22780244.915
        39.000          38.000
 111006935.53547  86498905.77448  21123910.722    21123910.296    21123916.786
        47.000          48.000
 112384071.61147  87572015.01648  21385975.434    21385975.974    21385981.923
        47.000          48.000
 120074807.08046  93564791.55546  22849472.100    22849472.095    22849477.660
        41.000          40.000
 120854794.53047  94172576.06044  22997897.465    22997896.364    22997898.417
        44.000          29.000
 108658932.40747  84669300.25346  20677100.238    20677100.298    20677104.160
        47.000          40.000
 124322516.03246  96874688.39945  23657785.812    23657786.280    23657788.992
        38.000          32.000
 20  5  3  0 26  0.0000000  0  9G16R 1R 8G26G 3G 9G22G 4G31
 108647842.16047  84660656.64446  20674992.760    20674992.109    20674995.612
        47.000          39.000
 105314602.618 8  81911352.491 7  19701267.528    19701278.293    19701285.672
        49.000          42.000
 122183273.312 6  95031440.673 6  22816862.407    22816864.281    22816867.097
        38.000          38.000
 111120786.53547  86587620.82948  21145575.441    21145575.336    21145581.845
        47.000          48.000
 112526723.92247  87683172.64648  21413121.614    21413121.866    21413127.716
        47.000          48.000
 120063457.53247  93555947.76246  22847312.078    22847312.173    22847317.858
        42.000          41.000
 121025031.12747  94305227.91944  23030292.161    23030291.152    23030293.719
        43.000          29.000
 108693881.74347  84696533.49446  20683750.734    20683750.893    20683754.698
        47.000          40.000
 124492206.68346  97006914.84245  23690077.263    23690077.130    23690079.829
        39.000          32.000
 20  5  3  0 26 30.0000000  0  9G16R 1R 8G26G 3G 9G22G 4G31
 108681022.88748  84686511.74846  20681306.967    20681306.220    20681309.569
        48.000          39.000
 105450839.630 8  82017314.588 6  19726753.285    19726764.402    19726771.483
        49.000          41.000
 122379639.660 6  95184169.986 6  22853530.832    22853533.109    22853537.699
        37.000          39.000
 111235189.79548  86676766.22048  21167345.586    21167345.572    21167352.034
        48.000          48.000
 112669844.24848  87794694.96048  21440356.350    21440356.965    21440362.656
        48.000          48.000
 120052224.03847  93547194.40646  22845174.399    22845174.513    22845180.324
        42.000          40.000
 121195490.21547  94438053.15944  23062729.029    23062728.088    23062731.095
        43.000          29.000
 108729137.79748  84724005.73846  20690459.836    20690460.072    20690464.027
        48.000          40.000
 124661924.05846  97139162.08945  23722373.146    23722373.528    23722376.002
        39.000          32.000
 20  5  3  0 27  0.0000000  0  9G16R 1R 8G26G 3G 9G22G 4G31
 108714832.60048  84712856.98046  20687740.561    20687740.037    20687743.462
        48.000          39.000
 105587704.532 8  82123765.059 6  19752356.833    19752367.868    19752374.983
        49.000          41.000
 122576260.913 6  95337097.576 6  22890250.494    22890250.995    22890255.656
        37.000          39.000
 111350146.55447  86766342.90048  21189220.855    21189220.950    21189227.626
        46.000          48.000
 112813433.21248  87906582.45048  21467680.499    21467681.092    21467686.791
        48.000          48.000
 120041111.05147  93538534.95246  22843059.553    22843059.790    22843065.520
        42.000          40.000
 121366171.79747  94571051.75744  23095209.105    23095208.125    23095210.642
        43.000          29.000
 108764704.89748  84751720.34746  20697227.947    20697228.270    20697232.126
        48.000          40.000
 124831669.66546  97271431.35845  23754675.300    23754675.002    23754677.889
        40.000          32.000
 20  5  3  0 27 30.0000000  0  9G16R 1R 8G26G 3G 9G22G 4G31
 108749266.62748  84739688.69646  20694293.132    20694292.772    20694296.017
        48.000          40.000
 105725189.495 8  82230697.782 6  19778075.962    19778086.779    19778094.344
        48.000          41.000
 122773127.823 6  95490216.238 6  22927013.097    22927015.973    22927018.893
        38.000          38.000
 111465648.62547  86856344.50548  21211200.614    21211200.416    21211207.118
        47.000          48.000
 112957482.20447  88018828.39948  21495092.051    21495092.657    21495098.420
        47.000          48.000
 120030113.68647  93529965.58846  22840967.475    22840967.196    22840973.086
        42.000          40.000
 121537067.36547  94704217.11444  23127729.348    23127728.149    23127730.772
        43.000          28.000
 108800578.00047  84779673.40946  20704054.316    20704054.435    20704058.484
        47.000          40.000
 125001436.10446  97403716.86645  23786981.036    23786981.101    23786982.964
        39.000          32.000
 20  5  3  0 28  0.0000000  0  9G16R 1R 8G26G 3G 9G22G 4G31
 108784352.25548  84767028.14446  20700969.673    20700969.293    20700972.516
        48.000          40.000
 105863319.958 8  82338132.575 6  19803915.309    19803926.972    19803934.617
        49.000          41.000
 122970264.724 6  95643544.878 6  22963829.553    22963829.993    22963832.133
        38.000          38.000
 111581720.38647  86946790.01748  21233288.107    21233288.073    21233294.499
        47.000          48.000
 113102014.97947  88131451.33048  21522595.664    21522596.187    21522602.114
        46.000          48.000
 120019259.43347  93521507.74146  22838901.385    22838901.683    22838907.498
        42.000          41.000
 121708199.87947  94837567.09544  23160294.580    23160293.531    23160296.055
        42.000          28.000
 108836784.58847  84807886.33146  20710944.138    20710944.468    20710948.436
        47.000          40.000
 125171247.74446  97536037.58745  23819295.314    23819294.796    23819297.059
        39.000          31.000
 20  5  3  0 28 30.0000000  0  9G16R 1R 8G26G 3G 9G22G 4G31
 108820068.85048  84794859.25746  20707766.069    20707765.724    20707769.189
        48.000          40.000
 106002071.956 8  82446050.768 6  19829872.260    19829883.386    19829891.053
        48.000          41.000
 123167646.276 6  95797063.795 6  23000689.080    23000689.685    23000692.133
        39.000          37.000
 111698337.79547  87037660.71548  21255479.788    21255479.730    21255486.306
        47.000          48.000
 113247007.02147  88244432.12748  21550186.877    21550187.243    21550193.158
        47.000          48.000
 120008527.64747  93513145.32746  22836859.281    22836859.364    22836865.187
        42.000          41.000
 121879544.49347  94971082.35344  23192900.333    23192899.355    23192902.042
        42.000          28.000
 108873303.79748  84836342.85546  20717893.836    20717893.687    20717897.873
        48.000          40.000
 125341081.48346  97668375.53545  23851612.999    23851612.800    23851615.275
        38.000          31.000
 20  5  3  0 29  0.0000000  0  9G16R 1R 8G26G 3G 9G22G 4G31
 108856410.84748  84823177.70046  20714681.723    20714681.338    20714684.867
        48.000          39.000
 106141437.408 8  82554446.097 6  19855944.203    19855954.822    19855962.387
        49.000          41.000
 123365263.252 6  95950765.832 6  23037592.486    23037593.461    23037595.864
        39.000          37.000
 111815492.46447  87128950.05648  21277773.825    21277773.735    21277780.108
        47.000          48.000
 113392449.40747  88357763.83748  21577863.578    21577864.034    21577869.930
        46.000          48.000
 119997913.18047  93504874.32746  22834839.201    22834839.369    22834845.390
        42.000          40.000
 122051092.05447  95104755.75544  23225544.961    23225543.998    23225546.667
        42.000          28.000
 108910130.38848  84865038.89346  20724901.520    20724901.619    20724905.896
        48.000          40.000
 125510929.61046  97800724.67745  23883933.394    23883933.900    23883936.648
        38.000          31.000
 20  5  3  0 29 30.0000000  0  9G16R 1R 8G26G 3G 9G22G 4G31
 108893382.22748  84851986.56346  20721717.608    20721716.807    20721720.074
        48.000          40.000
 106281417.640 8  82663319.594 6  19882129.499    19882141.238    19882148.832
        49.000          41.000
 123563115.505 6  96104650.891 5  23074538.637    23074540.647    23074542.590
        39.000          35.000
 111933185.37147  87220658.80247  21300170.007    21300169.888    21300176.260
        47.000          47.000
 113538342.60547  88471446.83447  21605626.152    21605626.594    21605632.424
        47.000          47.000
 119987420.31146  93496698.07846  22832842.471    22832842.392    22832848.400
        41.000          40.000
 122222842.61147  95238587.33744  23258228.231    23258226.574    23258229.461
        42.000          28.000
 108947268.51847  84893977.69146  20731968.581    20731968.842    20731973.063
        47.000          40.000
 125680793.53646  97933086.12945  23916258.000    23916257.554    23916260.944
        37.000          31.000
 20  5  3  0 30  0.0000000  0  9G16R 1R 8G26G 3G 9G22G 4G31
 108930987.89948  84881289.68646  20728873.581    20728873.008    20728876.125
        48.000          40.000
 106422015.236 8  82772673.273 6  19908431.415    19908442.966    19908450.249
        49.000          41.000
 123761204.343 6  96258719.890 6  23111531.931    23111532.237    23111534.981
        39.000          36.000
 112051418.14347  87312788.21748  21322668.907    21322668.773    21322675.422
        47.000          48.000
 113684687.73147  88585481.98148  21633474.832    21633475.224    21633480.962
        47.000          48.000
 119977054.08747  93488620.49946  22830869.552    22830869.701    22830875.703
        42.000          40.000
 122394796.83947  95372577.60644  23290949.754    23290948.681    23290951.449
        42.000          28.000
 108984723.04048  84923163.03646  20739096.148    20739096.074    20739100.442
        48.000          40.000
 125850675.35146  98065461.52145  23948585.669    23948585.199    23948588.507
        37.000          30.000
 20  5  3  0 30 30.0000000  0  9G16R 1R 8G26G 3G 9G22G 4G31
 107393812.83747  83683490.93746  20436358.679    20436358.430    20436361.481
        47.000          40.000
 104960673.303 8  81636073.971 6  19635057.455    19635068.451    19635076.027
        49.000          41.000
 122354161.094 6  95164352.868 5  22848776.036    22848777.321    22848779.449
        39.000          35.000
 110594775.37747  86177741.89047  21045479.034    21045478.890    21045485.628
        47.000          47.000
 112256069.81647  87472273.19247  21361617.943    21361618.409    21361624.027
        47.000          47.000
 118391398.11646  92253044.43446  22529129.235    22529129.367    22529135.269
        41.000          41.000
 120991540.49547  94279131.08444  23023918.990    23023917.980    23023920.700
        42.000          27.000
 107447079.08548  83724998.90446  20446492.008    20446492.385    20446496.249
        48.000          40.000
 124445162.08746  96970256.32245  23681124.661    23681124.626    23681127.841
        37.000          30.000
 20  5  3  0 31  0.0000000  0  9G16R 1R 8G26G 3G 9G22G 4G31
 107432691.44348  83713785.95446  20443757.114    20443756.674    20443760.035
        48.000          40.000
 105102501.678 8  81746384.923 6  19661589.032    19661600.823    19661607.871
        50.000          41.000
 122552715.677 6  95318784.166 5  22885854.295    22885855.853    22885857.979
        38.000          34.000
 110714083.04347  86270708.88747  21068182.310    21068182.170    21068188.920
        47.000          47.000
 112403312.43647  87587007.68648  21389637.213    21389637.686    21389643.426
        47.000          48.000
 118381290.41947  92245168.32346  22527206.433    22527206.211    22527211.623
        42.000          40.000
 121163895.30047  94413433.50544  23056717.483    23056716.734    23056718.842
        42.000          28.000
 107485171.25548  83754681.11446  20453741.006    20453741.141    20453744.907
        48.000          40.000
 124615077.16446  97102657.63644  23713458.135    23713458.106    23713461.470
        36.000          29.000
 20  5  3  0 31 30.0000000  0  9G16R 1R 8G26G 3G 9G22G 4G31
 107472199.25348  83744571.26146  20451275.140    20451274.580    20451278.189
        48.000          40.000
 105244934.188 8  81857165.746 6  19688233.965    19688245.820    19688252.876
        49.000          41.000
 122751490.055 6  95473386.419 5  22922973.260    22922975.292    22922977.653
        38.000          34.000
 110833916.27947  86364085.42348  21090986.035    21090985.937    21090992.586
        47.000          48.000
 112550991.17647  87702082.01048  21417739.161    21417739.957    21417745.644
        46.000          48.000
 118371305.22547  92237387.64946  22525306.372    22525306.285    22525311.472
        42.000          41.000
 121336437.18447  94547881.69544  23089551.212    23089550.313    23089552.226
        42.000          27.000
 107523575.22147  83784606.28046  20461048.753    20461049.054    20461053.014
        47.000          40.000
 124784998.12946  97235063.55645  23745793.380    23745793.337    23745796.704
        38.000          30.000
 20  5  3  0 32  0.0000000  0  9G16R 1R 8G26G 3G 9G22G 4G31
 107512340.20648  83775849.92946  20458913.808    20458913.370    20458916.646
        48.000          40.000
 105387972.233 8  81968417.542 6  19714992.609    19715003.487    19715011.160
        49.000          41.000
 122950484.307 6  95628159.684 5  22960134.747    22960136.414    22960138.451
        37.000          34.000
 110954276.06747  86457872.25748  21113889.831    21113889.605    21113896.310
        46.000          48.000
 112699106.49347  87817496.53347  21445925.142    21445925.502    21445931.047
        47.000          47.000
 118361446.98747  92229705.92146  22523430.079    22523430.485    22523435.567
        42.000          41.000
 121509166.53147  94682475.96544  23122420.621    23122419.647    23122421.499
        42.000          27.000
 107562295.27547  83814777.74446  20468417.273    20468417.245    20468421.190
        47.000          40.000
 124954926.53046  97367475.25145  23778129.741    23778129.939    23778133.144
        37.000          30.000
 20  5  3  0 32 30.0000000  0  9G16R 1R 8G26G 3G 9G22G 4G31
 107553102.29048  83807612.59146  20466670.706    20466670.128    20466673.509
        48.000          40.000
 105531600.860 8  82080128.682 6  19741861.472    19741872.478    19741879.719
        48.000          41.000
 123149682.702 6  95783091.705 5  22997332.889    22997335.084    22997338.778
        38.000          34.000
 111075147.35047  86552057.65947  21136890.664    21136890.552    21136897.269
        47.000          47.000
 112847642.86047  87933239.13947  21474190.546    21474191.016    21474196.550
        46.000          47.000
 118351704.09647  92222114.05746  22521576.341    22521576.266    22521581.641
        43.000          41.000
 121682067.31147  94817203.82844  23155322.698    23155321.948    23155323.395
        42.000          28.000
 107601319.63848  83845186.32946  20475843.135    20475843.182    20475847.129
        48.000          40.000
 125124848.27746  97499881.76545  23810465.382    23810465.357    23810468.055
        38.000          30.000
 20  5  3  0 33  0.0000000  0  9G16R 1R 8G26G 3G 9G22G 4G31
 107594496.75847  83839868.02546  20474547.883    20474547.245    20474550.580
        47.000          40.000
 105675828.739 8  82192305.914 6  19768842.214    19768853.302    19768860.669
        49.000          41.000
 123349092.684 6  95938188.308 5  23034571.620    23034573.013    23034576.679
        36.000          34.000
 111196538.19747  86646647.91647  21159990.542    21159990.552    21159997.198
        47.000          47.000
 112996607.81347  88049315.70547  21502537.765    21502537.978    21502543.732
        47.000          47.000
 118342088.14247  92214621.11646  22519746.195    22519746.332    22519751.709
        42.000          41.000
 121855146.89547  94952071.01744  23188258.920    23188257.706    23188259.230
        43.000          27.000
 107640659.66447  83875840.89046  20483329.138    20483329.420    20483333.454
        47.000          40.000
 125294771.94846  97632289.76745  23842801.032    23842801.154    23842804.350
        38.000          31.000
 20  5  3  0 33 30.0000000  0  9G16R 1R 8G26G 3G 9G22G 4G31
 107636528.02748  83872619.66546  20482545.935    20482545.608    20482548.934
        48.000          40.000
 105820658.040 8  82304950.912 6  19795934.853    19795946.413    19795953.798
        48.000          41.000
 123548715.469 6  96093450.433 5  23071849.316    23071851.275    23071854.502
        36.000          34.000
 111318450.36147  86741644.39547  21183189.783    21183189.622    21183196.175
        47.000          47.000
 113146002.68747  88165727.27747  21530966.336    21530966.849    21530972.648
        46.000          47.000
 118332604.42347  92207231.20246  22517941.563    22517941.401    22517947.144
        42.000          41.000
 122028406.19547  95087078.22544  23221228.812    23221227.830    23221229.497
        42.000          27.000
 107680320.50348  83906745.43146  20490876.511    20490876.573    20490880.842
        48.000          41.000
 125464700.28346  97764701.42145  23875137.675    23875137.636    23875140.447
        38.000          31.000
 20  5  3  0 34  0.0000000  0  9G16R 1R 8G26G 3G 9G22G 4G31
 107679196.47948  83905867.81346  20490665.569    20490665.085    20490668.429
        49.000          40.000
 105966086.661 8  82418062.044 4  19823140.642    19823151.863    19823159.585
        48.000          28.000
 123748547.419 5  96248875.276 5  23109168.508    23109167.502    23109173.053
        34.000          35.000
 111440881.23047  86837045.05747  21206487.531    21206487.569    21206494.147
        47.000          47.000
 113295824.27847  88282471.36147  21559476.801    21559477.062    21559482.835
        47.000          47.000
 118323253.79047  92199944.99246  22516162.186    22516162.111    22516167.745
        43.000          41.000
 122201842.03346  95222223.01544  23254232.589    23254230.941    23254233.482
        41.000          27.000
 107720302.77248  83937900.43346  20498484.870    20498485.048    20498489.258
        48.000          41.000
 125634631.46146  97897115.29045  23907473.689    23907474.515    23907477.283
        39.000          31.000
 20  5  3  0 34 30.0000000  0 10G16R 1R 8G26G 7G 3G 9G22G 4G31
 107722501.33948  83939611.86246  20498906.162    20498905.789    20498908.986
        48.000          40.000
 106112111.198 8  82531636.671 6  19850457.085    19850468.748    19850476.014
        48.000          41.000
 123948584.426 5  96404459.546 5  23146521.125    23146523.288    23146527.107
        34.000          35.000
 111563826.91847  86932846.88347  21229883.378    21229883.182    21229889.946
        46.000          47.000
 131616867.06746 102558587.28244  25045856.076    25045857.330    25045860.397
        36.000          27.000
 113446068.32547  88399544.63147  21588067.402    21588067.638    21588073.533
        47.000          47.000
 118314036.04647  92192762.34246  22514408.202    22514408.423    22514413.645
        42.000          41.000
 122375449.74846  95357501.74344  23287268.951    23287267.542    23287269.464
        41.000          27.000
 107760606.04748  83969305.56946  20506154.225    20506154.635    20506158.606
        48.000          41.000
 125804562.58846  98029529.11645  23939810.782    23939811.131    23939814.139
        38.000          31.000
 20  5  3  0 35  0.0000000  0 10G16R 1R 8G26G 7G 3G 9G22G 4G31
 107766451.20248  83973858.51646  20507269.651    20507269.092    20507272.457
        48.000          40.000
 106258737.477 8  82645679.318 6  19877886.562    19877898.556    19877905.681
        49.000          41.000
 124148831.024 5  96560206.866 5  23183917.118    23183917.521    23183922.121
        34.000          35.000
 111687293.03647  87029054.23147  21253378.321    21253378.244    21253384.795
        46.000          47.000
 131609580.22045 102552909.16744  25044470.142    25044470.265    25044473.568
        35.000          27.000
 113596739.92547  88516951.04947  21616738.995    21616739.376    21616745.362
        46.000          47.000
 118304960.33447  92185690.35646  22512681.426    22512681.358    22512686.708
        43.000          41.000
 122549234.33347  95492918.26344  23320339.301    23320338.975    23320340.013
        43.000          27.000
 107801239.26948  84000967.80046  20513886.782    20513886.969    20513890.981
        48.000          41.000
 125974499.92546  98161947.78645  23972148.935    23972148.710    23972152.433
        38.000          30.000
 20  5  3  0 35 30.0000000  0 10G16R 1R 8G26G 7G 3G 9G22G 4G31
 107811029.79248  84008595.08646  20515752.757    20515752.115    20515755.599
        49.000          40.000
 106405946.359 8  82760175.090 6  19905426.019    19905436.628    19905443.944
        48.000          41.000
 124349267.073 5  96716101.533 5  23221349.301    23221349.197    23221352.396
        34.000          35.000
 111811260.26647  87125652.06647  21276968.420    21276968.304    21276975.141
        46.000          47.000
 131602348.50746 102547274.02644  25043093.423    25043093.530    25043097.965
        36.000          27.000
 113747819.26247  88634675.19047  21645488.223    21645488.782    21645494.890
        46.000          47.000
 118296010.93447  92178716.79647  22510978.571    22510978.482    22510983.883
        43.000          42.000
 122723175.82547  95628457.06344  23353439.149    23353438.172    23353439.864
        42.000          27.000
 107842186.49148  84032874.71346  20521678.534    20521678.980    20521682.844
        48.000          41.000
 126144425.27246  98294357.08744  24004483.808    24004484.510    24004487.475
        36.000          29.000
 20  5  3  0 36  0.0000000  0 10G16R 1R 8G26G 7G 3G 9G22G 4G31
 107856234.88648  84043819.84146  20524354.814    20524354.409    20524357.656
        49.000          40.000
 106553733.313 8  82875120.492 6  19933072.724    19933083.417    19933090.917
        49.000          41.000
 124549887.066 5  96872139.269 5  23258810.483    23258812.657    23258816.997
        34.000          35.000
 111935723.63847  87222636.50247  21300652.863    21300652.811    21300659.650
        46.000          47.000
 131595169.88646 102541680.25544  25041727.475    25041728.147    25041731.777
        36.000          27.000
 113899300.87447  88752712.79147  21674314.531    21674314.879    21674320.958
        47.000          47.000
 118287186.53747  92171840.64247  22509299.088    22509299.268    22509304.769
        43.000          42.000
 122897268.46147  95764113.63644  23386568.278    23386567.297    23386568.683
        43.000          27.000
 107883446.09448  84065025.04446  20529530.215    20529530.363    20529534.396
        48.000          41.000
 126314334.49146  98426753.83844  24036817.446    24036817.035    24036821.074
        36.000          28.000
 20  5  3  0 36 30.0000000  0 10G16R 1R 8G26G 7G 3G 9G22G 4G31
 107902067.24348  84079533.37246  20533076.433    20533075.939    20533079.260
        48.000          40.000
 106702096.260 8  82990513.878 6  19960826.881    19960837.770    19960845.424
        49.000          41.000
 124750688.149 5  97028317.823 6  23296308.905    23296311.522    23296315.094
        34.000          36.000
 112060681.00247  87320005.86047  21324431.529    21324431.522    21324438.424
        46.000          47.000
 131588044.23246 102536127.79644  25040371.927    25040371.735    25040375.510
        36.000          26.000
 114051182.15647  88871061.82447  21703216.739    21703216.863    21703223.074
        46.000          47.000
 118278488.59947  92165063.03647  22507644.021    22507644.029    22507649.574
        43.000          42.000
 123071509.60946  95899885.92544  23419725.066    23419724.133    23419724.864
        41.000          27.000
 107925019.39747  84097419.81246  20537441.381    20537441.473    20537445.475
        47.000          40.000
 126484226.37146  98559137.06844  24069146.907    24069146.447    24069150.248
        37.000          29.000
 20  5  3  0 37  0.0000000  0 10G16R 1R 8G26G 7G 3G 9G22G 4G31
 107948535.95847  84115742.76546  20541918.961    20541918.672    20541922.012
        47.000          40.000
 106851041.266 8  83106359.987 6  19988689.994    19988701.159    19988708.894
        49.000          41.000
 124951675.254 5  97184641.127 5  23333843.289    23333843.876    23333847.696
        34.000          35.000
 112186138.05847  87417764.59147  21348305.196    21348305.042    21348311.970
        46.000          47.000
 131580979.12745 102530622.49044  25039028.055    25039027.032    25039031.444
        35.000          27.000
 114203468.30447  88989726.33747  21732195.657    21732196.024    21732202.047
        46.000          46.000
 118269926.56047  92158391.32347  22506014.575    22506014.303    22506020.168
        43.000          42.000
 123245904.05747  96035777.68144  23452911.378    23452910.703    23452911.925
        42.000          27.000
 107966915.49247  84130066.10346  20545413.694    20545413.955    20545417.829
        47.000          41.000
 126654107.60246  98691512.01645  24101474.586    24101474.077    24101477.614
        37.000          30.000
 20  5  3  0 37 30.0000000  0 10G16R 1R 8G26G 7G 3G 9G22G 4G31
 107995642.96948  84152449.53446  20550883.432    20550882.915    20550886.079
        48.000          40.000
 107000568.794 8  83222659.172 6  20016661.639    20016673.410    20016680.961
        48.000          41.000
 125152847.563 5  97341108.437 5  23371410.763    23371411.564    23371414.980
        34.000          34.000
 112312094.40747  87515912.39047  21372274.074    21372273.892    21372280.731
        46.000          47.000
 131573976.92845 102525166.17744  25037695.716    25037694.712    25037698.941
        35.000          27.000
 114356158.50847  89108705.69147  21761251.651    21761252.065    21761257.985
        46.000          46.000
 118261503.77547  92151828.11847  22504411.733    22504411.476    22504417.374
        43.000          42.000
 123420450.87747  96171788.17044  23486126.690    23486125.571    23486127.131
        42.000          26.000
 108009137.46848  84162966.33646  20553448.041    20553448.514    20553452.554
        48.000          41.000
 126823978.82946  98823879.17544  24133799.426    24133799.550    24133803.343
        37.000          29.000
 20  5  3  0 38  0.0000000  0 10G16R 1R 8G26G 7G 3G 9G22G 4G31
 108043384.10548  84189650.42746  20559968.134    20559967.689    20559970.870
        48.000          40.000
 107150671.454 8  83339405.672 6  20044740.861    20044753.312    20044760.645
        49.000          41.000
 125354197.569 5  97497713.955 5  23409012.597    23409012.552    23409016.450
        34.000          35.000
 112438542.78947  87614443.59147  21396336.507    21396336.355    21396342.931
        47.000          47.000
 131567032.69645 102519755.06544  25036374.053    25036373.562    25036377.693
        35.000          27.000
 114509244.99647  89227993.84947  21790383.166    21790383.501    21790389.315
        46.000          47.000
 118253216.62447  92145370.61447  22502834.556    22502834.407    22502840.207
        43.000          42.000
 123595142.50047  96307911.48044  23519368.964    23519368.369    23519369.659
        42.000          26.000
 108051681.48648  84196117.51046  20561544.448    20561544.467    20561548.438
        48.000          41.000
 126993833.84846  98956233.68944  24166122.743    24166121.824    24166125.444
        38.000          29.000
 20  5  3  0 38 30.0000000  0 10G16R 1R 8G26G 7G 3G 9G22G 4G31
 108091761.62548  84227347.20546  20569174.066    20569173.697    20569176.838
        48.000          40.000
 107301349.086 8  83456599.366 6  20072929.835    20072940.731    20072948.092
        48.000          41.000
 125555723.715 5  97654456.485 5  23446646.573    23446645.456    23446648.861
        34.000          34.000
 112565482.70547  87713357.79847  21420492.262    21420492.225    21420498.845
        46.000          47.000
 131560148.29245 102514390.54944  25035063.691    25035062.663    25035067.476
        35.000          27.000
 114662726.85947  89347590.09347  21819590.076    21819590.179    21819595.919
        47.000          46.000
 118245068.38447  92139021.36047  22501284.111    22501283.887    22501289.641
        44.000          42.000
 123769977.57747  96444146.58244  23552639.021    23552637.914    23552639.145
        42.000          26.000
 108094550.51447  84229521.94646  20569702.130    20569702.174    20569706.161
        47.000          41.000
 127163673.13646  99088575.96944  24198441.404    24198441.672    24198444.420
        37.000          29.000
 20  5  3  0 39  0.0000000  0 10G16R 1R 8G26G 7G 3G 9G22G 4G31
 108140760.05248  84265527.80146  20578498.146    20578497.572    20578500.888
        48.000          40.000
 107452583.525 8  83574226.139 6  20101221.297    20101232.199    20101239.705
        48.000          41.000
 125757406.730 6  97811320.992 6  23484309.171    23484310.194    23484313.035
        36.000          36.000
 112692895.86447  87812640.77247  21444738.130    21444738.142    21444744.619
        47.000          47.000
 131553306.94745 102509059.59744  25033761.313    25033761.229    25033765.410
        35.000          27.000
 114816585.34447  89467479.80147  21848868.106    21848868.533    21848874.205
        46.000          47.000
 118237044.57847  92132769.05147  22499757.189    22499757.117    22499762.619
        43.000          42.000
 123944937.20347  96580478.72044  23585932.892    23585931.956    23585933.527
        42.000          26.000
 108137729.75148  84263168.09946  20577918.835    20577918.956    20577922.959
        48.000          41.000
 127333479.30146  99220892.42944  24230754.335    24230754.388    24230757.362
        37.000          29.000
 20  5  3  0 39 30.0000000  0 10G16R 1R 8G26G 7G 3G 9G22G 4G31
 108190390.89448  84304201.19346  20587942.631    20587942.061    20587945.252
        49.000          40.000
 107604383.508 8  83692292.788 6  20129618.730    20129629.707    20129637.009
        49.000          41.000
 125959254.516 5  97968313.703 5  23522001.566    23522002.124    23522006.431
        34.000          34.000
 112820790.54347  87912298.95647  21469075.876    21469075.441    21469082.291
        45.000          47.000
 131546520.28145 102503771.27244  25032469.109    25032469.717    25032474.607
        35.000          27.000
 114970828.22847  89587669.04747  21878219.690    21878220.018    21878225.734
        46.000          47.000
 118229157.18947  92126623.05647  22498255.985    22498256.324    22498261.594
        44.000          43.000
 124120029.46147  96716914.21844  23619252.126    23619251.325    23619253.015
        42.000          26.000
 108181230.93347  84297065.12047  20586196.974    20586197.033    20586200.921
        47.000          42.000
 127503262.00346  99353190.62244  24263063.311    24263062.477    24263066.348
        36.000          28.000
 20  5  3  0 40  0.0000000  0 10G16R 1R 8G26G 7G 3G 9G22G 4G31
 108240655.02948  84343368.06046  20597507.620    20597506.973    20597510.278
        49.000          40.000
 107756747.544 8  83810798.127 6  20158122.134    20158132.140    20158139.786
        49.000          41.000
 126161265.508 5  98125433.359 5  23559726.093    23559727.204    23559731.785
        32.000          33.000
 112949165.24547  88012331.18447  21493504.689    21493504.772    21493511.203
        47.000          46.000
 131539788.76945 102498525.92044  25031189.491    25031189.247    25031193.275
        35.000          28.000
 115125453.57747  89708156.30947  21907643.721    21907644.214    21907650.020
        46.000          46.000
 118221408.58047  92120585.20347  22496781.881    22496782.102    22496787.029
        44.000          42.000
 124295251.79146  96853451.08544  23652595.610    23652594.794    23652596.687
        41.000          26.000
 108225056.06648  84331214.57146  20594536.361    20594536.514    20594540.599
        48.000          41.000
 127673020.86846  99485470.20944  24295366.511    24295367.117    24295369.958
        36.000          28.000
 20  5  3  0 40 30.0000000  0  9G16R 1G26G 7G 3G 9G22G 4G31
 108291577.55748  84383047.95646  20607197.788    20607197.261    20607200.607
        48.000          40.000
 107909698.663 8  83929760.099 6  20186733.935    20186745.008    20186752.605
        48.000          40.000
 113078042.02247  88112754.64347  21518029.046    21518029.154    21518035.547
        46.000          47.000
 131533137.08246 102493342.76144  25029922.726    25029923.742    25029927.314
        37.000          28.000
 115280482.99447  89828958.43047  21937144.693    21937145.266    21937151.188
        45.000          45.000
 118213824.63647  92114675.65347  22495338.978    22495338.805    22495343.968
        44.000          43.000
 124470626.02846  96990106.30444  23685967.573    23685966.345    23685969.082
        41.000          25.000
 108269230.75048  84365636.39946  20602942.621    20602942.700    20602946.969
        48.000          41.000
 127842778.81446  99617749.07844  24327670.499    24327670.915    24327673.729
        37.000          28.000
 20  5  3  0 41  0.0000000  0  9G16R 1G26G 7G 3G 9G22G 4G31
 106767724.24847  83195629.79746  20317218.112    20317217.538    20317220.812
        47.000          40.000
 106460660.717 8  82802730.575 6  19915661.451    19915672.388    19915680.482
        48.000          40.000
 111631986.53247  86985958.15247  21242853.808    21242853.800    21242860.598
        46.000          47.000
 129951128.66946 101260608.91644  24728877.730    24728877.107    24728880.932
        36.000          28.000
 113860482.53547  88722464.54247  21666927.758    21666928.031    21666934.162
        46.000          45.000
 116630970.27747  90881282.65747  22194131.558    22194131.484    22194136.796
        44.000          43.000
 123070718.61746  95899269.33044  23419574.624    23419573.024    23419575.949
        41.000          25.000
 106738321.27047  83172719.91446  20311619.993    20311620.288    20311624.234
        47.000          41.000
 126437104.29746  98522418.25144  24060181.049    24060180.062    24060182.561
        36.000          28.000
 20  5  3  0 41 30.0000000  0  9G16R 1G26G 7G 3G 9G22G 4G31
 106819920.09348  83236301.89046  20327150.704    20327150.133    20327153.428
        49.000          40.000
 106614734.093 8  82922565.402 6  19944483.185    19944494.968    19944502.604
        48.000          40.000
 111761815.68647  87087123.72247  21267559.453    21267559.473    21267566.092
        46.000          47.000
 129944591.22646 101255514.78544  24727633.971    24727633.941    24727637.758
        36.000          28.000
 114016266.94047  88843854.96647  21696572.143    21696572.806    21696578.987
        45.000          45.000
 116623675.40347  90875598.35947  22192743.505    22192743.269    22192748.543
        43.000          43.000
 123246343.07846  96036119.52144  23452994.883    23452993.576    23452996.649
        41.000          25.000
 106783153.78148  83207654.33147  20320151.419    20320151.632    20320155.801
        48.000          42.000
 126606812.85546  98654658.63444  24092474.550    24092474.216    24092477.795
        36.000          28.000
 20  5  3  0 42  0.0000000  0  9G16R 1G26G 7G 3G 9G22G 4G31
 106872761.86248  83277477.30246  20337206.032    20337205.620    20337208.994
        49.000          40.000
 106769374.153 8  83042840.996 6  19973412.159    19973423.803    19973431.295
        48.000          40.000
 111892126.23547  87188664.40947  21292357.110    21292356.655    21292363.376
        46.000          46.000
 129938120.40046 101250472.57144  24726403.029    24726402.553    24726406.363
        36.000          28.000
 114172433.42047  88965543.11347  21726289.918    21726290.245    21726296.426
        45.000          46.000
 116616536.12647  90870035.29947  22191384.444    22191384.429    22191389.962
        43.000          43.000
 123422097.21947  96173070.77744  23486439.287    23486439.023    23486440.338
        42.000          25.000
 106828325.71448  83242853.23547  20328747.210    20328747.638    20328751.643
        48.000          42.000
 126776503.35345  98786884.93044  24124765.855    24124765.373    24124769.260
        35.000          28.000
 20  5  3  0 42 30.0000000  0  9G16R 1G26G 7G 3G 9G22G 4G31
 106926240.59148  83319149.04246  20347382.740    20347382.143    20347385.567
        48.000          40.000
 106924569.406 8  83163548.400 6  20002444.346    20002456.232    20002463.438
        48.000          40.000
 112022906.26947  87290570.92147  21317243.478    21317243.231    21317250.024
        46.000          47.000
 129931706.40646 101245474.62344  24725181.110    24725181.522    24725186.038
        36.000          28.000
 114328969.57347  89087519.31347  21756077.850    21756078.161    21756084.292
        45.000          45.000
 116609544.44047  90864587.24447  22190053.657    22190053.763    22190059.470
        43.000          43.000
 123597968.42346  96310113.26144  23519906.239    23519905.271    23519908.178
        41.000          25.000
 106873828.72247  83278310.12146  20337406.325    20337406.357    20337410.577
        47.000          41.000
 126946165.00746  98919088.78644  24157051.137    24157051.633    24157054.377
        36.000          28.000
 20  5  3  0 43  0.0000000  0  9G16R 1G26G 7G 3G 9G22G 4G31
 106980356.44148  83361317.23846  20357680.605    20357679.981    20357683.551
        49.000          40.000
 107080317.329 8  83284685.661 6  20031579.969    20031592.151    20031599.369
        48.000          40.000
 112154153.46547  87392841.46347  21342219.109    21342218.981    21342225.337
        46.000          46.000
 129925349.12446 101240520.88944  24723972.202    24723972.119    24723976.315
        37.000          28.000
 114485872.64947  89209781.43047  21785935.530    21785935.831    21785941.974
        45.000          45.000
 116602701.93947  90859255.44047  22188751.764    22188751.739    22188757.556
        43.000          42.000
 123773953.88546  96447244.74744  23553395.604    23553394.520    23553397.003
        40.000          24.000
 106919664.05548  83314025.95846  20346128.549    20346128.732    20346132.719
        49.000          41.000
 127115796.95545  99051269.47544  24189331.807    24189331.196    24189334.525
        35.000          28.000
 20  5  3  0 43 30.0000000  0  9G16R 1G26G 7G 3G 9G22G 4G31
 107035103.89248  83403977.59846  20368098.791    20368098.321    20368101.590
        48.000          41.000
 107236609.805 8  83406246.455 6  20060819.208    20060830.028    20060837.156
        48.000          40.000
 112285859.58147  87495469.59747  21367281.794    21367281.542    21367288.464
        45.000          46.000
 129919042.89946 101235606.92544  24722772.541    24722772.318    24722776.314
        36.000          28.000
 114643133.99347  89332322.71847  21815861.583    21815861.691    21815867.901
        46.000          46.000
 116596004.35847  90854036.56047  22187477.545    22187477.350    22187483.045
        43.000          43.000
 123950044.92846  96584458.51744  23586904.585    23586903.389    23586906.127
        40.000          24.000
 106965827.03448  83349997.10447  20354913.309    20354913.266    20354917.238
        48.000          42.000
 127285392.16846  99183421.53144  24221604.366    24221604.113    24221607.421
        36.000          28.000
 20  5  3  0 44  0.0000000  0  9G16R 1G26G 7G 3G 9G22G 4G31
 107090488.88848  83447134.73646  20378638.221    20378637.602    20378641.032
        48.000          40.000
 107393450.449 8  83528233.611 6  20090159.184    20090169.830    20090177.812
        48.000          40.000
 112418027.79647  87598457.81347  21392432.762    21392432.770    21392439.093
        46.000          46.000
 129912793.23546 101230737.05744  24721582.963    24721583.039    24721587.448
        37.000          29.000
 114800756.33447  89455145.30647  21845855.913    21845856.213    21845862.499
        45.000          45.000
 116589458.82547  90848936.15947  22186231.686    22186231.812    22186237.361
        44.000          43.000
 124126244.44846  96721756.82444  23620434.146    23620433.695    23620436.088
        41.000          24.000
 107012324.43748  83386228.84647  20363761.475    20363761.522    20363765.345
        49.000          42.000
 127454955.48945  99315548.73544  24253871.215    24253870.963    24253874.494
        35.000          28.000
 20  5  3  0 44 30.0000000  0  9G16R 1G26G 7G 3G 9G22G 4G31
 107146505.80947  83490784.29246  20389297.651    20389297.334    20389300.668
        47.000          40.000
 107550830.826 8  83650640.558 6  20119600.557    20119611.234    20119619.032
        48.000          40.000
 112550649.66947  87701799.52747  21417669.757    21417669.760    21417676.035
        45.000          46.000
 129906594.09546 101225906.53344  24720403.051    24720403.649    24720407.291
        37.000          29.000
 114958730.80847  89578242.28047  21875917.542    21875917.801    21875924.068
        45.000          45.000
 116583060.90047  90843950.78147  22185014.517    22185014.284    22185019.749
        44.000          43.000
 124302543.55146  96859132.71544  23653982.883    23653982.128    23653984.927
        40.000          24.000
 107059151.45148  83422717.42947  20372672.154    20372672.224    20372676.356
        48.000          42.000
 127624479.38046  99447645.21444  24286130.279    24286130.766    24286134.049
        36.000          28.000
 20  5  3  0 45  0.0000000  0  9G16R 1G26G 7G 3G 9G22G 4G31
 107203154.64448  83534926.24846  20400077.896    20400077.259    20400080.710
        48.000          41.000
 107708748.766 7  83773465.618 6  20149141.761    20149153.443    20149160.632
        47.000          40.000
 112683722.85447  87805492.91547  21442992.702    21442992.664    21442999.076
        46.000          46.000
 129900445.62446 101221115.51844  24719232.919    24719233.304    24719237.731
        37.000          29.000
 115117054.59047  89701611.43947  21906045.503    21906045.932    21906052.127
        45.000          45.000
 116576812.21647  90839081.69547  22183825.490    22183825.071    22183830.705
        43.000          43.000
 124478939.48346  96996584.04544  23687549.928    23687549.118    23687551.313
        40.000          24.000
 107106309.25248  83459463.76647  20381646.138    20381646.155    20381650.225
        49.000          42.000
 127793962.84945  99579710.21044  24318381.264    24318381.857    24318385.976
        34.000          27.000
 20  5  3  0 45 30.0000000  0  9G16R 1G26G 7G 3G 9G22G 4G31
 107260447.69047  83579570.17746  20410980.332    20410979.775    20410983.097
        47.000          41.000
 107867214.048 8  83896716.372 6  20178786.369    20178797.290    20178804.703
        48.000          40.000
 112817256.81147  87909545.35147  21468403.275    21468403.187    21468409.551
        46.000          45.000
 129894359.97046 101216373.42244  24718075.305    24718074.766    24718078.632
        37.000          29.000
 115275736.82947  89825259.92047  21936242.108    21936242.320    21936248.338
        45.000          45.000
 116570726.31547  90834339.44547  22182667.269    22182667.122    22182672.591
        44.000          43.000
 124655441.15246  97134117.80544  23721136.888    23721135.990    23721138.936
        40.000          24.000
 107153810.96448  83496478.08247  20390685.363    20390685.423    20390689.626
        48.000          42.000
 127963416.99645  99711752.35744  24350628.504    24350627.634    24350631.782
        34.000          26.000
 20  5  3  0 46  0.0000000  0  9G16R 1G26G 7G 3G 9G22G 4G31
 107318375.92747  83624709.07446  20422003.615    20422003.198    20422006.294
        47.000          40.000
 108026215.230 8  84020383.954 6  20208530.276    20208541.572    20208549.385
        48.000          40.000
 112951240.12547  88013947.92647  21493899.366    21493899.565    21493905.868
        46.000          45.000
 129888327.77346 101211673.00944  24716927.255    24716926.866    24716931.420
        37.000          29.000
 115434765.53747  89949178.37247  21966504.472    21966504.556    21966510.518
        45.000          45.000
 116564795.76147  90829718.25647  22181538.581    22181538.686    22181544.084
        45.000          44.000
 124832036.72946  97271724.69643  23754742.086    23754741.033    23754744.629
        39.000          23.000
 107201648.73848  83533754.26747  20399788.599    20399788.696    20399792.732
        48.000          42.000
 128132831.22645  99843763.40844  24382866.187    24382866.322    24382869.830
        34.000          25.000
 20  5  3  0 46 30.0000000  0  9G16R 1G26G 7G 3G 9G22G 4G31
 107376935.96748  83670340.27446  20433147.184    20433146.739    20433149.995
        48.000          40.000
 108185746.330 7  84144463.675 6  20238373.601    20238385.630    20238393.088
        47.000          40.000
 113085666.69147  88118695.90347  21519480.329    21519480.276    21519486.450
        46.000          46.000
 129882346.16646 101207011.98744  24715787.918    24715788.349    24715793.005
        37.000          29.000
 115594134.29447  90073361.80247  21996831.221    21996831.420    21996837.382
        46.000          45.000
 116559018.57147  90825216.55247  22180439.193    22180439.414    22180444.595
        44.000          44.000
 125008719.95746  97409399.90043  23788363.929    23788362.704    23788364.889
        40.000          23.000
 107249820.15248  83571290.43247  20408955.157    20408955.300    20408959.487
        48.000          42.000
 128302201.23445  99975739.99544  24415095.438    24415096.843    24415099.933
        35.000          25.000
 20  5  3  0 47  0.0000000  0  9G16R 1G26G 7G 3G 9G22G 4G31
 107436128.11448  83716464.02746  20444410.783    20444410.308    20444414.052
        48.000          40.000
 108345804.956 8  84268953.702 6  20268315.996    20268327.651    20268335.098
        48.000          40.000
 113220534.01847  88223787.31347  21545144.342    21545144.388    21545150.929
        45.000          46.000
 129876414.70146 101202390.04244  24714659.722    24714659.680    24714664.415
        37.000          29.000
 115753840.14047  90197807.89447  22027222.166    22027222.492    22027228.323
        45.000          45.000
 116553396.25847  90820835.54347  22179369.638    22179369.558    22179374.757
        44.000          44.000
 125185487.77046  97547141.03243  23822001.106    23822000.891    23822002.178
        39.000          23.000
 107298326.31848  83609087.43347  20418185.686    20418185.583    20418189.958
        49.000          42.000
 128471526.06545 100107681.37044  24447317.010    24447317.590    24447321.929
        33.000          24.000
 20  5  3  0 47 30.0000000  0  9G16R 1G26G 7G 3G 9G22G 4G31
 107495958.51848  83763085.13046  20455796.253    20455795.787    20455799.202
        48.000          40.000
 108506394.862 8  84393856.937 6  20298358.758    20298369.275    20298376.696
        48.000          40.000
 113355845.75247  88329225.02347  21570893.693    21570893.382    21570900.071
        45.000          45.000
 129870539.54046 101197811.96844  24713542.370    24713541.822    24713546.588
        37.000          29.000
 115913886.33347  90322519.19347  22057677.983    22057678.328    22057684.066
        45.000          45.000
 116547936.62847  90816581.28847  22178330.650    22178330.653    22178335.963
        45.000          44.000
 125362343.42346  97684950.58543  23855656.197    23855655.038    23855657.600
        40.000          23.000
 107347174.53948  83647150.97747  20427480.993    20427481.189    20427485.312
        48.000          42.000
 128640810.55045 100239591.31844  24479530.942    24479531.895    24479535.087
        34.000          24.000
 20  5  3  0 48  0.0000000  0  9G16R 1G26G 7G 3G 9G22G 4G31
 107556426.92548  83810203.37346  20467303.021    20467302.634    20467306.130
        48.000          40.000
 108667513.622 8  84519171.516 6  20328498.877    20328510.303    20328517.421
        48.000          40.000
 113491599.17447  88435006.91447  21596726.562    21596726.437    21596733.001
        46.000          46.000
 129864720.45746 101193277.62045  24712434.768    24712434.481    24712439.141
        37.000          30.000
 116074269.72147  90447493.24747  22088197.987    22088198.240    22088204.002
        45.000          45.000
 116542641.06047  90812454.87547  22177322.742    22177323.076    22177328.441
        45.000          44.000
 125539283.73546  97822826.13543  23889326.570    23889326.239    23889328.969
        40.000          22.000
 107396365.72648  83685481.76947  20436841.976    20436842.125    20436846.240
        49.000          42.000
 128810053.32145 100371468.74744  24511737.122    24511737.661    24511740.980
        34.000          24.000
 20  5  3  0 48 30.0000000  0  9G16R 1G26G 7G 3G 9G22G 4G31
 107617532.10948  83857817.80746  20478931.189    20478930.586    20478933.990
        48.000          40.000
 108829157.491 8  84644894.503 6  20358737.611    20358748.703    20358756.106
        48.000          39.000
 113627790.60647  88541130.10547  21622642.989    21622642.954    21622649.306
        46.000          46.000
 129858956.47246 101188786.18444  24711338.017    24711338.024    24711342.203
        37.000          29.000
 116234986.23747  90572726.87447  22118781.219    22118781.601    22118787.289
        45.000          44.000
 116537509.99147  90808456.64047  22176346.929    22176346.722    22176352.093
        45.000          45.000
 125716304.88646  97960764.65043  23923013.251    23923011.842    23923014.644
        40.000          23.000
 107445899.87448  83724079.79647  20446268.101    20446268.242    20446272.196
        49.000          42.000
 128979252.28745 100503312.07843  24543936.764    24543935.297    24543937.440
        34.000          23.000
 20  5  3  0 49  0.0000000  0  9G16R 1G26G 7G 3G 9G22G 4G31
 107679275.70448  83905929.70546  20490680.454    20490679.985    20490683.240
        48.000          40.000
 108991325.877 7  84771025.463 6  20389074.611    20389085.556    20389093.267
        47.000          39.000
 113764419.38047  88647594.08447  21648642.382    21648642.193    21648648.970
        45.000          45.000
 129853249.26146 101184338.99245  24710252.230    24710252.314    24710256.256
        38.000          30.000
 116396034.73447  90698219.18747  22149427.635    22149427.990    22149433.842
        45.000          45.000
 116532546.89747  90804589.29747  22175402.138    22175402.115    22175407.590
        45.000          45.000
 125893405.98346  98098765.47343  23956714.437    23956713.753    23956715.157
        41.000          23.000
 107495779.95048  83762947.38047  20455759.863    20455760.041    20455763.972
        48.000          42.000
 129148408.03045 100635121.69443  24576124.156    24576124.042    24576127.820
        33.000          21.000
 20  5  3  0 49 30.0000000  0  9G16R 1G26G 7G 3G 9G22G 4G31
 107741653.19948  83954535.54846  20502550.456    20502550.076    20502553.409
        48.000          40.000
 109154011.236 7  84897558.485 6  20419509.088    20419519.709    20419526.687
        47.000          39.000
 113901477.94447  88754392.95447  21674723.358    21674723.762    21674730.385
        45.000          46.000
 129847593.91346 101179932.22345  24709176.500    24709176.047    24709179.808
        38.000          30.000
 116557407.31147  90823964.03647  22180135.930    22180136.170    22180142.145
        45.000          44.000
 116527748.42547  90800850.22747  22174489.100    22174488.729    22174494.387
        45.000          45.000
 126070579.02646  98236822.35643  23990429.603    23990428.743    23990430.076
        40.000          23.000
 107546002.08748  83802081.51347  20465317.002    20465316.919    20465320.955
        49.000          43.000
 129317514.66545 100766893.05143  24608304.348    24608304.179    24608308.468
        32.000          20.000
 20  5  3  0 50  0.0000000  0  9G16R 1G26G 7G 3G 9G22G 4G31
 107804668.42748  84003638.33146  20514542.018    20514541.341    20514544.835
        49.000          40.000
 109317215.610 7  85024495.210 6  20450038.591    20450050.371    20450057.768
        47.000          39.000
 114038968.26647  88861528.26347  21700887.502    21700887.345    21700893.880
        46.000          45.000
 129841995.30446 101175569.64545  24708110.456    24708110.616    24708114.107
        38.000          30.000
 116719105.46847  90949962.58547  22210905.249    22210906.079    22210912.335
        45.000          44.000
 116523120.64847  90797244.17747  22173607.969    22173608.081    22173613.529
        46.000          45.000
 126247825.60346  98374936.51543  24024158.467    24024158.538    24024159.709
        40.000          23.000
 107596571.92848  83841486.57547  20474940.008    20474939.974    20474943.982
        49.000          42.000
 129486575.70945 100898628.90143  24640475.192    24640475.544    24640479.388
        33.000          21.000
 20  5  3  0 50 30.0000000  0  9G16R 1G26G 7G 3G 9G22G 4G31
 107868318.04348  84053235.43446  20526653.891    20526653.410    20526657.034
        48.000          40.000
 109480932.952 7  85151830.916 6  20480664.036    20480677.063    20480684.842
        47.000          39.000
 114176884.12547  88968995.15647  21727131.913    21727131.911    21727138.328
        46.000          46.000
 129836449.58246 101171248.29045  24707055.143    24707055.299    24707058.796
        37.000          30.000
 116881122.63847  91076209.70947  22241736.745    22241736.851    22241743.152
        45.000          44.000
 116518661.62847  90793769.62247  22172759.650    22172759.619    22172764.915
        45.000          44.000
 126425139.20246  98513102.92543  24057900.412    24057899.809    24057900.748
        40.000          22.000
 107647486.91548  83881160.58747  20484628.958    20484628.838    20484632.860
        49.000          43.000
 129655586.72845 101030325.73443  24672635.627    24672637.384    24672642.186
        31.000          20.000
 20  5  3  0 51  0.0000000  0  9G16R 1G26G 7G 3G 9G22G 4G31
 107932603.96148  84103328.36346  20538887.057    20538886.648    20538890.081
        48.000          40.000
 109645162.712 7  85279565.138 6  20511388.524    20511399.175    20511407.008
        47.000          40.000
 114315225.13947  89076793.34647  21753457.505    21753457.309    21753463.925
        45.000          45.000
 129830958.68346 101166969.67545  24706010.656    24706010.558    24706014.458
        37.000          30.000
 117043458.00247  91202704.77547  22272628.038    22272628.175    22272634.644
        44.000          44.000
 116514375.11147  90790429.49147  22171943.933    22171943.932    22171949.159
        45.000          44.000
 126602519.07046  98651320.94143  24091654.380    24091653.094    24091656.066
        39.000          23.000
 107698750.35648  83921106.12347  20494383.970    20494383.907    20494388.020
        49.000          43.000
 129824548.44345 101161984.17643  24704790.636    24704789.239    24704793.487
        30.000          19.000
 20  5  3  0 51 30.0000000  0  9G16R 1G26G 7G 3G 9G22G 4G31
 106422102.44648  82926314.20546  20251448.289    20251447.768    20251451.292
        48.000          40.000
 108207339.475 7  84161258.157 6  20242415.278    20242424.811    20242432.465
        47.000          40.000
 112878567.59247  87957319.92847  21480070.456    21480070.516    21480077.027
        45.000          46.000
 128250096.44346  99935128.94745  24405181.247    24405182.357    24405186.407
        38.000          30.000
 115630688.22647  90101845.19247  22003787.172    22003787.258    22003793.532
        44.000          44.000
 114934836.93147  89559620.52647  21871367.892    21871367.810    21871372.875
        45.000          44.000
 125204542.71746  97561988.68543  23825628.678    23825627.603    23825629.188
        40.000          23.000
 106174939.30148  82733720.87947  20204412.379    20204412.415    20204416.343
        49.000          43.000
 128418040.04044 100066003.52243  24437141.279    24437140.684    24437144.162
        29.000          18.000
 20  5  3  0 52  0.0000000  0  9G16R 1G26G 7G 3G 9G22G 4G31
 106487643.86548  82977385.44446  20263920.408    20263920.059    20263923.125
        48.000          40.000
 108372569.619 8  84289770.481 6  20273322.808    20273335.004    20273342.408
        48.000          39.000
 113017734.55847  88065761.71447  21506553.210    21506553.128    21506559.654
        45.000          45.000
 128244698.50746  99930922.78745  24404155.837    24404155.337    24404158.689
        38.000          30.000
 115793634.42447  90228816.22947  22034794.602    22034794.815    22034801.264
        44.000          43.000
 114930883.84147  89556540.21547  21870615.768    21870615.845    21870620.442
        45.000          44.000
 125382030.22146  97700290.59843  23859403.225    23859402.822    23859403.727
        40.000          22.000
 106226886.36448  82774199.11347  20214297.469    20214297.565    20214301.749
        49.000          43.000
 128586883.83044 100197570.10142  24469269.511    24469269.678    24469274.063
        29.000          16.000
 20  5  3  0 52 30.0000000  0  9G16R 1G26G 7G 3G 9G22G 4G31
 106553819.20348  83028950.64746  20276513.284    20276512.653    20276515.901
        49.000          40.000
 108538302.633 7  84418673.917 6  20304325.742    20304338.198    20304346.237
        47.000          39.000
 113157317.20147  88174527.40447  21533115.137    21533114.806    21533121.234
        45.000          45.000
 128239354.04246  99926758.25645  24403137.774    24403137.955    24403141.668
        38.000          30.000
 115956888.09647  90356026.87047  22065860.356    22065860.819    22065867.428
        44.000          43.000
 114927106.47647  89553596.83447  21869897.073    21869896.973    21869901.814
        46.000          45.000
 125559573.99046  97838636.33843  23893189.145    23893188.022    23893189.736
        40.000          22.000
 106279183.46148  82814950.09647  20224249.277    20224249.234    20224253.591
        49.000          43.000
 128755673.64344 100329094.55942  24501390.184    24501389.295    24501394.015
        28.000          16.000
 20  5  3  0 53  0.0000000  0  9G16R 1G26G 7G 3G 9G22G 4G31
 106620625.31048  83081007.35946  20289226.158    20289225.457    20289228.733
        48.000          40.000
 108704533.325 7  84547964.432 6  20335423.892    20335435.096    20335442.952
        47.000          39.000
 113297310.18847  88283612.84447  21559754.738    21559754.634    21559761.306
        45.000          45.000
 128234060.07546  99922633.06145  24402131.301    24402130.735    24402133.822
        38.000          30.000
 116120443.58047  90483472.68347  22096984.207    22096984.432    22096990.926
        44.000          44.000
 114923503.86947  89550789.61947  21869211.142    21869211.152    21869216.379
        45.000          45.000
 125737168.39346  97977021.54443  23926983.843    23926983.602    23926984.480
        40.000          23.000
 106331828.98548  82855972.58247  20234267.431    20234267.539    20234271.598
        48.000          43.000
 128924405.67144 100460574.04642  24533500.071    24533497.879    24533501.794
        28.000          17.000
 20  5  3  0 53 30.0000000  0 10G16R 1G26G 7G 3G 9G22G 4G31R 3
 106688070.50648  83133562.06746  20302060.286    20302059.883    20302063.071
        48.000          40.000
 108871267.484 7  84677646.526 6  20366614.860    20366626.304    20366633.958
        47.000          39.000
 113437719.14347  88393022.40547  21586473.725    21586473.400    21586479.998
        45.000          45.000
 128228824.48746  99918553.37645  24401134.634    24401134.019    24401137.856
        38.000          30.000
 116284306.08447  90611157.72847  22128166.286    22128166.451    22128173.015
        43.000          43.000
 114920085.85847  89548126.24647  21868560.814    21868560.521    21868565.992
        45.000          45.000
 125914818.41246  98115450.06743  23960789.490    23960788.452    23960790.655
        40.000          22.000
 106384832.24248  82897273.82147  20244353.758    20244353.721    20244357.808
        49.000          43.000
 129093087.39344 100592014.27242  24565597.712    24565598.157    24565601.549
        29.000          17.000
 126259550.918 6  98201880.799 5  23586344.687    23586344.796    23586347.893
        39.000          34.000
 20  5  3  0 54  0.0000000  0 10G16R 1G26G 7G 3G 9G22G 4G31R 3
 106756134.89647  83186599.26046  20315012.574    20315012.160    20315015.366
        47.000          40.000
 109038482.707 7  84807702.792 6  20397896.140    20397907.135    20397915.583
        47.000          39.000
 113578522.17547  88502739.05247  21613267.492    21613267.289    21613273.871
        45.000          45.000
 128223628.70246  99914504.71945  24400145.645    24400144.971    24400148.849
        38.000          30.000
 116448453.30547  90739064.63547  22159402.654    22159402.785    22159409.162
        44.000          43.000
 114916834.87647  89545593.02947  21867941.814    21867941.856    21867947.581
        45.000          44.000
 126092502.50646  98253905.18543  23994601.890    23994601.264    23994603.125
        40.000          22.000
 106438175.07448  82938839.66647  20254504.500    20254504.452    20254508.547
        49.000          43.000
 129261698.49344 100723399.54642  24597684.021    24597682.367    24597686.210
        28.000          16.000
 126209929.156 6  98163286.075 5  23577073.834    23577074.678    23577077.799
        40.000          34.000
 20  5  3  0 54 30.0000000  0 10G16R 1G26G 7G 3G 9G22G 4G31R 3
 106824833.98648  83240131.02546  20328085.629    20328085.107    20328088.360
        49.000          40.000
 109206192.219 7  84938143.515 6  20429270.264    20429281.808    20429289.188
        47.000          39.000
 113719732.40247  88612772.99147  21640138.858    21640138.750    21640145.557
        45.000          45.000
 128218488.13346  99910499.07245  24399167.555    24399166.324    24399170.967
        37.000          30.000
 116612897.97147  90867203.31347  22190695.180    22190695.549    22190702.012
        44.000          43.000
 114913768.35447  89543203.54147  21867358.137    21867358.262    21867364.071
        45.000          45.000
 126270233.13946  98392396.52843  24028422.990    24028420.960    24028423.824
        40.000          21.000
 106491874.28248  82980683.20547  20264723.177    20264723.279    20264727.085
        49.000          43.000
 129430253.90944 100854741.37642  24629760.064    24629758.866    24629762.639
        28.000          15.000
 126160351.040 6  98124725.315 5  23567812.915    23567812.737    23567816.244
        39.000          34.000
 20  5  3  0 55  0.0000000  0 10G16R 1G26G 7G 3G 9G22G 4G31R 3
 106894167.57648  83294157.20446  20341279.323    20341278.857    20341282.111
        49.000          41.000
 109374393.910 7  85068967.039 6  20460734.907    20460746.940    20460754.604
        47.000          39.000
 113861347.41247  88723122.33947  21667087.771    21667087.423    21667093.835
        45.000          45.000
 128213402.83146  99906536.49945  24398199.611    24398198.962    24398203.044
        37.000          30.000
 116777637.29047  90995571.59047  22222044.406    22222044.779    22222050.854
        44.000          43.000
 114910888.16247  89540959.25447  21866810.027    21866810.203    21866815.962
        44.000          45.000
 126448007.87246  98530922.25543  24062252.317    24062251.489    24062253.398
        40.000          22.000
 106545931.16348  83022805.44447  20275009.721    20275009.892    20275013.824
        50.000          43.000
 129598752.98144 100986039.31842  24661823.995    24661822.548    24661826.578
        28.000          15.000
 126110820.049 6  98086201.202 5  23558560.456    23558560.243    23558563.615
        39.000          35.000
 20  5  3  0 55 30.0000000  0 11G27G16R 1G26G 7G 3G 9G22G 4G31R 3
 128338075.50545                  24421920.954
        35.000
 106964135.85148  83348677.93946  20354594.151    20354593.397    20354596.573
        48.000          40.000
 109543085.277 7  85200171.407 6  20492293.574    20492304.106    20492312.017
        47.000          39.000
 114003365.16547  88833785.52247  21694112.679    21694112.552    21694119.018
        46.000          45.000
 128208373.46846  99902617.51045  24397243.134    24397241.744    24397246.550
        37.000          30.000
 116942668.77947  91124167.53347  22253449.066    22253449.440    22253455.290
        44.000          43.000
 114908196.63147  89538861.96947  21866298.338    21866298.221    21866303.749
        45.000          45.000
 126625824.40246  98669480.54243  24096088.813    24096088.350    24096089.696
        40.000          21.000
 106600347.37548  83065207.68247  20285364.992    20285364.891    20285368.908
        49.000          43.000
 129767194.83844 101117292.66042  24693874.906    24693874.036    24693880.250
        27.000          12.000
 126061339.515 6  98047716.349 5  23549316.498    23549317.503    23549321.205
        39.000          35.000
 20  5  3  0 56  0.0000000  0 10G27G16R 1G26G 7G 3G 9G22G 4R 3
 128315475.80846  99986088.75545  24417621.069    24417621.349    24417628.286
        39.000          33.000
 107034742.67648  83403696.25446  20368029.983    20368029.663    20368032.676
        48.000          40.000
 109712268.023 7  85331757.963 6  20523943.221    20523953.197    20523960.477
        47.000          39.000
 114145787.15047  88944763.68847  21721214.819    21721214.361    21721221.174
        45.000          45.000
 128203404.51246  99898745.59745  24396296.946    24396296.119    24396300.594
        37.000          30.000
 117107993.60147  91252992.04147  22284909.305    22284909.835    22284915.418
        44.000          43.000
 114905699.57547  89536916.22747  21865823.451    21865823.324    21865828.459
        45.000          45.000
 126803684.06146  98808072.43943  24129935.199    24129934.178    24129936.018
        39.000          20.000
 106655128.17948  83107894.01347  20295789.238    20295789.299    20295793.341
        49.000          43.000
 126011916.726 6  98009276.401 6  23540083.049    23540083.436    23540088.521
        38.000          36.000
 20  5  3  0 56 30.0000000  0 10G27G16R 1G26G 7G 3G 9G22G 4R 3
 128292924.88246  99968516.68445  24413329.758    24413329.619    24413336.645
        36.000          30.000
 107105987.46348  83459211.67746  20381587.378    20381586.840    20381589.992
        48.000          40.000
 109881939.474 7  85463724.628 6  20555682.792    20555693.726    20555701.749
        47.000          39.000
 114288610.93347  89056054.93847  21748392.770    21748392.880    21748399.252
        45.000          44.000
 128198496.04746  99894920.81645  24395363.201    24395361.918    24395366.615
        37.000          30.000
 117273608.90847  91382042.90747  22316424.799    22316425.468    22316430.951
        44.000          43.000
 114903398.93247  89535123.53147  21865385.510    21865385.669    21865390.703
        46.000          46.000
 126981584.36746  98946696.02443  24163788.639    24163787.299    24163788.451
        39.000          21.000
 106710274.83748  83150865.43147  20306283.112    20306283.392    20306287.220
        49.000          43.000
 125962554.966 6  97970883.900 5  23530863.190    23530861.311    23530866.770
        38.000          35.000
 20  5  3  0 57  0.0000000  0 10G27G16R 1G26G 7G 3G 9G22G 4R 3
 128270440.05246  99950996.07744  24409051.184    24409051.261    24409057.996
        36.000          29.000
 107177884.31048  83515235.19746  20395268.726    20395268.400    20395271.724
        48.000          41.000
 110052111.372 7  85596080.526 6  20587517.209    20587528.383    20587535.753
        47.000          39.000
 114431848.08147  89167668.29747  21775650.031    21775650.005    21775656.649
        45.000          44.000
 128193661.80946  99891153.87345  24394442.370    24394441.945    24394446.357
        37.000          30.000
 117439525.87447  91511328.84047  22347998.334    22347998.480    22348003.956
        44.000          43.000
 114901310.66047  89533496.32547  21864988.260    21864988.192    21864993.357
        46.000          45.000
 127159536.69946  99085360.12443  24197652.090    24197651.016    24197652.950
        39.000          20.000
 106765802.61648  83194133.82547  20316849.999    20316849.952    20316854.070
        50.000          43.000
 125913271.740 6  97932552.506 6  23521656.840    23521655.016    23521661.200
        38.000          36.000
 20  5  3  0 57 30.0000000  0 10G27G16R 1G26G 7G 3G 9G22G 4R 3
 128247997.19846  99933508.24145  24404779.884    24404780.457    24404786.945
        36.000          30.000
 107250405.19948  83571744.98646  20409068.997    20409068.594    20409071.908
        49.000          40.000
 110222753.200 7  85728801.919 6  20619438.941    20619449.965    20619457.606
        47.000          39.000
 114575468.67847  89279580.44047  21802980.268    21802980.153    21802986.526
        45.000          44.000
 128188875.05146  99887423.93645  24393532.742    24393531.213    24393535.782
        38.000          30.000
 117605714.24147  91640826.24047  22379622.373    22379622.888    22379628.639
        44.000          43.000
 114899409.23347  89532014.70647  21864626.333    21864626.139    21864631.474
        46.000          46.000
 127337510.74846  99224041.16243  24231519.121    24231518.656    24231519.709
        40.000          20.000
 106821685.34148  83237678.80147  20327484.120    20327484.149    20327488.203
        49.000          43.000
 125864042.321 6  97894262.976 6  23512459.493    23512458.937    23512465.067
        38.000          36.000
 20  5  3  0 58  0.0000000  0 10G27G16R 1G26G 7G 3G 9G22G 4R 3
 128225607.60746  99916061.84345  24400519.112    24400519.508    24400526.844
        36.000          30.000
 107323558.14948  83628747.29046  20422989.643    20422989.254    20422992.323
        48.000          40.000
 110393870.638 7  85861893.238 6  20651449.934    20651461.232    20651468.859
        47.000          39.000
 114719478.20047  89391795.64147  21830384.550    21830384.420    21830390.642
        45.000          44.000
 128184143.49746  99883737.00545  24392631.716    24392630.878    24392635.441
        37.000          30.000
 117772179.01547  91770539.02747  22411299.241    22411299.994    22411305.676
        44.000          43.000
 114897704.49847  89530686.35847  21864301.513    21864301.507    21864306.958
        46.000          46.000
 127515511.88846  99362743.31643  24265391.501    24265391.058    24265393.292
        39.000          21.000
 106877932.20548  83281507.52347  20338187.700    20338187.653    20338191.590
        49.000          43.000
 125814878.138 6  97856024.164 6  23503273.726    23503274.351    23503279.255
        39.000          36.000
 20  5  3  0 58 30.0000000  0 10G27G16R 1G26G 7G 3G 9G22G 4R 3
 128203283.93345  99898666.81844  24396270.796    24396271.342    24396278.158
        35.000          29.000
 107397351.63448  83686248.70746  20437032.122    20437031.611    20437034.797
        48.000          40.000
 110565470.606 7  85995359.859 6  20683552.237    20683562.977    20683570.046
        47.000          39.000
 114863883.56747  89504319.29447  21857863.622    21857863.536    21857869.967
        44.000          44.000
 128179477.45346  99880101.13445  24391742.888    24391743.333    24391747.258
        38.000          31.000
 117938926.81347  91900472.36047  22443030.528    22443030.853    22443036.803
        44.000          43.000
 114896207.79947  89529520.10647  21864016.871    21864016.534    21864022.045
        45.000          46.000
 127693547.28246  99501472.12143  24299270.400    24299269.917    24299271.543
        39.000          21.000
 106934553.85848  83325628.29247  20348962.364    20348962.293    20348966.312
        49.000          43.000
 125765791.906 6  97817845.990 5  23494107.097    23494104.485    23494109.437
        38.000          35.000
 20  5  3  0 59  0.0000000  0 10G27G16R 1G26G 7G 3G 9G22G 4R 3
 128181018.37946  99881317.08144  24392034.459    24392034.275    24392041.521
        36.000          29.000
 107471774.24448  83744240.35646  20451194.315    20451193.794    20451197.027
        48.000          41.000
 110737538.720 7  86129190.588 6  20715740.679    20715751.547    20715759.100
        47.000          39.000
 115008671.13347  89617140.78047  21885415.618    21885415.584    21885422.148
        44.000          44.000
 128174865.50146  99876507.41645  24390866.287    24390865.460    24390869.861
        38.000          31.000
 118105943.60147  92030615.28747  22474813.072    22474813.198    22474819.053
        43.000          42.000
 114894909.91147  89528508.77447  21863769.329    21863769.308    21863775.042
        45.000          46.000
 127871602.81146  99640216.65743  24333154.282    24333153.361    24333154.973
        39.000          21.000
 106991540.37148  83370033.36747  20359806.372    20359806.523    20359810.425
        49.000          43.000
 125716775.905 6  97779722.447 6  23484948.229    23484948.776    23484952.946
        39.000          36.000
 20  5  3  0 59 30.0000000  0 10G27G16R 1G26G 7G 3G 9G22G 4R 3
 128158816.14645  99864016.65544  24387809.137    24387808.906    24387816.165
        34.000          29.000
 107546827.51848  83802723.42846  20465476.377    20465475.888    20465479.249
        48.000          40.000
 110910074.723 7  86263385.242 6  20748016.690    20748027.912    20748035.485
        46.000          39.000
 115153840.31447  89730259.61447  21913040.369    21913040.468    21913047.026
        44.000          44.000
 128170309.67846  99872957.40445  24389998.290    24389998.534    24390003.039
        37.000          31.000
 118273228.38847  92160967.04447  22506646.250    22506646.416    22506652.161
        43.000          42.000
 114893814.66547  89527655.34247  21863560.972    21863560.984    21863566.614
        45.000          46.000
 128049677.97946  99778976.49343  24367040.833    24367039.108    24367042.944
        40.000          21.000
 107048894.87548  83414725.18547  20370720.797    20370720.672    20370724.737
        49.000          43.000
 125667835.109 6  97741657.396 6  23475805.995    23475806.365    23475810.479
        40.000          36.000
 20  5  3  1  0  0.0000000  0 10G27G16R 1G26G 7G 3G 9G22G 4R 3
 128136692.06345  99846777.19244  24383599.137    24383599.115    24383606.548
        35.000          29.000
 107622522.38948  83861706.44046  20479880.755    20479880.032    20479883.617
        48.000          41.000
 111083087.278 7  86397950.543 6  20780381.677    20780393.569    20780401.100
        47.000          38.000
 115299400.07447  89843682.79347  21940739.978    21940739.771    21940746.445
        45.000          44.000
 128165821.24346  99869459.93545  24389144.848    24389144.437    24389148.978
        38.000          32.000
 118440789.72647  92291534.30047  22538531.866    22538532.246    22538538.098
        44.000          42.000
 114892935.46947  89526970.25747  21863393.974    21863393.994    21863399.294
        46.000          46.000
 128227781.08246  99917758.08543  24400932.234    24400931.885    24400932.998
        39.000          21.000
 107106630.06748  83459713.64347  20381707.217    20381707.276    20381711.324
        49.000          44.000
 125618984.706 6  97703662.621 6  23466682.258    23466680.927    23466685.498
        40.000          36.000
 20  5  3  1  0 30.0000000  0 10G27G16R 1G26G 7G 3G 9G22G 4R 3
 128114647.12145  99829599.35544  24379403.749    24379403.521    24379410.814
        34.000          28.000
 107698856.32148  83921187.42846  20494406.667    20494406.046    20494409.337
        48.000          40.000
 111256571.787 7  86532882.874 1  20812835.760    20812846.938    20812857.988
        46.000           7.000
 115445345.66947  89957406.63147  21968512.264    21968512.472    21968518.823
        45.000          44.000
 128161398.63246  99866013.75745  24388302.535    24388302.789    24388307.719
        38.000          31.000
 118608622.54547  92422313.09947  22570469.709    22570469.858    22570475.685
        43.000          42.000
 114892272.04647  89526453.30647  21863268.015    21863267.982    21863273.138
        46.000          46.000
 128405907.83846 100056558.10443  24434828.484    24434827.443    24434829.725
        39.000          20.000
 107164744.90748  83504997.93347  20392766.062    20392766.197    20392770.175
        50.000          43.000
 125570225.567 6  97665738.937 5  23457571.366    23457572.182    23457576.073
        40.000          30.000
 20  5  3  1  1  0.0000000  0 10G27G16R 1G26G 7G 3G 9G22G 4R 3
 128092668.44545  99812473.14744  24375221.307    24375221.865    24375229.025
        34.000          29.000
 107775812.28448  83981153.10846  20509050.748    20509050.375    20509053.481
        48.000          41.000
 111430508.776 7                  20845373.896
        46.000
 115591658.31747  90071416.47547  21996354.843    21996354.547    21996361.367
        44.000          43.000
 128157026.00546  99862606.53645  24387471.559    24387470.669    24387475.562
        38.000          31.000
 118776707.68447  92553288.50346  22602454.907    22602455.284    22602461.143
        43.000          41.000
 114891810.06747  89526093.32547  21863180.239    21863180.156    21863185.259
        46.000          47.000
 128584039.04746 100195361.59343  24468725.354    24468726.158    24468727.500
        40.000          20.000
 107223224.35948  83550566.33147  20403894.466    20403894.497    20403898.383
        50.000          43.000
 125521544.555 6                  23448477.816
        40.000
 20  5  3  1  1 30.0000000  0 10G27G16R 1G26G 7G 3G 9G22G 4R 3
 128070766.06546  99795406.39644  24371054.364    24371053.923    24371060.720
        36.000          29.000
 107853396.45648  84041608.31146  20523814.377    20523814.212    20523817.244
        49.000          41.000
 111604902.357 7                  20877997.338
        46.000
 115738342.19147  90185715.60247  22024268.056    22024267.706    22024274.195
        45.000          44.000
 128152709.92046  99859243.35345  24386649.342    24386649.491    24386654.314
        38.000          31.000
 118945048.86147  92684463.42747  22634489.394    22634489.719    22634495.464
        43.000          42.000
 114891558.16947  89525897.04447  21863132.194    21863132.295    21863137.342
        46.000          47.000
 128762179.35846 100334172.17343  24502624.604    24502623.743    24502626.302
        39.000          20.000
 107282076.27748  83596424.96047  20415093.614    20415093.588    20415097.667
        49.000          43.000
 125472951.930 6                  23439400.544
        40.000
 20  5  3  1  2  0.0000000  0 10G27G16R 1G26G 7G 3G 9G22G 4R 3
 126473554.29646  98550825.84745  24067114.749    24067114.616    24067121.375
        36.000          30.000
 106356222.56248  82874979.30046  20238911.813    20238911.461    20238914.531
        48.000          40.000
 110177225.218 7                  20610922.771
        46.000
 114310011.38947  89072730.54647  21752465.496    21752465.214    21752472.000
        44.000          43.000
 126573061.85846  98628348.77245  24086052.905    24086052.629    24086057.081
        39.000          32.000
 117538260.63847  91588264.78747  22366786.668    22366786.908    22366792.650
        43.000          42.000
 113316130.06047  88298290.73147  21563338.324    21563338.246    21563343.268
        46.000          46.000
 127364943.29746  99245416.75643  24236738.938    24236739.329    24236740.711
        38.000          20.000
 105765915.58548  82415001.04047  20126578.043    20126577.850    20126581.897
        49.000          43.000
 123819669.198 6                  23130553.879
        41.000
 20  5  3  1  2 30.0000000  0 10G27G16R 1G26G 7G 3G 9G22G 4R 3
 126451851.12046  98533914.32745  24062985.473    24062984.149    24062991.109
        37.000          30.000
 106435097.96848  82936440.64946  20253921.338    20253920.874    20253924.192
        48.000          40.000
 110352560.819 7                  20643723.476
        46.000
 114457466.74747  89187630.81547  21780524.863    21780524.766    21780531.685
        43.000          43.000
 126568895.78546  98625102.48745  24085259.903    24085260.217    24085264.430
        39.000          32.000
 117707141.96347  91719860.59846  22398923.429    22398923.887    22398929.716
        43.000          41.000
 113316340.83947  88298454.97947  21563378.458    21563378.385    21563383.285
        46.000          46.000
 127543129.68346  99384263.22743  24270648.264    24270645.940    24270648.726
        38.000          19.000
 105825552.70248  82461471.50847  20137926.617    20137926.516    20137930.552
        49.000          44.000
 123771300.539 6                  23121516.806
        41.000
 20  5  3  1  3  0.0000000  0 10G27G16R 1G26G 7G 3G 9G22G 4R 3
 126430240.29146  98517074.75045  24058872.677    24058872.005    24058879.041
        36.000          30.000
 106514605.75448  82998394.76546  20269051.150    20269050.759    20269053.852
        48.000          41.000
 110528350.823 7  85966504.716 6  20676607.796    20676618.625    20676626.681
        46.000          38.000
 114605291.74147  89302819.11247  21808655.366    21808655.164    21808661.963
        44.000          43.000
 126564792.85146  98621905.41545  24084480.696    24084479.735    24084483.423
        39.000          32.000
 117876276.70547  91851653.87947  22431108.563    22431109.172    22431115.195
        43.000          42.000
 113316773.66647  88298792.24647  21563460.851    21563460.533    21563465.610
        45.000          47.000
 127721322.90546  99523115.06143  24304556.479    24304555.248    24304558.595
        38.000          19.000
 105885571.86248  82508239.67547  20149347.858    20149347.840    20149351.767
        49.000          44.000
 123723036.843 6  96229045.553 5  23112501.748    23112501.417    23112506.347
        40.000          35.000
 20  5  3  1  3 30.0000000  0 10G27G16R 1G26G 7G 3G 9G22G 4R 3
 126408725.24346  98500309.81145  24054778.890    24054777.729    24054784.416
        36.000          31.000
 106594745.39648  83060841.24346  20284301.212    20284300.923    20284303.912
        48.000          40.000
 110704592.512 7  86103581.563 6  20709576.519    20709588.613    20709596.096
        46.000          38.000
 114753483.94247  89418293.54947  21836855.687    21836855.133    21836861.814
        43.000          43.000
 126560753.22246  98618757.65945  24083710.859    24083711.229    24083714.800
        39.000          32.000
 118045661.99847  91983642.38647  22463341.904    22463342.163    22463348.198
        43.000          42.000
 113317430.53647  88299304.10047  21563585.213    21563585.188    21563590.829
        45.000          47.000
 127899520.57746  99661970.35143  24338466.436    24338464.541    24338469.840
        38.000          19.000
 105945974.33648  82555306.53647  20160841.847    20160842.026    20160846.027
        50.000          44.000
 123674881.091 6  96191591.085 6  23103506.785    23103505.366    23103510.471
        40.000          36.000
 20  5  3  1  4  0.0000000  0 10G27G16R 1G26G 7G 3G 9G22G 4R 3
 126387320.61046  98483630.92545  24050704.950    24050705.090    24050711.470
        38.000          32.000
 106675527.26448  83123788.15446  20299673.584    20299673.224    20299676.289
        49.000          41.000
 110881294.740 7  86241016.611 6  20742632.562    20742644.396    20742651.804
        46.000          38.000
 114902052.10347  89534060.93147  21865126.544    21865126.405    21865133.513
        43.000          42.000
 126556788.60146  98615668.35445  24082956.121    24082956.700    24082960.304
        39.000          32.000
 118215306.25647  92115832.69946  22495623.778    22495624.284    22495630.514
        43.000          41.000
 113318324.70447  88300000.85947  21563755.075    21563755.405    21563761.018
        46.000          46.000
 128077731.46346  99800835.94543  24372379.141    24372378.657    24372380.107
        38.000          18.000
 106006772.62948  82602681.82547  20172411.558    20172411.542    20172415.573
        50.000          44.000
 123626848.513 6  96154232.443 5  23094532.962    23094533.572    23094537.106
        41.000          33.000
 20  5  3  1  4 30.0000000  0 10G27G16R 1G26G 7G 3G 9G22G 4R 3
 126366020.64946  98467033.60645  24046651.825    24046651.915    24046657.648
        37.000          32.000
 106756941.80448  83187228.06146  20315166.360    20315165.837    20315168.673
        49.000          40.000
 111058445.239 7  86378800.310 6  20775772.389    20775783.924    20775791.347
        46.000          38.000
 115050984.51047  89650112.15447  21893467.954    21893467.675    21893474.393
        44.000          43.000
 126552889.91346  98612630.42345  24082214.868    24082214.857    24082218.529
        39.000          33.000
 118385197.44747  92248215.41446  22527953.144    22527953.453    22527959.748
        42.000          41.000
 113319449.05147  88300876.98247  21563969.505    21563969.523    21563974.895
        47.000          46.000
 128255943.76946  99939702.63143  24406290.542    24406289.919    24406294.261
        37.000          18.000
 106067958.72348  82650359.29447  20184055.078    20184054.928    20184058.873
        49.000          44.000
 123578933.067 6  96116964.892 6  23085584.297    23085583.250    23085586.374
        41.000          36.000
 20  5  3  1  5  0.0000000  0 10G27G16R 1G26G 7G 3G 9G22G 4R 3
 126344823.71146  98450516.55045  24042618.591    24042618.617    24042624.780
        39.000          33.000
 106838983.31148  83251156.50446  20330778.478    20330778.024    20330781.035
        48.000          40.000
 111236035.969 7  86516926.396 6  20808994.173    20809005.654    20809013.282
        46.000          38.000
 115200273.65147  89766441.33947  21921876.731    21921876.485    21921883.113
        44.000          43.000
 126549052.25746  98609640.04245  24081484.333    24081484.235    24081487.675
        38.000          33.000
 118555327.56747  92380784.30946  22560328.333    22560328.185    22560334.391
        42.000          41.000
 113320800.56347  88301930.11247  21564226.909    21564226.722    21564231.926
        45.000          46.000
 128434149.80546 100078564.40942  24440203.257    24440201.672    24440202.700
        37.000          17.000
 106129528.76648  82698335.94847  20195771.285    20195771.309    20195775.188
        49.000          44.000
 123531133.308 7  96079787.320 6  23076653.312    23076654.095    23076656.676
        42.000          36.000
 20  5  3  1  5 30.0000000  0 10G27G16R 1G26G 7G 3G 9G22G 4R 3
 126323733.06846  98434082.30845  24038604.195    24038604.387    24038610.848
        37.000          32.000
 106921650.55148  83315572.53746  20346509.379    20346508.854    20346511.858
        48.000          40.000
 111414064.119 7  86655392.716 6  20842297.608    20842309.169    20842317.165
        45.000          38.000
 115349916.83747  89883046.40547  21950352.885    21950352.694    21950359.264
        43.000          43.000
 126545275.68146  98606697.27745  24080765.471    24080765.583    24080769.132
        39.000          33.000
 118725693.64547  92513537.06646  22592747.684    22592747.782    22592753.982
        42.000          41.000
 113322381.08947  88303161.70747  21564527.264    21564527.096    21564532.715
        45.000          46.000
 128612346.95446 100217419.26542  24474112.025    24474111.770    24474114.671
        37.000          17.000
 106191483.79348  82746612.59647  20207560.913    20207560.877    20207564.851
        50.000          44.000
 123483452.499 6  96042702.269 6  23067744.292    23067746.263    23067749.767
        41.000          36.000
 20  5  3  1  6  0.0000000  0 10G27G16R 1G26G 7G 3G 9G22G 4R 3
 126302758.86546  98417738.80945  24034613.565    24034613.646    24034620.059
        38.000          32.000
 107004949.53347  83380480.83946  20362360.912    20362360.186    20362363.257
        47.000          41.000
 111592533.714 7  86794202.373 6  20875683.042    20875696.176    20875703.588
        45.000          37.000
 115499918.28447  89999930.65047  21978897.335    21978897.407    21978903.542
        44.000          43.000
 126541567.07646  98603807.46645  24080059.728    24080060.007    24080063.366
        39.000          33.000
 118896299.50247  92646476.66746  22625212.726    22625213.084    22625219.072
        42.000          40.000
 113324199.44747  88304578.61647  21564873.220    21564873.188    21564878.704
        46.000          47.000
 128790539.70046 100356270.71442  24508021.952    24508021.195    24508022.586
        37.000          17.000
 106253831.73048  82795195.40047  20219425.277    20219425.274    20219429.353
        50.000          44.000
 123435901.112 7  96005717.880 6  23058863.403    23058863.651    23058866.733
        42.000          37.000
 20  5  3  1  6 30.0000000  0 10G27G16R 1G26G 7G 3G 9G22G 4R 3
 126281893.71246  98401480.25945  24030642.345    24030642.333    24030649.446
        36.000          31.000
 107088868.69148  83445872.39546  20378329.945    20378329.338    20378332.233
        48.000          40.000
 111771430.793 7  86933344.515 6  20909150.304    20909162.080    20909170.480
        45.000          38.000
 115650264.63847  90117083.64147  22007506.948    22007507.104    22007513.880
        44.000          43.000
 126537915.90246  98600962.40745  24079364.357    24079364.951    24079368.358
        39.000          33.000
 119067131.44047  92779592.43146  22657721.089    22657721.297    22657727.326
        42.000          40.000
 113326246.77947  88306173.94447  21565262.948    21565262.749    21565268.205
        46.000          46.000
 128968714.35846 100495108.04142  24541927.245    24541925.285    24541927.571
        37.000          17.000
 106316562.91548  82844076.84447  20231362.663    20231362.625    20231366.698
        50.000          44.000
 123388471.689 6  95968828.340 6  23050002.488    23050003.695    23050006.137
        41.000          37.000
 20  5  3  1  7  0.0000000  0 10G27G16R 1G26G 7G 3G 9G22G 4R 3
 126261151.79946  98385317.78345  24026695.469    24026695.651    24026702.230
        37.000          32.000
 107173418.45348  83511755.33046  20394419.418    20394418.783    20394421.770
        49.000          41.000
 111950763.780 7  87072825.697 6  20942698.772    20942710.819    20942718.430
        45.000          38.000
 115800964.21947  90234511.87547  22036184.212    22036184.247    22036191.001
        43.000          43.000
 126534332.63446  98598170.26445  24078683.814    24078683.267    24078686.823
        39.000          33.000
 119238197.37347  92912890.52146  22690273.573    22690274.093    22690279.994
        42.000          40.000
 113328536.01447  88307957.76447  21565698.329    21565698.413    21565703.893
        46.000          47.000
 129146879.04446 100633937.65842  24575831.032    24575831.707    24575832.052
        38.000          17.000
 106379689.34448  82893266.27247  20243375.191    20243375.157    20243379.275
        50.000          44.000
 123341178.676 7  95932044.891 6  23041168.906    23041168.801    23041171.798
        42.000          37.000
 20  5  3  1  7 30.0000000  0 10G27G16R 1G26G 7G 3G 9G22G 4R 3
 126240537.17646  98369254.46445  24022773.039    24022772.699    24022779.285
        37.000          31.000
 107258597.86148  83578128.89746  20410628.510    20410627.850    20410631.001
        49.000          41.000
 112130530.208 7  87212643.999 6  20976328.064    20976338.983    20976347.535
        45.000          38.000
 115952015.03747  90352213.80347  22064928.597    22064928.206    22064934.750
        43.000          42.000
 126530819.22146  98595432.55945  24078015.309    24078014.621    24078018.187
        38.000          33.000
 119409494.96547  93046369.13546  22722870.551    22722871.094    22722877.016
        42.000          40.000
 113331069.68447  88309932.06347  21566180.528    21566180.619    21566185.987
        46.000          46.000
 129325032.10146 100772758.16242  24609732.780    24609732.184    24609734.882
        38.000          17.000
 106443212.69548  82942764.98047  20255463.386    20255463.351    20255467.260
        50.000          44.000
 123294025.985 6  95895370.579 6  23032360.343    23032359.856    23032363.030
        41.000          37.000
 20  5  3  1  8  0.0000000  0 10G27G16R 1G26G 7G 3G 9G22G 4R 3
 126220054.87746  98353294.25345  24018874.991    24018875.223    24018881.436
        37.000          31.000
 107344408.01548  83644993.95946  20426957.589    20426956.942    20426960.027
        49.000          40.000
 112310728.659 7  87352798.331 6  21010037.960    21010049.422    21010057.301
        45.000          38.000
 116103416.24547  90470188.76347  22093739.222    22093739.149    22093745.721
        44.000          43.000
 126527376.97446  98592750.32045  24077359.897    24077359.556    24077362.957
        39.000          33.000
 119581023.00747  93180027.31646  22755511.560    22755511.992    22755517.675
        43.000          40.000
 113333851.58647  88312099.77947  21566710.200    21566710.014    21566715.217
        47.000          47.000
 129503172.84746 100911569.09243  24643631.684    24643630.712    24643633.884
        37.000          18.000
 106507135.80048  82992575.18647  20267627.589    20267627.485    20267631.540
        50.000          44.000
 123247019.432 7  95858809.931 6  23023577.925    23023578.395    23023581.290
        42.000          37.000
 20  5  3  1  8 30.0000000  0 10G27G16R 1G26G 7G 3G 9G22G 4R 3
 126199708.92946  98337440.30345  24015003.558    24015003.139    24015010.077
        37.000          31.000
 107430848.67948  83712350.32046  20443406.538    20443406.119    20443409.121
        48.000          41.000
 112491357.213 7  87493287.176 6  21043828.640    21043840.115    21043847.842
        46.000          38.000
 116255165.84047  90588435.18847  22122616.100    22122616.146    22122622.644
        43.000          43.000
 126524006.29546  98590123.82545  24076717.711    24076718.077    24076721.531
        40.000          33.000
 119752779.11647  93313863.21746  22788195.604    22788196.184    22788201.844
        42.000          40.000
 113336884.26147  88314462.90747  21567287.430    21567287.225    21567292.359
        46.000          47.000
 129681298.98346 101050368.65343  24677527.921    24677526.960    24677530.908
        38.000          18.000
 106571460.34848  83042698.20447  20279868.131    20279867.981    20279872.038
        50.000          44.000
 123200162.749 7  95822365.854 6  23014824.843    23014825.472    23014828.040
        42.000          37.000
 20  5  3  1  9  0.0000000  0 10G27G16R 1G26G 7G 3G 9G22G 4R 3
 126179507.69046  98321699.10245  24011159.188    24011159.333    24011165.270
        37.000          32.000
 107517923.69948  83780200.98446  20459976.317    20459975.946    20459978.962
        48.000          41.000
 112672417.784 7  87634112.056 6  21077699.412    21077711.243    21077718.811
        45.000          37.000
 116407266.25247  90706954.98447  22151559.919    22151559.796    22151566.244
        44.000          43.000
 126520712.50346  98587557.25045  24076090.968    24076091.332    24076095.077
        39.000          33.000
 119924765.33047  93447878.41446  22820924.015    22820923.991    22820929.662
        42.000          40.000
 113340174.71847  88317026.90247  21567913.483    21567913.283    21567918.523
        46.000          47.000
 129859412.96146 101189158.66543  24711421.585    24711420.356    24711423.640
        37.000          18.000
 106636192.40348  83093138.75747  20292186.203    20292186.126    20292190.129
        49.000          44.000
 123153464.831 7  95786045.258 6  23006101.403    23006101.585    23006104.306
        42.000          36.000
 20  5  3  1  9 30.0000000  0 10G27G16R 1G26G 7G 3G 9G22G 4R 3
 126159440.06646  98306062.05245  24007340.094    24007340.418    24007346.940
        38.000          32.000
 107605617.36648  83848533.71846  20476663.964    20476663.563    20476666.527
        49.000          40.000
 112853892.680 7  87775259.158 6  21111648.190    21111659.068    21111667.646
        45.000          37.000
 116559700.40647  90825734.83747  22180566.987    22180567.054    22180573.540
        44.000          42.000
 126517481.61846  98585039.70345  24075476.224    24075476.987    24075479.904
        40.000          33.000
 120096964.26547  93582059.36246  22853692.244    22853692.334    22853698.222
        42.000          40.000
 113343710.50247  88319782.06147  21568586.229    21568586.144    21568591.432
        47.000          47.000
 130037497.74446 101327925.99943  24745309.795    24745308.038    24745311.828
        37.000          18.000
 106701318.59648  83143886.43347  20304579.341    20304579.293    20304583.250
        51.000          45.000
 123106914.527 6  95749839.457 6  22997405.870    22997404.772    22997408.407
        41.000          36.000
 20  5  3  1 10  0.0000000  0 10G27G16R 1G26G 7G 3G 9G22G 4R 3
 126139520.68446  98290540.50845  24003549.816    24003549.592    24003555.717
        37.000          31.000
 107693940.05848  83917356.59846  20493470.958    20493470.562    20493473.795
        48.000          40.000
 113035790.403 7  87916735.130 6  21145675.573    21145686.679    21145694.685
        45.000          37.000
 116712476.92147  90944781.46846  22209639.467    22209639.416    22209646.081
        43.000          41.000
 126514325.01246  98582580.02245  24074875.763    24074876.173    24074879.252
        39.000          33.000
 120269384.15547  93716412.48846  22886502.189    22886502.744    22886508.486
        42.000          40.000
 113347504.84247  88322738.69347  21569308.016    21569308.180    21569313.515
        47.000          47.000
 130215562.29546 101466677.56742  24779194.795    24779193.623    24779194.846
        36.000          17.000
 106766851.17248  83194950.77147  20317049.638    20317049.822    20317053.727
        50.000          44.000
 123060526.565 6  95713759.964 6  22988739.554    22988738.829    22988742.099
        41.000          37.000
 20  5  3  1 10 30.0000000  0 10G27G16R 1G26G 7G 3G 9G22G 4R 3
 126119752.53046  98275136.78245  23999788.112    23999787.914    23999794.468
        38.000          32.000
 107782890.43648  83986668.58546  20510397.486    20510397.363    20510400.463
        49.000          40.000
 113218107.438 7  88058537.232 4  21179782.228    21179793.869    21179801.490
        45.000          29.000
 116865592.84447  91064092.55747  22238776.538    22238776.457    22238782.881
        44.000          42.000
 126511242.37346  98580177.98045  24074289.703    24074289.350    24074292.557
        40.000          33.000
 120442021.59247  93850935.13046  22919354.165    22919354.736    22919360.393
        42.000          39.000
 113351559.34247  88325898.04947  21570079.649    21570079.701    21570085.126
        47.000          47.000
 130393603.65346 101605411.00142  24813074.779    24813074.063    24813077.307
        36.000          16.000
 106832790.79748  83246332.29047  20329597.713    20329597.654    20329601.646
        50.000          44.000
 123014304.242 6  95677809.281 6  22980104.989    22980104.240    22980108.281
        41.000          37.000
 20  5  3  1 11  0.0000000  0 10G27G16R 1G26G 7G 3G 9G22G 4R 3
 126100135.03846  98259850.45745  23996054.651    23996054.468    23996061.362
        37.000          32.000
 107872463.62848  84056465.88446  20527443.119    20527442.591    20527445.675
        48.000          40.000
 113400836.914 7  88200660.125 6  21213965.970    21213977.225    21213984.910
        45.000          37.000
 117019041.61747  91183663.01546  22267976.719    22267976.797    22267983.214
        43.000          41.000
 126508229.65946  98577830.43145  24073715.785    24073716.181    24073719.393
        40.000          33.000
 120614869.82147  93985622.02246  22952246.643    22952246.855    22952252.149
        42.000          39.000
 113355872.12247  88329258.65648  21570900.466    21570900.416    21570905.847
        47.000          48.000
 130571614.85246 101744120.99742  24846949.362    24846947.583    24846950.539
        36.000          17.000
 106899134.61648  83298028.76647  20342222.507    20342222.444    20342226.422
        50.000          44.000
 122968247.315 6  95641987.249 6  22971500.819    22971500.425    22971504.170
        41.000          37.000
 20  5  3  1 11 30.0000000  0 10G27G16R 1G26G 7G 3G 9G22G 4R 3
 126080675.22146  98244687.01045  23992351.676    23992352.155    23992358.712
        38.000          33.000
 107962661.75948  84126750.14446  20544607.081    20544606.650    20544609.627
        48.000          40.000
 113583979.230 7  88343104.140 6  21248226.083    21248237.800    21248245.300
        45.000          37.000
 117172824.22847  91303493.61446  22297240.891    22297240.927    22297246.992
        43.000          41.000
 126505290.83446  98575540.45045  24073156.882    24073156.608    24073159.596
        40.000          33.000
 120787929.36847  94120473.58146  22985178.632    22985178.984    22985184.513
        42.000          39.000
 113360448.77447  88332824.87848  21571771.370    21571771.430    21571776.766
        47.000          48.000
 130749597.46446 101882808.69942  24880818.009    24880816.565    24880818.455
        36.000          17.000
 106965887.21248  83350043.77047  20354925.042    20354924.918    20354929.036
        51.000          44.000
 122922362.982 6  95606299.465 6  22962928.859    22962928.422    22962932.981
        41.000          38.000
 20  5  3  1 12  0.0000000  0 10G27G16R 1G26G 7G 3G 9G22G 4R 3
 126061369.51046  98229643.63345  23988677.713    23988678.055    23988684.412
        38.000          33.000
 108053476.73748  84197515.06246  20561888.706    20561888.207    20561891.133
        48.000          41.000
 113767524.687 7  88485861.682 6  21282561.721    21282573.590    21282581.429
        45.000          37.000
 117326931.15347  91423576.91646  22326566.457    22326566.019    22326572.511
        43.000          41.000
 126502418.60946  98573302.36445  24072609.718    24072609.822    24072613.201
        39.000          34.000
 120961190.32047  94255482.08346  23018149.319    23018149.388    23018155.042
        42.000          39.000
 113365284.36747  88336592.87548  21572691.925    21572691.712    21572697.054
        47.000          48.000
 130927541.79446 102021466.53842  24914680.127    24914677.374    24914680.800
        36.000          16.000
 107033042.66848  83402372.69847  20367704.252    20367704.230    20367708.260
        50.000          44.000
 122876647.820 7  95570743.251 6  22954389.128    22954388.412    22954392.977
        42.000          38.000
 20  5  3  1 12 30.0000000  0 10G27G16R 1G26G 7G 3G 9G22G 4R 3
 124466803.31446  96987124.54945  23685242.597    23685242.601    23685249.028
        38.000          33.000
 106569493.15448  83041164.21846  20279495.889    20279495.499    20279498.485
        49.000          41.000
 112348916.283 7  87382499.568 6  21017181.607    21017193.055    21017201.411
        45.000          37.000
 115905947.48947  90316316.90846  22056162.382    22056161.829    22056168.451
        42.000          41.000
 124924196.48646  97343518.91245  23772284.078    23772283.621    23772288.064
        39.000          33.000
 119559238.12846  93163051.76946  22751366.680    22751366.852    22751372.497
        41.000          40.000
 111794963.68347  87112966.37148  21273869.848    21273869.532    21273874.871
        47.000          48.000
 129530034.04246 100932499.41442  24648743.293    24648742.174    24648746.742
        37.000          16.000
 105525186.91048  82227420.15847  20080768.717    20080768.900    20080772.930
        50.000          44.000
 121226293.846 6  94287134.652 6  22646089.434    22646088.505    22646093.454
        41.000          38.000
 20  5  3  1 13  0.0000000  0 10G27G16R 1G26G 7G 3G 9G22G 4R 3
 124447818.18146  96972330.97345  23681628.170    23681628.810    23681636.012
        38.000          32.000
 106661540.58848  83112889.49946  20297012.127    20297011.723    20297014.519
        49.000          41.000
 112533260.580 7  87525878.438 6  21051664.943    21051679.479    21051687.036
        45.000          37.000
 116060697.29747  90436901.15346  22085610.594    22085609.871    22085616.285
        43.000          41.000
 124921461.14746  97341387.49745  23771763.698    23771762.837    23771767.502
        39.000          33.000
 119732895.11647  93298368.87446  22784412.007    22784412.775    22784418.512
        42.000          40.000
 111800325.31147  87117144.26748  21274889.952    21274889.757    21274895.114
        47.000          48.000
 129707896.17546 101071093.20142  24682589.628    24682587.783    24682591.572
        37.000          16.000
 105593153.28848  82280380.96547  20093702.186    20093702.210    20093706.456
        50.000          44.000
 121180930.086 7  94251851.750 6  22637615.545    22637614.953    22637619.453
        42.000          38.000
 20  5  3  1 13 30.0000000  0 10G27G16R 1G26G 7G 3G 9G22G 4R 3
 124429001.51846  96957668.67445  23678047.768    23678047.835    23678055.500
        37.000          33.000
 106754205.59348  83185096.00646  20314645.617    20314645.252    20314648.235
        49.000          40.000
 112718002.536 7  87669566.578 6  21086227.611    21086238.016    21086246.450
        45.000          37.000
 116215767.75147  90557735.25946  22115118.604    22115118.541    22115125.256
        42.000          40.000
 124918797.36846  97339311.84045  23771256.329    23771255.639    23771260.592
        39.000          33.000
 119906748.80346  93433839.24446  22817495.867    22817496.075    22817501.695
        41.000          39.000
 111805956.14047  87121531.92648  21275961.329    21275961.388    21275966.619
        47.000          48.000
 129885716.53946 101209654.50742  24716426.816    24716426.725    24716429.191
        36.000          16.000
 105661529.72048  82333661.30447  20106713.913    20106713.876    20106717.897
        50.000          44.000
 121135750.425 7  94216712.068 6  22629175.570    22629175.293    22629179.193
        42.000          38.000
 20  5  3  1 14  0.0000000  0 10G27G16R 1G26G 7G 3G 9G22G 4R 3
 124410362.80446  96943145.04045  23674501.974    23674501.864    23674508.598
        38.000          33.000
 106847492.81948  83257787.35546  20332397.342    20332397.099    20332400.275
        48.000          41.000
 112903145.753 7  87813566.812 6  21120863.412    21120873.819    21120881.592
        45.000          37.000
 116371162.31347  90678821.91546  22144689.543    22144689.359    22144696.312
        42.000          41.000
 124916211.56146  97337296.94545  23770763.606    23770763.681    23770768.178
        39.000          33.000
 120080802.28747  93569465.30546  22850616.808    22850617.306    22850622.951
        42.000          39.000
 111811864.25247  87126135.66248  21277085.534    21277085.733    21277090.761
        47.000          48.000
 130063498.95346 101348186.16842  24750258.255    24750256.114    24750260.161
        36.000          16.000
 105730323.26648  82387266.66547  20119804.881    20119804.827    20119808.971
        50.000          44.000
 121090764.886 7  94181723.334 6  22620772.431    22620771.847    22620775.848
        43.000          38.000
 20  5  3  1 14 30.0000000  0 10G27G16R 1G26G 7G 3G 9G22G 4R 3
 124391901.69246  96928759.80845  23670988.573    23670988.725    23670994.895
        38.000          33.000
 106941397.54948  83330959.87646  20350266.736    20350266.452    20350269.455
        49.000          41.000
 113088683.000 7  87957873.544 6  21155570.569    21155581.815    21155589.739
        45.000          36.000
 116526874.56247  90800156.12846  22174320.573    22174320.233    22174326.982
        42.000          40.000
 124913700.32946  97335340.15845  23770286.718    23770286.229    23770290.615
        40.000          34.000
 120255048.72946  93705241.72346  22883774.798    22883775.207    22883780.960
        41.000          39.000
 111818047.84247  87130954.04748  21278262.264    21278262.292    21278267.309
        47.000          48.000
 130241237.00146 101486683.33042  24784081.066    24784080.288    24784085.453
        36.000          16.000
 105799531.10648  82441194.84747  20132974.799    20132974.667    20132978.750
        50.000          44.000
 121045973.163 7  94146885.362 6  22612405.314    22612404.591    22612408.535
        43.000          38.000
 20  5  3  1 15  0.0000000  0  9G27G16R 1G26G 7G 3G 9G 4R 3
 124373615.98546  96914511.25445  23667508.824    23667509.053    23667515.617
        38.000          33.000
 107035912.60948  83404607.98046  20368252.674    20368252.049    20368255.158
        49.000          41.000
 113274605.379 7  88102479.804 6  21190352.024    21190362.689    21190371.138
        45.000          36.000
 116682896.39247  90921731.56946  22204011.113    22204010.644    22204016.964
        42.000          41.000
 124911257.73546  97333436.85545  23769821.519    23769821.437    23769826.023
        39.000          34.000
 120429479.68946  93841161.90946  22916968.145    22916968.355    22916974.333
        41.000          39.000
 111824503.43447  87135984.38648  21279490.567    21279490.674    21279495.731
        47.000          48.000
 105869148.64748  82495442.28047  20146222.543    20146222.536    20146226.635
        50.000          44.000
 121001373.500 7  94112196.766 6  22604073.259    22604073.988    22604076.686
        43.000          38.000
 20  5  3  1 15 30.0000000  0  9G27G16R 1G26G 7G 3G 9G 4R 3
 124355511.94246  96900404.26545  23664064.088    23664064.256    23664070.554
        38.000          33.000
 107131039.49148  83478732.82846  20386354.580    20386354.169    20386357.097
        48.000          40.000
 113460913.254 7  88247385.888 5  21225204.700    21225215.712    21225224.046
        45.000          33.000
 116839227.98147  91043548.38946  22233759.541    22233759.397    22233766.042
        42.000          41.000
 124908887.20746  97331589.71745  23769370.496    23769370.646    23769374.670
        39.000          35.000
 120604095.01546  93977225.76946  22950196.017    22950196.623    22950202.616
        41.000          39.000
 111831235.93747  87141230.49148  21280771.968    21280771.833    21280776.925
        47.000          49.000
 105939179.74248  82550011.95747  20159549.049    20159548.988    20159553.153
        50.000          44.000
 120956972.469 7  94077662.667 6  22595778.056    22595779.563    22595782.107
        43.000          39.000
 20  5  3  1 16  0.0000000  0  9G27G16R 1G26G 7G 3G 9G 4R 3
 124337597.62546  96886445.11045  23660654.284    23660655.099    23660661.262
        38.000          34.000
 107226781.90048  83553337.30646  20404573.828    20404573.260    20404576.402
        48.000          40.000
 113647607.744 7  88392592.684 6  21260129.351    21260140.862    21260148.643
        45.000          36.000
 116995871.40147  91165608.19046  22263567.894    22263568.108    22263574.425
        42.000          41.000
 124906593.30246  97329802.26645  23768934.114    23768934.200    23768938.579
        39.000          35.000
 120778896.33246  94113434.55346  22983459.947    22983460.100    22983466.222
        41.000          39.000
 111838251.96347  87146697.53348  21282106.938    21282107.012    21282112.127
        47.000          48.000
 106009629.94548  82604908.21247  20172955.437    20172955.271    20172959.379
        50.000          44.000
 120912778.512 7  94043289.614 6  22587522.483    22587523.074    22587526.073
        43.000          38.000
 20  5  3  1 16 30.0000000  0  9G27G16R 1G26G 7G 3G 9G 4R 3
 124319873.52446  96872634.16545  23657282.665    23657282.548    23657288.791
        38.000          34.000
 107323135.03348  83628417.67246  20422909.175    20422908.732    20422911.635
        48.000          40.000
 113834682.842 7  88538095.514 6  21295125.748    21295137.295    21295145.254
        45.000          36.000
 117152821.16747  91287906.69346  22293434.340    22293434.452    22293440.953
        43.000          41.000
 124904373.10246  97328072.24445  23768511.634    23768511.646    23768515.934
        40.000          35.000
 120953877.83646  94249783.73746  23016757.246    23016758.105    23016764.147
        41.000          38.000
 111845550.69448  87152384.85548  21283495.732    21283495.974    21283501.123
        48.000          48.000
 106080497.29948  82660129.51747  20186440.638    20186440.829    20186445.022
        50.000          44.000
 120868792.372 7  94009078.186 6  22579305.775    22579305.988    22579308.771
        44.000          38.000
 20  5  3  1 17  0.0000000  0  9G27G16R 1G26G 7G 3G 9G 4R 3
 124302349.94846  96858979.47945  23653947.554    23653947.757    23653953.888
        39.000          34.000
 107420104.59548  83703978.37846  20441361.715    20441361.417    20441364.252
        48.000          40.000
 114022142.267 7  88683897.261 5  21330193.384    21330204.978    21330212.927
        44.000          35.000
 117310081.46447  91410447.17746  22323359.820    22323359.634    22323366.798
        42.000          40.000
 124902233.87646  97326405.34245  23768105.043    23768104.446    23768108.463
        40.000          35.000
 121129043.36946  94386276.32146  23050090.537    23050090.919    23050097.098
        40.000          38.000
 111853141.04648  87158299.42148  21284940.506    21284940.419    21284945.639
        48.000          49.000
 106151789.61548  82715681.96347  20200007.290    20200007.398    20200011.544
        50.000          44.000
 120825024.656 7  93975036.662 6  22571129.047    22571129.278    22571131.808
        44.000          38.000
 20  5  3  1 17 30.0000000  0  9G27G16R 1G26G 7G 3G 9G 4R 3
 124285024.62846  96845479.27145  23650650.428    23650650.622    23650657.040
        39.000          34.000
 107517683.58648  83780013.95246  20459930.467    20459929.992    20459933.098
        48.000          40.000
 114209977.330 7  88829991.145 6  21365332.711    21365344.072    21365351.259
        44.000          36.000
 117467644.10947  91533223.25346  22353343.544    22353343.215    22353349.907
        42.000          41.000
 124900170.23446  97324797.33245  23767712.249    23767711.473    23767716.045
        39.000          35.000
 121304384.34046  94522905.61946  23083457.415    23083457.621    23083463.182
        41.000          37.000
 111861019.40847  87164438.40148  21286439.705    21286439.590    21286444.773
        47.000          49.000
 106223502.16548  82771561.86847  20213654.099    20213653.904    20213657.880
        50.000          45.000
 120781473.588 7  93941163.643 6  22562991.697    22562993.491    22562995.717
        44.000          38.000
 20  5  3  1 18  0.0000000  0  9G27G16R 1G26G 7G 3G 9G 4R 3
 124267901.81146  96832136.84445  23647391.949    23647391.780    23647398.216
        38.000          34.000
 107615871.32248  83856523.87746  20478615.014    20478614.594    20478617.550
        48.000          40.000
 114398185.419 7  88976375.171 6  21400540.229    21400551.832    21400560.044
        44.000          36.000
 117625507.21647  91656233.45946  22383383.377    22383383.215    22383390.165
        42.000          40.000
 124898183.12646  97323248.93245  23767332.886    23767333.006    23767337.945
        39.000          35.000
 121479898.53246  94659669.88546  23116856.157    23116856.818    23116862.468
        41.000          38.000
 111869188.59048  87170804.00048  21287994.147    21287994.102    21287999.408
        48.000          49.000
 106295636.63148  82827770.53747  20227380.535    20227380.747    20227384.695
        51.000          44.000
 120738143.513 7  93907462.497 6  22554898.614    22554898.998    22554901.837
        43.000          38.000
 20  5  3  1 18 30.0000000  0  9G27G16R 1G26G 7G 3G 9G 4R 3
 124250982.65546  96818953.15445  23644172.969    23644171.964    23644179.044
        38.000          34.000
 107714664.08048  83933505.25146  20497414.756    20497414.161    20497417.209
        49.000          40.000
 114586761.487 7  89123045.413 6  21435816.771    21435828.032    21435837.144
        43.000          36.000
 117783666.07547  91779474.11546  22413480.388    22413479.912    22413486.836
        42.000          39.000
 124896270.27146  97321758.41745  23766968.772    23766968.860    23766973.896
        38.000          35.000
 121655580.85246  94796565.17446  23150287.728    23150288.202    23150293.896
        41.000          37.000
 111877648.50848  87177396.15148  21289603.904    21289603.847    21289609.408
        48.000          49.000
 106368191.80748  82884307.02647  20241187.428    20241187.453    20241191.525
        50.000          44.000
 120695036.057 7  93873934.521 6  22546845.059    22546846.187    22546848.807
        43.000          38.000
 20  5  3  1 19  0.0000000  0  9G27G16R 1G26G 7G 3G 9G 4R 3
 124234268.96846  96805929.51245  23640991.771    23640992.114    23640998.857
        40.000          35.000
 107814058.81648  84010955.69846  20516328.845    20516328.472    20516331.472
        48.000          40.000
 114775700.236 7  89269997.731 6  21471161.630    21471173.896    21471181.674
        44.000          36.000
 117942116.34347  91902941.84146  22443632.539    22443632.184    22443639.027
        42.000          40.000
 124894430.03846  97320324.48645  23766619.381    23766618.699    23766623.817
        38.000          35.000
 121831426.57547  94933587.77646  23183750.286    23183750.530    23183756.140
        42.000          38.000
 111886399.48947  87184215.10248  21291268.908    21291268.929    21291274.623
        47.000          49.000
 106441166.81448  82941170.65847  20255074.243    20255074.141    20255078.262
        50.000          44.000
 120652153.317 7  93840581.308 6  22538834.955    22538834.447    22538838.113
        43.000          38.000
 20  5  3  1 19 30.0000000  0  9G27G16R 1G26G 7G 3G 9G 4R 3
 124217768.42346  96793071.96545  23637851.509    23637851.891    23637858.908
        39.000          34.000
 107914058.17448  84088877.27746  20535358.210    20535357.839    20535360.721
        48.000          40.000
 114965003.139 7  89417233.296 6  21506575.995    21506587.399    21506595.105
        44.000          36.000
 118100859.64447  92026637.90646  22473840.143    22473839.907    22473846.843
        42.000          40.000
 124892667.22846  97318950.88945  23766283.446    23766283.407    23766288.094
        40.000          35.000
 122007437.08946  95070738.78746  23217243.709    23217244.104    23217250.102
        41.000          37.000
 111895447.90148  87191265.81548  21292990.959    21292990.799    21292996.393
        48.000          49.000
 106514566.88148  82998365.51647  20269041.816    20269041.772    20269045.778
        51.000          45.000
 120609503.424 7  93807409.203 6  22530867.518    22530867.422    22530870.907
        43.000          39.000
 20  5  3  1 20  0.0000000  0  9G27G16R 1G26G 7G 3G 9G 4R 3
 124201489.44046  96780387.07645  23634754.760    23634754.276    23634760.211
        38.000          34.000
 108014665.77148  84167272.80646  20554502.964    20554502.537    20554505.717
        48.000          40.000
 115154672.200 7  89564753.608 6  21542059.044    21542068.625    21542076.844
        44.000          36.000
 118259898.53747  92150564.31146  22504104.129    22504104.014    22504110.595
        42.000          40.000
 124890986.81746  97317641.48845  23765964.030    23765964.245    23765968.290
        40.000          35.000
 122183614.38246  95208019.76246  23250768.643    23250769.628    23250775.469
        41.000          37.000
 111904800.77947  87198553.78048  21294770.805    21294770.679    21294776.206
        47.000          49.000
 106588397.87748  83055896.15347  20283091.361    20283091.273    20283095.349
        50.000          44.000
 120567095.252 7  93774425.092 6  22522945.500    22522945.626    22522948.731
        44.000          39.000
 20  5  3  1 20 30.0000000  0  9G27G16R 1G26G 7G 3G 9G 4R 3
 124185436.95446  96767878.68345  23631699.099    23631699.869    23631705.647
        40.000          34.000
 108115881.39848  84246142.13546  20573763.688    20573763.460    20573766.404
        48.000          40.000
 115344705.383 7  89712557.172 6  21577608.139    21577618.647    21577626.671
        44.000          36.000
 118419231.87547  92274720.14246  22534424.481    22534424.435    22534431.012
        42.000          40.000
 124889390.73646  97316397.81546  23765661.009    23765660.358    23765664.394
        41.000          36.000
 122359957.03046  95345429.58946  23284326.095    23284326.602    23284332.430
        41.000          38.000
 111914461.75448  87206081.81448  21296609.115    21296609.088    21296614.618
        48.000          49.000
 106662662.21148  83113764.46247  20297223.154    20297223.303    20297227.413
        49.000          44.000
 120524934.271 7  93741633.258 6  22515070.399    22515069.643    22515072.784
        43.000          39.000
 20  5  3  1 21  0.0000000  0  9G27G16R 1G26G 7G 3G 9G 4R 3
 124169611.57346  96755547.25045  23628688.140    23628688.343    23628694.013
        39.000          35.000
 108217700.88248  84325481.99946  20593139.443    20593138.797    20593141.791
        49.000          40.000
 115535096.935 7  89860639.454 6  21613222.814    21613234.776    21613243.448
        44.000          36.000
 118578854.26546  92399101.21146  22564799.750    22564799.455    22564805.980
        41.000          39.000
 124887876.29846  97315217.76445  23765372.588    23765372.177    23765375.810
        41.000          35.000
 122536459.29946  95482963.78346  23317912.867    23317913.536    23317919.639
        41.000          37.000
 111924430.04448  87213849.31748  21298505.922    21298506.085    21298511.347
        48.000          49.000
 106737357.94848  83171968.92147  20311437.312    20311437.364    20311441.573
        50.000          44.000
 120483021.231 7  93709034.266 6  22507240.171    22507239.449    22507243.255
        43.000          39.000
 20  5  3  1 21 30.0000000  0  9G27G16R 1G26G 7G 3G 9G 4R 3
 124154014.67246  96743393.85145  23625719.747    23625720.424    23625726.160
        39.000          35.000
 108320120.33048  84405289.36546  20612629.075    20612628.696    20612631.569
        48.000          40.000
 115725841.491 7  90008996.274 6  21648905.644    21648916.568    21648925.818
        43.000          36.000
 118738761.06547  92523703.89646  22595228.695    22595228.610    22595235.612
        42.000          40.000
 124886441.54146  97314099.77946  23765099.360    23765099.574    23765102.965
        41.000          36.000
 122713116.13746  95620618.41746  23351529.809    23351530.233    23351536.344
        40.000          37.000
 111934705.65748  87221856.29048  21300461.715    21300461.495    21300466.720
        48.000          49.000
 106812483.81848  83230508.55947  20325733.419    20325733.393    20325737.444
        50.000          44.000
 120441358.024 7  93676629.580 6  22499456.487    22499456.625    22499459.710
        43.000          39.000
 20  5  3  1 22  0.0000000  0  9G27G16R 1G26G 7G 3G 9G 4R 3
 124138656.91446  96731426.78245  23622797.566    23622797.836    23622803.848
        40.000          35.000
 108423145.45348  84485568.68746  20632234.055    20632233.881    20632236.785
        48.000          40.000
 115916942.870 7  90157630.645 5  21684655.569    21684666.875    21684675.010
        43.000          35.000
 118898956.86447  92648531.77746  22625712.985    22625712.757    22625719.760
        42.000          39.000
 124885093.67946  97313049.52946  23764842.674    23764843.173    23764846.541
        41.000          36.000
 122889931.77346  95758396.80746  23385176.504    23385176.911    23385183.124
        40.000          37.000
 111945297.87748  87230109.96848  21302477.330    21302477.202    21302482.363
        48.000          49.000
 106888047.87948  83289389.63747  20340112.920    20340112.871    20340116.757
        50.000          44.000
 120399955.843 7  93644427.888 6  22491722.707    22491722.520    22491725.388
        44.000          39.000
 20  5  3  1 22 30.0000000  0  9G27G16R 1G26G 7G 3G 9G 4R 3
 124123528.25446  96719638.25545  23619918.056    23619918.852    23619924.820
        40.000          35.000
 108526761.13348  84566308.18646  20651951.658    20651951.321    20651954.231
        48.000          40.000
 116108384.475 7  90306529.644 5  21720470.097    21720480.450    21720487.824
        43.000          35.000
 119059425.69747  92773572.41546  22656249.324    22656248.886    22656255.866
        42.000          39.000
 124883819.85546  97312056.95946  23764600.260    23764600.700    23764604.141
        41.000          36.000
 123066889.90946  95896286.21946  23418850.673    23418851.130    23418857.188
        40.000          37.000
 111956195.35348  87238601.50748  21304550.958    21304550.850    21304556.024
        48.000          49.000
 106964037.60248  83348602.40447  20354573.142    20354573.133    20354577.061
        50.000          44.000
 120358804.835 7  93612421.575 6  22484034.821    22484035.149    22484038.127
        44.000          39.000
 20  5  3  1 23  0.0000000  0  9G27G16R 1G26G 7G 3G 9G 4R 3
 124108635.76646  96708033.76045  23617084.463    23617084.896    23617090.614
        39.000          35.000
 108630969.30948  84647509.36346  20671781.769    20671781.492    20671784.298
        49.000          40.000
 116300166.689 7  90455693.520 5  21756345.842    21756357.419    21756365.526
        43.000          35.000
 119220168.59546  92898826.60646  22686837.550    22686837.304    22686844.177
        41.000          39.000
 124882623.78346  97311124.98046  23764372.258    23764372.685    23764376.414
        40.000          36.000
 123243991.16646  96034287.16646  23452552.262    23452552.447    23452558.616
        40.000          37.000
 111967403.78648  87247335.35648  21306683.667    21306683.884    21306688.945
        48.000          49.000
 107040457.42048  83408150.30847  20369115.125    20369115.338    20369119.243
        51.000          44.000
 120317912.448 7  93580616.411 6  22476395.325    22476395.897    22476399.019
        44.000          39.000
 20  5  3  1 23 30.0000000  0  9G27G16R 1G26G 7G 3G 9G 4R 3
 122518562.04946  95469015.31345  23314503.376    23314503.319    23314509.225
        39.000          35.000
 107160351.72348  83501573.58746  20391932.679    20391932.178    20391935.101
        49.000          40.000
 114889729.908 7  89358687.111 5  21492493.374    21492505.765    21492513.969
        43.000          35.000
 117805768.05247  91796696.30346  22417686.504    22417686.350    22417692.826
        42.000          39.000
 123306085.16846  96082653.34746  23464367.240    23464367.002    23464371.058
        40.000          36.000
 121845818.23046  94944801.73346  23186488.736    23186489.043    23186495.274
        40.000          36.000
 110403505.33348  86028713.18348  21009083.839    21009083.826    21009088.931
        49.000          49.000
 105541890.39148  82240435.73347  20083947.674    20083947.515    20083951.485
        51.000          44.000
 118672468.688 7  92300826.834 6  22169013.333    22169012.595    22169015.848
        44.000          39.000
 20  5  3  1 24  0.0000000  0  9G27G16R 1G26G 7G 3G 9G 4R 3
 122504149.90746  95457785.12245  23311760.005    23311760.746    23311766.724
        39.000          35.000
 107265737.84448  83583692.64946  20411987.032    20411986.489    20411989.433
        49.000          40.000
 115082181.317 7  89508371.485 5  21528497.492    21528507.530    21528515.896
        43.000          35.000
 117967049.12747  91922369.86146  22448376.765    22448376.869    22448383.650
        42.000          39.000
 123305042.51146  96081840.90046  23464169.186    23464168.683    23464172.696
        40.000          36.000
 122023194.68146  95083017.11446  23220242.360    23220242.794    23220248.787
        40.000          36.000
 110415339.68848  86037934.76248  21011335.898    21011335.795    21011340.905
        48.000          50.000
 105619170.56648  82300654.04247  20098653.589    20098653.386    20098657.372
        50.000          44.000
 118632103.478 7  92269431.692 6  22161472.236    22161472.159    22161475.600
        44.000          39.000
 20  5  3  1 24 30.0000000  0  9G27G16R 1G26G 7G 3G 9G 4R 3
 122489992.78646  95446753.64645  23309066.883    23309066.439    23309073.417
        39.000          35.000
 107371720.09448  83666276.22446  20432154.754    20432154.190    20432157.073
        49.000          39.000
 115274972.114 7  89658319.833 5  21564563.267    21564573.525    21564581.198
        44.000          35.000
 118128605.10047  92048257.61746  22479120.147    22479120.248    22479126.802
        42.000          39.000
 123304086.54146  96081096.01146  23463986.623    23463986.559    23463991.132
        41.000          36.000
 122200714.00146  95221343.81746  23254023.894    23254023.715    23254029.432
        40.000          36.000
 110427499.76748  86047410.15248  21013649.969    21013649.787    21013654.872
        49.000          50.000
 105696891.77148  82361216.01647  20113443.121    20113443.179    20113447.234
        50.000          44.000
 118592017.154 7  92238253.465 6  22153983.537    22153983.960    22153986.789
        43.000          39.000
 20  5  3  1 25  0.0000000  0  9G27G16R 1G26G 7G 3G 9G 4R 3
 122476093.59346  95435923.13745  23306421.526    23306421.875    23306428.752
        38.000          35.000
 107478296.22748  83749322.56946  20452435.321    20452434.846    20452437.775
        49.000          39.000
 115468098.990 7  89808529.600 5  21600690.287    21600702.046    21600709.592
        43.000          35.000
 118290432.90946  92174357.19946  22509915.001    22509914.788    22509921.142
        41.000          38.000
 123303216.82446  96080418.30946  23463821.408    23463821.388    23463825.463
        41.000          36.000
 122378372.78046  95359779.19946  23287830.758    23287831.206    23287836.568
        40.000          36.000
 110439987.16248  86057140.59648  21016026.147    21016026.061    21016031.252
        49.000          50.000
 105775054.34448  82422121.90947  20128316.997    20128317.026    20128321.052
        50.000          44.000
 118552213.252 7  92207294.894 6  22146548.897    22146547.971    22146551.165
        44.000          39.000
 20  5  3  1 25 30.0000000  0  9G27G16R 1G26G 7G 3G 9G 4R 3
 122462453.71546  95425294.69745  23303826.223    23303826.055    23303832.952
        38.000          35.000
 107585462.24448  83832828.56246  20472828.557    20472827.742    20472830.696
        48.000          39.000
 115661556.041 7  89958996.142 5  21636880.759    21636892.249    21636899.928
        43.000          35.000
 118452527.99847  92300665.04546  22540760.616    22540760.392    22540767.204
        42.000          39.000
 123302432.06246  96079806.81546  23463671.960    23463672.549    23463676.239
        41.000          36.000
 122556166.01046  95498319.34945  23321663.441    23321664.191    23321669.968
        40.000          35.000
 110452801.93247  86067126.13148  21018464.638    21018464.581    21018469.785
        47.000          50.000
 105853657.02148  82483370.74147  20143274.573    20143274.666    20143278.786
        50.000          44.000
 118512693.938 7  92176557.676 6  22139165.912    22139166.042    22139168.543
        44.000          39.000
 20  5  3  1 26  0.0000000  0  9G27G16R 1G26G 7G 3G 9G 4R 3
 122449078.05446  95414872.12545  23301280.816    23301281.044    23301287.719
        38.000          35.000
 107693217.95748  83916794.05346  20493333.638    20493333.170    20493336.186
        48.000          40.000
 115855342.064 7  90109718.562 5  21673133.106    21673142.987    21673151.797
        43.000          35.000
 118614889.29646  92427180.32546  22571656.896    22571656.672    22571663.347
        41.000          38.000
 123301733.18046  96079262.24746  23463539.162    23463539.371    23463543.190
        41.000          36.000
 122734092.22746  95636963.12246  23355521.948    23355522.550    23355527.992
        40.000          36.000
 110465947.62548  86077369.52948  21020966.194    21020966.148    21020971.272
        48.000          50.000
 105932702.03348  82544964.24747  20158316.316    20158316.509    20158320.635
        50.000          44.000
 118473464.221 7  92146045.694 6  22131837.770    22131837.144    22131840.019
        45.000          39.000
 20  5  3  1 26 30.0000000  0  9G27G16R 1G26G 7G 3G 9G 4R 3
 122435969.26546  95404657.50146  23298785.956    23298786.279    23298792.944
        39.000          36.000
 107801560.95348  84001217.17146  20513950.262    20513950.024    20513953.150
        48.000          39.000
 116049452.486 7  90260693.287 5  21709444.833    21709455.723    21709463.943
        43.000          35.000
 118777513.39146  92553900.40646  22602603.253    22602603.210    22602609.150
        41.000          38.000
 123301120.47946  96078784.83546  23463422.842    23463422.811    23463426.528
        41.000          36.000
 122912147.78346  95775707.67746  23389404.923    23389405.535    23389410.961
        40.000          36.000
 110479425.53348  86087871.79348  21023530.946    21023530.818    21023536.054
        49.000          50.000
 106012189.33648  82606902.39747  20173442.552    20173442.521    20173446.562
        50.000          44.000
 118434527.431 7  92115761.544 6  22124564.301    22124563.281    22124566.888
        44.000          40.000
 20  5  3  1 27  0.0000000  0  9G27G16R 1G26G 7G 3G 9G 4R 3
 122423132.18646  95394654.62746  23296342.988    23296343.134    23296350.300
        39.000          36.000
 107910490.84548  84086097.61046  20534679.301    20534678.749    20534681.564
        48.000          39.000
 116243885.786 7  90411919.138 5  21745818.680    21745828.296    21745837.203
        44.000          35.000
 118940399.25346  92680824.43846  22633599.464    22633599.497    22633605.833
        41.000          38.000
 123300595.37846  96078375.67746  23463322.857    23463322.974    23463326.768
        41.000          37.000
 123090331.17946  95914551.84246  23423311.982    23423312.608    23423318.179
        40.000          36.000
 110493239.20048  86098635.68248  21026159.511    21026159.392    21026164.688
        48.000          50.000
 106092121.14148  82669186.91747  20188652.975    20188653.049    20188657.041
        50.000          44.000
 118395888.912 7  92085709.373 6  22117345.593    22117346.004    22117349.005
        44.000          40.000
 20  5  3  1 27 30.0000000  0  9G27G16R 1G26G 7G 3G 9G 4R 3
 122410563.96446  95384861.23146  23293951.817    23293951.845    23293958.386
        40.000          36.000
 108019999.40348  84171428.95546  20555518.184    20555517.500    20555520.715
        48.000          39.000
 116438632.270 7  90563388.583 5  21782248.707    21782259.591    21782268.848
        43.000          35.000
 119103538.06146  92807945.57446  22664643.743    22664643.864    22664650.407
        41.000          38.000
 123300151.25946  96078029.62846  23463238.582    23463238.509    23463242.104
        41.000          37.000
 123268633.20946  96053488.46246  23457241.426    23457242.460    23457248.113
        40.000          36.000
 110507384.47148  86109657.97348  21028851.175    21028851.121    21028856.386
        49.000          50.000
 106172491.91448  82731813.48247  20203947.040    20203946.991    20203951.170
        51.000          45.000
 118357546.277 7  92055887.344 6  22110182.891    22110183.190    22110187.007
        45.000          40.000
 20  5  3  1 28  0.0000000  0  9G27G16R 1G26G 7G 3G 9G 4R 3
 122398269.88446  95375281.47446  23291612.630    23291612.566    23291618.632
        40.000          36.000
 108130086.34848  84257210.99646  20576467.150    20576466.656    20576469.402
        49.000          40.000
 116633690.372 7  90715100.405 5  21818737.874    21818749.281    21818758.661
        42.000          35.000
 119266929.05247  92935263.20646  22695736.245    22695736.077    22695742.260
        42.000          38.000
 123299790.34746  96077748.40646  23463169.843    23463169.754    23463173.496
        41.000          37.000
 123447052.77646  96192516.66845  23491193.933    23491194.526    23491200.495
        40.000          35.000
 110521865.18848  86120941.64348  21031606.711    21031606.692    21031612.012
        49.000          50.000
 106253304.19448  82794784.07947  20219325.040    20219325.075    20219329.227
        50.000          44.000
 118319505.277 7  92026299.915 6  22103077.159    22103077.174    22103080.096
        45.000          40.000
 20  5  3  1 28 30.0000000  0  9G27G16R 1G26G 7G 3G 9G 4R 3
 122386265.07146  95365927.10046  23289328.025    23289328.383    23289334.046
        40.000          36.000
 108240761.71148  84343451.53746  20597527.480    20597527.128    20597530.278
        48.000          39.000
 116829068.964 7  90867061.481 5  21855287.928    21855298.739    21855307.591
        43.000          34.000
 119430581.45446  93062784.53446  22726877.722    22726878.050    22726884.502
        41.000          38.000
 123299524.69246  96077541.41246  23463119.032    23463119.248    23463122.679
        41.000          37.000
 123625598.73946  96331643.36145  23525170.075    23525170.562    23525176.671
        40.000          35.000
 110536695.19848  86132497.49448  21034428.775    21034428.761    21034434.095
        48.000          49.000
 106334570.41348  82858108.40047  20234789.129    20234789.462    20234793.696
        50.000          44.000
 118281782.032 7  91996959.632 6  22096030.317    22096030.300    22096033.481
        45.000          40.000
 20  5  3  1 29  0.0000000  0  9G27G16R 1G26G 7G 3G 9G 4R 3
 122374544.81246  95356794.46546  23287097.203    23287097.550    23287103.620
        39.000          36.000
 108352015.87548  84430143.09346  20618698.760    20618698.322    20618701.202
        48.000          40.000
 117024756.191 7  91019262.618 5  21891895.136    21891906.626    21891915.747
        43.000          34.000
 119594484.62646  93190501.27246  22758067.827    22758067.920    22758074.331
        41.000          39.000
 123299346.78646  96077402.80746  23463085.403    23463085.109    23463088.897
        41.000          37.000
 123804260.05046  96470859.92445  23559167.979    23559168.321    23559175.013
        39.000          35.000
 110551868.46948  86144320.81948  21037316.196    21037316.241    21037321.528
        48.000          51.000
 106416283.17948  82921780.67247  20250338.859    20250338.969    20250343.188
        49.000          44.000
 118244372.024 7  91967862.975 6  22089042.013    22089041.338    22089044.642
        45.000          40.000
 20  5  3  1 29 30.0000000  0  9G27G16R 1G26G 7G 3G 9G 4R 3
 122363108.75046  95347883.26445  23284921.115    23284921.109    23284927.103
        38.000          35.000
 108463842.87848  84517281.01946  20639978.724    20639978.017    20639981.156
        49.000          40.000
 117220745.077 7  91171698.373 5  21928557.883    21928570.960    21928578.515
        43.000          34.000
 119758632.28846  93318408.52346  22789304.104    22789304.101    22789310.815
        41.000          38.000
 123299252.61946  96077329.45246  23463067.712    23463067.211    23463071.206
        40.000          37.000
 123983029.99746  96610161.14345  23593186.713    23593187.350    23593193.960
        39.000          35.000
 110567383.33748  86156410.32448  21040268.928    21040268.744    21040273.954
        49.000          50.000
 106498439.44748  82985798.53147  20265972.596    20265972.744    20265977.032
        50.000          44.000
 118207275.532 7  91939010.179 6  22082111.204    22082111.374    22082114.424
        45.000          40.000
 20  5  3  1 30  0.0000000  0  9G27G16R 1G26G 7G 3G 9G 4R 3
 122351960.84546  95339196.62945  23282799.589    23282799.454    23282806.172
        38.000          35.000
 108576241.29848  84604864.20546  20661367.569    20661366.961    20661369.666
        48.000          39.000
 117417032.818 7  91324366.581 5  21965278.601    21965291.097    21965297.743
        44.000          34.000
 119923022.42146  93446504.70346  22820586.333    22820586.226    22820592.976
        41.000          38.000
 123299242.56546  96077321.63846  23463065.215    23463064.944    23463069.378
        41.000          38.000
 124161906.26746  96749545.21645  23627226.125    23627226.355    23627233.056
        40.000          35.000
 110583242.39348  86168768.02848  21043286.624    21043286.740    21043291.936
        48.000          50.000
 106581040.40048  83050162.90547  20281691.063    20281691.156    20281695.293
        50.000          44.000
 118170497.128 7  91910404.785 6  22075240.248    22075240.559    22075243.329
        45.000          40.000
 20  5  3  1 30 30.0000000  0  9G27G16R 1G26G 7G 3G 9G 4R 3
 122341106.66546  95330738.84346  23280734.345    23280735.005    23280740.632
        38.000          36.000
 108689211.26748  84692892.75046  20682864.826    20682864.353    20682867.356
        49.000          39.000
 117613618.338 7  91477266.380 5  22002054.826    22002065.927    22002073.369
        43.000          34.000
 120087654.70546  93574789.59346  22851915.203    22851914.832    22851921.592
        40.000          38.000
 123299319.83146  96077381.86546  23463079.838    23463079.701    23463083.829
        41.000          37.000
 124340888.10846  96889011.54945  23661284.709    23661285.425    23661291.948
        40.000          35.000
 110599449.88348  86181397.24148  21046370.973    21046371.001    21046376.069
        50.000          51.000
 106664088.84348  83114875.97047  20297494.492    20297494.825    20297498.883
        50.000          44.000
 118134042.815 7  91882051.457 6  22068430.851    22068431.195    22068432.942
        46.000          40.000
 20  5  3  1 31  0.0000000  0  9G27G16R 1G26G 7G 3G 9G 4R 3
 122330550.25346  95322513.09145  23278725.599    23278725.776    23278731.985
        38.000          35.000
 108802751.60848  84781365.74446  20704470.627    20704470.177    20704473.360
        48.000          39.000
 117810498.930 7  91630395.676 5  22038883.976    22038896.213    22038904.805
        42.000          34.000
 120252527.22646  93703261.66846  22883288.942    22883289.133    22883295.891
        40.000          38.000
 123299485.08446  96077510.65546  23463111.055    23463111.276    23463115.163
        41.000          37.000
 124519973.24846  97028558.36945  23695363.145    23695363.951    23695370.970
        39.000          34.000
 110616008.53748  86194300.08548  21049522.126    21049522.021    21049527.118
        49.000          50.000
 106747586.04948  83179938.72147  20313383.670    20313383.865    20313387.974
        50.000          44.000
 118097917.278 7  91853953.839 6  22061681.962    22061681.697    22061684.061
        45.000          39.000
 20  5  3  1 31 30.0000000  0  9G27G16R 1G26G 7G 3G 9G 4R 3
 122320283.43146  95314513.02046  23276771.711    23276771.477    23276778.019
        39.000          36.000
 108916849.15347  84870272.92646  20726182.779    20726182.478    20726185.360
        47.000          39.000
 118007659.610 7  91783742.824 5  22075766.704    22075779.740    22075787.901
        42.000          34.000
 120417625.95846  93831910.01546  22914706.464    22914706.577    22914713.212
        41.000          37.000
 123299726.89346  96077699.10246  23463157.535    23463157.503    23463161.046
        41.000          37.000
 124699147.29946  97168174.48345  23729459.794    23729459.783    23729466.425
        38.000          34.000
 110632908.89548  86207469.19248  21052738.024    21052737.984    21052743.182
        49.000          51.000
 106831521.24348  83245342.75947  20329356.078    20329356.257    20329360.296
        49.000          44.000
 118062112.951 7  91826106.047 6  22054992.387    22054993.249    22054995.492
        45.000          40.000
 20  5  3  1 32  0.0000000  0  9G27G16R 1G26G 7G 3G 9G 4R 3
 122310319.61046  95306749.01146  23274876.472    23274875.781    23274881.834
        39.000          36.000
 109031510.99448  84959619.79746  20748002.140    20748001.802    20748004.834
        48.000          39.000
 118205106.978 7  91937312.942 5  22112703.293    22112716.274    22112723.976
        42.000          34.000
 120582958.37146  93960740.44646  22946168.050    22946168.037    22946174.691
        41.000          37.000
 123300055.11646  96077954.88946  23463220.334    23463220.114    23463223.374
        41.000          38.000
 124878417.29446  97307865.35245  23763573.818    23763573.865    23763580.246
        39.000          34.000
 110650162.97748  86220913.93348  21056021.057    21056021.192    21056026.508
        49.000          50.000
 106915904.93648  83311096.28347  20345413.942    20345414.052    20345418.019
        49.000          44.000
 118026643.666 7  91798518.842 6  22048367.571    22048367.479    22048369.742
        45.000          40.000
 20  5  3  1 32 30.0000000  0  9G27G16R 1G26G 7G 3G 9G 4R 3
 122300660.61146  95299222.54346  23273038.052    23273037.991    23273043.741
        39.000          37.000
 109146734.14148  85049404.07146  20769928.338    20769928.120    20769931.071
        48.000          39.000
 118402836.335 7  92091102.407 5  22149693.877    22149705.177    22149714.135
        42.000          33.000
 120748520.45646  94089749.84746  22977673.625    22977673.277    22977680.056
        40.000          37.000
 123300469.06246  96078277.46746  23463299.350    23463298.890    23463301.687
        41.000          38.000
 125057778.86146  97447627.56945  23797704.446    23797704.964    23797711.839
        38.000          34.000
 110667771.40048  86234634.77948  21059371.971    21059372.038    21059377.189
        49.000          50.000
 107000736.25148  83377198.59947  20361556.743    20361556.818    20361560.878
        50.000          44.000
 117991512.180 7  91771194.363 6  22041803.725    22041804.414    22041807.105
        45.000          40.000
 20  5  3  1 33  0.0000000  0  9G27G16R 1G26G 7G 3G 9G 4R 3
 122291313.39546  95291939.02546  23271259.194    23271259.078    23271265.315
        40.000          37.000
 109262519.97548  85139626.79646  20791961.845    20791961.308    20791964.302
        48.000          39.000
 118600847.999 7  92245111.444 5  22186735.375    22186747.812    22186755.892
        42.000          34.000
 120914313.21546  94218938.99646  23009223.183    23009222.946    23009229.702
        40.000          37.000
 123300972.28847  96078669.61046  23463394.496    23463394.669    23463397.536
        42.000          37.000
 125237232.61046  97587461.63245  23831853.788    23831853.655    23831860.745
        39.000          34.000
 110685739.72548  86248636.07148  21062791.326    21062791.372    21062796.312
        50.000          51.000
 107086019.31548  83443652.92647  20377785.628    20377785.616    20377789.711
        49.000          44.000
 117956725.784 7  91744138.306 6  22035306.286    22035306.385    22035308.751
        46.000          40.000
 20  5  3  1 33 30.0000000  0 10G27G 8G16R 1G26G 7G 3G 9G 4R 3
 122282278.93346  95284899.21046  23269539.345    23269539.739    23269545.640
        41.000          37.000
 128203475.72845                  24396302.730
        35.000
 109378864.13048  85230284.57346  20814101.386    20814101.161    20814103.921
        48.000          39.000
 118799136.054 6  92399335.435 5  22223829.479    22223842.127    22223849.870
        41.000          34.000
 121080331.76146  94348304.08046  23040814.930    23040815.057    23040822.040
        40.000          37.000
 123301562.42346  96079129.47846  23463506.916    23463506.901    23463509.758
        41.000          38.000
 125416773.28946  97727363.43045  23866019.041    23866019.042    23866026.518
        38.000          33.000
 110704067.58648  86262917.52248  21066279.137    21066279.001    21066283.940
        50.000          51.000
 107171752.28348  83510457.82747  20394099.916    20394100.049    20394104.263
        50.000          44.000
 117922286.416 7  91717352.141 6  22028872.949    22028872.772    22028875.510
        46.000          40.000
 20  5  3  1 34  0.0000000  0 10G27G 8G16R 1G26G 7G 3G 9G 4R 3
 122273547.51646  95278095.52246  23267878.321    23267878.985    23267884.301
        41.000          38.000
 128173135.57545  99875163.78944  24390529.515    24390529.743    24390537.431
        35.000          26.000
 109495751.48648  85321365.62946  20836344.515    20836343.980    20836346.695
        48.000          39.000
 118997683.800 7  92553761.406 5  22260973.156    22260984.210    22260992.214
        42.000          34.000
 121246560.59046  94477833.01046  23072447.418    23072447.525    23072454.378
        40.000          37.000
 123302226.50446  96079646.97046  23463633.194    23463633.023    23463636.151
        40.000          38.000
 125596385.00346  97867320.54545  23900197.216    23900197.941    23900205.337
        37.000          33.000
 110722744.05548  86277470.61448  21069832.784    21069832.920    21069837.971
        49.000          50.000
 107257922.73548  83577603.62247  20410497.633    20410497.649    20410501.928
        49.000          44.000
 117888184.693 7  91690828.598 6  22022502.231    22022501.946    22022504.713
        46.000          40.000
 20  5  3  1 34 30.0000000  0 10G27G 8G16R 1G26G 7G 3G 9G 4R 3
 120689719.79346  94043944.07946  22966485.921    22966485.740    22966492.032
        41.000          38.000
 126567397.85245  98623939.61044  24084967.631    24084967.600    24084975.031
        34.000          24.000
 108037781.41948  84185285.05946  20558901.813    20558901.562    20558904.436
        48.000          39.000
 117593950.198 6  91461968.551 5  21998375.334    21998386.478    21998395.832
        41.000          34.000
 119837600.25546  93379941.81646  22804331.308    22804331.158    22804337.927
        39.000          37.000
 121727562.67646  94852636.20746  23163984.619    23163984.395    23163987.614
        41.000          38.000
 124200668.26346  96779749.02645  23634602.188    23634601.884    23634609.354
        37.000          33.000
 109166369.31948  85064711.08648  20773664.643    20773664.570    20773669.783
        49.000          50.000
 105769131.64448  82417506.65347  20127189.878    20127190.223    20127194.433
        49.000          44.000
 116249628.813 7  90416396.264 6  21716406.173    21716406.437    21716408.980
        46.000          41.000
 20  5  3  1 35  0.0000000  0 10G27G 8G16R 1G26G 7G 3G 9G 4R 3
 120681637.15447  94037645.93646  22964948.660    22964948.618    22964953.887
        42.000          38.000
 126537105.75345  98600335.43844  24079203.694    24079203.302    24079210.617
        32.000          24.000
 108155781.40048  84277233.10146  20581356.755    20581356.046    20581359.086
        48.000          39.000
 117793040.500 7  91616816.543 5  22035619.742    22035631.708    22035638.910
        43.000          34.000
 120004274.65946  93509817.96346  22836048.493    22836048.106    22836054.730
        40.000          36.000
 121728408.67546  94853295.44246  23164145.567    23164145.172    23164148.646
        41.000          38.000
 124380445.84446  96919835.41645  23668811.992    23668812.487    23668819.878
        37.000          33.000
 109185781.67148  85079837.58748  20777358.693    20777358.618    20777363.803
        49.000          50.000
 105856211.23448  82485360.86547  20143760.784    20143760.977    20143765.139
        50.000          44.000
 116216247.361 7  90390432.937 6  21710170.251    21710170.231    21710172.663
        46.000          40.000
 20  5  3  1 35 30.0000000  0 10G27G 8G16R 1G26G 7G 3G 9G 4R 3
 120673885.82246  94031605.96446  22963472.891    22963473.313    22963479.167
        41.000          38.000
 126506843.95545  98576754.84244  24073445.302    24073444.701    24073451.556
        34.000          24.000
 108274336.50848  84369613.70346  20603916.921    20603916.399    20603919.431
        48.000          40.000
 117992399.033 6  91771873.128 5  22072913.532    22072924.865    22072933.322
        41.000          34.000
 120171170.03746  93639866.28846  22867807.428    22867807.148    22867814.056
        40.000          36.000
 121729347.20046  94854026.78246  23164323.567    23164323.129    23164327.392
        41.000          37.000
 124560303.97246  97059984.56945  23703038.880    23703038.659    23703046.043
        38.000          33.000
 109205566.91248  85095254.66348  20781123.772    20781123.652    20781128.769
        49.000          51.000
 105943748.14248  82553571.43047  20160418.681    20160418.680    20160422.905
        50.000          44.000
 116183234.225 7  90364756.084 6  21704002.568    21704002.440    21704005.580
        45.000          40.000
 20  5  3  1 36  0.0000000  0 10G27G 8G16R 1G26G 7G 3G 9G 4R 3
 120666470.18146  94025827.58846  22962061.607    22962061.573    22962068.052
        41.000          38.000
 126476617.09545  98553201.49144  24067693.289    24067692.942    24067699.513
        33.000          25.000
 108393445.89948  84462426.20946  20626582.504    20626582.150    20626585.125
        48.000          39.000
 118192023.395 6  91927136.478 5  22110255.867    22110268.790    22110277.579
        41.000          33.000
 120338285.00646  93770085.73646  22899607.835    22899608.052    22899615.089
        39.000          36.000
 121730380.50046  94854831.96246  23164520.138    23164519.590    23164524.236
        41.000          37.000
 124740240.79046  97200195.02845  23737279.077    23737279.427    23737286.682
        38.000          32.000
 109225728.23048  85110964.77648  20784960.359    20784960.141    20784965.366
        49.000          51.000
 106031743.91048  82622139.54947  20177163.642    20177163.718    20177167.808
        50.000          43.000
 116150594.522 7  90339369.671 6  21697905.070    21697905.684    21697908.610
        47.000          41.000
 20  5  3  1 36 30.0000000  0 10G27G 8G16R 1G26G 7G 3G 9G 4R 3
 120659386.82646  94020308.10946  22960713.421    22960713.807    22960720.174
        41.000          38.000
 126446421.37545  98529672.35744  24061947.579    24061947.361    24061953.824
        34.000          24.000
 108513099.95648  84555663.14146  20649352.291    20649351.764    20649354.698
        48.000          39.000
 118391903.644 7  92082598.818 5  22147647.910    22147660.797    22147669.456
        42.000          33.000
 120505610.23346  93900469.01046  22931449.458    22931449.039    22931455.963
        40.000          36.000
 121731501.79447  94855705.71146  23164733.236    23164733.263    23164737.398
        42.000          38.000
 124920246.75546  97340459.38345  23771532.789    23771533.382    23771540.666
        37.000          32.000
 109246260.80348  85126964.18148  20788867.241    20788867.374    20788872.520
        48.000          51.000
 106120192.25548  82691060.33147  20193994.788    20193994.843    20193998.931
        50.000          43.000
 116118325.042 7  90314271.203 6  21691877.615    21691876.886    21691879.823
        46.000          41.000
 20  5  3  1 37  0.0000000  0 10G27G 8G16R 1G26G 7G 3G 9G 4R 3
 120652625.88246  94015039.88346  22959427.313    22959427.103    22959433.978
        41.000          37.000
 126416246.76245  98506159.75744  24056205.231    24056205.022    24056212.052
        33.000          26.000
 108633283.69248  84649312.79646  20672222.057    20672221.671    20672224.802
        48.000          39.000
 118592022.632 7  92238246.865 5  22185087.500    22185097.511    22185105.962
        42.000          33.000
 120673130.21946  94031004.03646  22963327.081    22963327.463    22963334.273
        39.000          36.000
 121732697.71747  94856637.61846  23164961.213    23164961.267    23164964.995
        42.000          37.000
 125100305.77346  97480765.06145  23805797.174    23805797.708    23805804.848
        38.000          33.000
 109267153.56948  85143244.25748  20792843.256    20792843.212    20792848.306
        50.000          51.000
 106209080.56348  82760323.93747  20210909.782    20210909.855    20210913.853
        50.000          43.000
 116086416.767 7  90289453.679 6  21685916.751    21685916.782    21685919.424
        46.000          41.000
 20  5  3  1 37 30.0000000  0 10G27G 8G16R 1G26G 7G 3G 9G 4R 3
 120646200.18146  94010032.86946  22958203.897    22958203.984    22958210.689
        40.000          37.000
 126386106.18245  98482673.61644  24050469.687    24050469.315    24050476.189
        34.000          26.000
 108754004.16847  84743380.70046  20695194.552    20695194.040    20695197.216
        47.000          39.000
 118792386.682 7  92394085.519 5  22222568.372    22222580.111    22222586.640
        42.000          33.000
 120840851.84946  94161696.19246  22995243.479    22995243.840    22995250.520
        40.000          36.000
 121733978.36446  94857635.54346  23165205.052    23165205.028    23165208.578
        41.000          37.000
 125280424.41446  97621117.19745  23840073.538    23840073.059    23840080.161
        37.000          32.000
 109288418.02448  85159813.96448  20796889.699    20796889.695    20796894.818
        48.000          51.000
 106298418.73448  82829938.08447  20227910.270    20227910.416    20227914.360
        49.000          43.000
 116054883.171 7  90264927.566 6  21680026.419    21680026.088    21680028.580
        46.000          41.000
 20  5  3  1 38  0.0000000  0 10G27G 8G16R 1G26G 7G 3G 9G 4R 3
 120640125.71646  94005299.54046  22957048.438    22957048.608    22957054.636
        41.000          36.000
 126356014.93545  98459225.91244  24044743.092    24044742.875    24044749.447
        33.000          25.000
 108875272.10148  84837875.19046  20718271.136    20718270.510    20718273.815
        48.000          39.000
 118993005.208 6  92550122.083 5  22260100.385    22260108.688    22260118.658
        41.000          33.000
 121008785.34346  94292553.45246  23027201.007    23027200.656    23027207.568
        40.000          37.000
 121735356.81547  94858709.67946  23165467.582    23165467.236    23165470.864
        42.000          38.000
 125460612.56346  97761523.52145  23874361.663    23874362.103    23874368.863
        37.000          32.000
 109310068.82348  85176684.71548  20801009.658    20801009.653    20801014.880
        49.000          51.000
 106388219.89848  82899913.00447  20244998.760    20244999.014    20245002.979
        50.000          44.000
 116023741.250 7  90240706.072 6  21674207.748    21674208.369    21674211.058
        46.000          41.000
 20  5  3  1 38 30.0000000  0 10G27G 8G16R 1G26G 7G 3G 9G 4R 3
 120634404.13046  94000841.18146  22955959.529    22955959.461    22955965.760
        41.000          37.000
 126325974.84345  98435818.09844  24039026.985    24039026.646    24039033.612
        35.000          25.000
 108997083.50648  84932793.17046  20741450.990    20741450.608    20741453.798
        48.000          39.000
 119193873.510 6  92706352.957 5  22297673.660    22297686.341    22297694.293
        41.000          33.000
 121176926.70146  94423572.67746  23059196.598    23059196.942    23059203.400
        41.000          36.000
 121736831.09847  94859858.49346  23165747.770    23165747.982    23165751.305
        42.000          38.000
 125640865.73446  97901980.47745  23908663.115    23908662.783    23908670.156
        38.000          32.000
 109332106.47248  85193856.90648  20805203.180    20805203.263    20805208.507
        49.000          51.000
 106478482.94848  82970247.83747  20262175.441    20262175.535    20262179.638
        50.000          43.000
 115992993.399 7  90216791.077 6  21668465.746    21668464.459    21668467.459
        46.000          41.000
 20  5  3  1 39  0.0000000  0 10G27G 8G16R 1G26G 7G 3G 9G 4R 3
 120629028.19746  93996652.15246  22954936.314    22954936.765    22954942.380
        40.000          37.000
 126295978.78845  98412444.57844  24033318.726    24033318.579    24033326.548
        34.000          26.000
 109119425.53148  85028124.61646  20764731.860    20764731.477    20764734.584
        48.000          39.000
 119394977.042 7  92862766.754 5  22335295.425    22335306.464    22335315.176
        42.000          33.000
 121345262.85046  94554743.68746  23091230.107    23091229.991    23091237.017
        41.000          36.000
 121738391.39147  94861074.31146  23166044.861    23166045.035    23166048.303
        42.000          38.000
 125821170.45746  98042477.62645  23942973.803    23942973.737    23942980.839
        37.000          32.000
 109354522.29748  85211323.78648  20809468.863    20809468.885    20809474.168
        49.000          51.000
 106569197.66848  83040934.61847  20279437.812    20279437.867    20279441.929
        49.000          43.000
 115962633.036 7  90193177.470 6  21662792.109    21662792.922    21662795.866
        46.000          41.000
 20  5  3  1 39 30.0000000  0 10G27G 8G16R 1G26G 7G 3G 9G 4R 3
 120624008.88346  93992741.01746  22953981.560    22953981.222    22953987.242
        39.000          36.000
 126266037.45045  98389113.71844  24027620.818    24027621.262    24027628.399
        35.000          26.000
 109242303.73248  85123873.86246  20788114.789    20788114.238    20788117.530
        49.000          39.000
 119596320.363 6  93019367.077 5  22372960.818    22372972.015    22372980.534
        40.000          33.000
 121513799.06346  94686070.58546  23123301.442    23123301.423    23123308.186
        40.000          36.000
 121740045.27047  94862363.06146  23166359.893    23166360.069    23166363.049
        43.000          39.000
 126001531.64246  98183018.76445  23977295.277    23977295.477    23977302.478
        37.000          32.000
 109377326.05248  85229092.94048  20813808.286    20813808.338    20813813.668
        49.000          52.000
 106660372.19748  83111979.69147  20296787.669    20296787.698    20296791.971
        50.000          43.000
 115932671.521 7  90169874.075 7  21657195.509    21657195.511    21657198.918
        46.000          42.000
 20  5  3  1 40  0.0000000  0 10G27G 8G16R 1G26G 7G 3G 9G 4R 3
 120619338.47646  93989101.74546  22953092.745    22953092.499    22953098.950
        40.000          37.000
 126236143.29945  98365819.63244  24021932.075    24021931.539    24021939.092
        34.000          25.000
 109365704.91547  85220030.62646  20811597.331    20811596.854    20811599.828
        47.000          39.000
 119797889.069 6  93176142.672 5  22410665.302    22410679.055    22410687.867
        40.000          33.000
 121682521.93046  94817542.93446  23155408.561    23155408.602    23155415.069
        39.000          36.000
 121741782.15147  94863716.49246  23166690.120    23166690.591    23166693.751
        42.000          39.000
 126181935.43846  98323593.10045  24011624.882    24011625.174    24011632.306
        38.000          32.000
 109400508.84148  85247157.44548  20818219.857    20818219.938    20818225.220
        50.000          51.000
 106751996.04148  83183374.88647  20314223.002    20314223.180    20314227.458
        49.000          43.000
 115903102.375 7  90146875.856 7  21651672.115    21651671.848    21651675.082
        46.000          42.000
 20  5  3  1 40 30.0000000  0 10G27G 8G16R 1G26G 7G 3G 9G 4R 3
 120615026.55846  93985741.81346  22952271.459    22952271.492    22952277.826
        40.000          37.000
 126206305.24245  98342569.26144  24016253.651    24016253.772    24016261.235
        33.000          25.000
 109489633.26248  85316598.17046  20835180.046    20835179.437    20835182.798
        48.000          38.000
 119999685.857 6  93333095.698 5  22448418.849    22448430.739    22448438.041
        41.000          32.000
 121851435.26846  94949163.68545  23187551.558    23187551.252    23187557.924
        39.000          35.000
 121743608.66147  94865139.76646  23167038.190    23167037.959    23167041.301
        42.000          38.000
 126362385.27946  98464203.31945  24045963.344    24045963.565    24045970.842
        37.000          32.000
 109424078.86748  85265523.69848  20822705.205    20822705.243    20822710.316
        50.000          51.000
 106844075.76048  83255125.29947  20331745.277    20331745.441    20331749.577
        49.000          43.000
 115873935.613 7  90124190.607 7  21646223.430    21646223.029    21646226.558
        46.000          42.000
 20  5  3  1 41  0.0000000  0 10G27G 8G16R 1G26G 7G 3G 9G 4R 3
 120611094.71846  93982678.05646  22951523.858    22951523.994    22951530.342
        41.000          38.000
 126176545.18645  98319379.65044  24010590.150    24010590.206    24010598.090
        34.000          26.000
 109614104.37648  85413588.64746  20858866.360    20858865.535    20858868.759
        48.000          39.000
 120201726.509 6  93490238.349 5  22486217.523    22486226.408    22486233.491
        41.000          32.000
 122020555.01146  95080945.26845  23219733.745    23219734.089    23219740.563
        39.000          35.000
 121745543.54647  94866647.48246  23167406.201    23167405.988    23167409.533
        42.000          38.000
 126542896.68146  98604861.52045  24080313.304    24080313.947    24080321.150
        37.000          31.000
 109448056.48448  85284207.55048  20827268.044    20827267.988    20827273.049
        49.000          52.000
 106936630.13048  83327245.57547  20349357.767    20349357.869    20349362.085
        49.000          43.000
 115845194.107 7  90101836.112 7  21640853.806    21640854.045    21640857.247
        47.000          42.000
 20  5  3  1 41 30.0000000  0 10G27G 8G16R 1G26G 7G 3G 9G 4R 3
 120607529.16546  93979899.73046  22950845.695    22950845.038    22950851.558
        41.000          38.000
 126146849.16145  98296239.94244  24004939.276    24004939.101    24004947.976
        33.000          26.000
 109739099.08048  85510987.11946  20882651.841    20882651.289    20882654.484
        48.000          38.000
 120403989.653 6  93647554.063 5  22524052.334    22524063.858    22524070.967
        41.000          30.000
 122189861.65846  95212872.52045  23251952.117    23251951.775    23251958.180
        39.000          34.000
 121747569.52447  94868226.17546  23167791.312    23167791.407    23167795.108
        42.000          39.000
 126723449.75446  98745552.18045  24114672.484    24114672.312    24114679.312
        37.000          32.000
 109472426.64448  85303197.28648  20831905.494    20831905.522    20831910.445
        50.000          51.000
 107029642.45748  83399722.70147  20367057.352    20367057.457    20367061.691
        50.000          43.000
 115816864.557 7  90079802.032 7  21635561.625    21635561.490    21635565.010
        46.000          42.000
 20  5  3  1 42  0.0000000  0 10G27G 8G16R 1G26G 7G 3G 9G 4R 3
 120604327.13746  93977404.64346  22950235.624    22950236.094    22950242.207
        41.000          38.000
 126117214.48845  98273148.01744  23999300.300    23999300.457    23999307.908
        35.000          27.000
 109864608.88748  85608786.96446  20906535.542    20906534.927    20906538.223
        48.000          38.000
 120606465.963 6  93805035.594 5  22561929.316    22561941.343    22561949.839
        41.000          32.000
 122359346.78846  95344938.82945  23284203.816    23284203.814    23284210.766
        39.000          35.000
 121749681.08347  94869871.56846  23168193.072    23168193.193    23168196.911
        42.000          39.000
 126904035.65746  98886268.41545  24149036.387    24149036.408    24149043.806
        37.000          31.000
 109497185.31548  85322489.75548  20836616.700    20836616.827    20836621.766
        50.000          51.000
 107123107.05648  83472552.24047  20384843.152    20384843.399    20384847.493
        49.000          43.000
 115788944.866 7  90058086.739 7  21630346.335    21630345.755    21630349.558
        46.000          42.000
 20  5  3  1 42 30.0000000  0 10G27G 8G16R 1G26G 7G 3G 9G 4R 3
 120601496.92546  93975199.29946  22949697.519    22949697.449    22949703.652
        41.000          39.000
 126087649.66446  98250110.55244  23993675.677    23993674.224    23993681.633
        36.000          28.000
 109990636.74748  85706990.49546  20930518.153    20930517.510    20930520.393
        48.000          38.000
 120809157.480 6  93962684.483 4  22599845.703    22599858.418    22599867.125
        41.000          29.000
 122529013.04746  95477146.28945  23316490.573    23316490.082    23316497.015
        39.000          34.000
 121751883.59247  94871587.83146  23168612.234    23168612.626    23168615.835
        42.000          39.000
 127084656.67846  99027012.00745  24183407.778    24183407.899    24183415.114
        37.000          31.000
 109522339.60348  85342090.50248  20841403.606    20841403.391    20841408.432
        50.000          51.000
 107217029.34648  83545738.43347  20402715.994    20402716.108    20402720.464
        49.000          43.000
 115761444.121 7  90036697.289 7  21625207.539    21625208.685    21625212.220
        46.000          43.000
 20  5  3  1 43  0.0000000  0 10G27G 8G16R 1G26G 7G 3G 9G 4R 3
 120599046.41046  93973289.82046  22949230.788    22949231.395    22949237.068
        41.000          38.000
 126058162.16146  98227133.33644  23988063.285    23988063.204    23988070.880
        36.000          29.000
 110117184.88748  85805599.43446  20954599.308    20954598.714    20954601.669
        48.000          38.000
 121012065.133 7  94120501.486 5  22637806.878    22637818.469    22637825.256
        42.000          32.000
 122698862.67846  95609496.63345  23348811.216    23348811.503    23348817.972
        39.000          33.000
 121754181.81247  94873378.67446  23169049.947    23169050.052    23169052.855
        43.000          39.000
 127265314.56046  99167784.32645  24217785.201    24217786.184    24217793.127
        38.000          31.000
 109547896.02348  85362004.59848  20846266.725    20846266.593    20846271.782
        49.000          52.000
 107311414.26048  83619285.10247  20420676.900    20420677.018    20420681.185
        49.000          43.000
 115734371.093 7  90015640.507 7  21620151.688    21620151.123    21620154.767
        47.000          42.000
 20  5  3  1 43 30.0000000  0 10G27G 8G16R 1G26G 7G 3G 9G 4R 3
 120596970.51046  93971672.26546  22948835.798    22948835.722    22948842.366
        40.000          38.000
 126028747.03146  98204212.50345  23982465.304    23982466.102    23982473.824
        37.000          30.000
 110244242.44748  85904605.32846  20978777.667    20978777.111    20978779.939
        48.000          38.000
 121215177.167 6  94278477.449 5  22675802.447    22675813.588    22675821.350
        41.000          32.000
 122868884.98446  95741981.53945  23381165.361    23381165.598    23381172.519
        38.000          33.000
 121756567.70947  94875237.83946  23169503.535    23169503.878    23169506.928
        43.000          39.000
 127445998.21346  99308576.73645  24252168.378    24252169.172    24252176.328
        37.000          31.000
 109573848.28748  85382227.13848  20851205.221    20851205.264    20851210.457
        48.000          52.000
 107406253.83548  83693186.05847  20438724.377    20438724.393    20438728.580
        49.000          43.000
 115707721.535 7  89994913.080 7  21615172.533    21615172.514    21615176.860
        47.000          43.000
 20  5  3  1 44  0.0000000  0 10G27G 8G16R 1G26G 7G 3G 9G 4R 3
 120595284.46946  93970358.47946  22948514.881    22948515.220    22948521.384
        40.000          38.000
 125999419.58446  98181360.00445  23976884.609    23976884.633    23976892.111
        37.000          30.000
 110371819.09048  86004015.69746  21003054.684    21003054.131    21003057.089
        48.000          38.000
 121418502.405 6  94436619.263 4  22713836.998    22713849.240    22713857.375
        41.000          29.000
 123039089.53346  95874608.44445  23413554.834    23413554.583    23413561.230
        38.000          33.000
 121759053.60147  94877174.92546  23169977.092    23169976.926    23169979.848
        43.000          39.000
 127626716.86446  99449396.40645  24286558.436    24286558.887    24286565.531
        37.000          31.000
 109600210.36448  85402769.01948  20856222.004    20856221.921    20856226.989
        50.000          52.000
 107501560.38248  83767450.88647  20456860.362    20456860.717    20456864.859
        50.000          43.000
 115681511.482 7  89974527.504 4  21610277.271    21610276.775    21610280.486
        47.000          28.000
 20  5  3  1 44 30.0000000  0 10G27G 8G16R 1G26G 7G 3G 9G 4R 3
 120593976.08046  93969338.98246  22948266.028    22948266.280    22948272.424
        40.000          38.000
 125970167.70846  98158566.38145  23971318.363    23971318.015    23971325.134
        37.000          30.000
 110499897.16448  86103816.78546  21027426.898    21027426.359    21027429.358
        48.000          38.000
 121622021.939 6  94594912.196 5  22751911.138    22751922.523    22751929.277
        41.000          31.000
 123209458.68146  96007363.58445  23445974.657    23445974.709    23445981.458
        38.000          33.000
 121761624.62947  94879178.35146  23170465.933    23170465.927    23170469.020
        42.000          39.000
 127807452.31846  99590229.17345  24320951.163    24320951.879    24320958.620
        37.000          31.000
 109626968.91648  85423619.83648  20861313.957    20861313.823    20861319.083
        50.000          52.000
 107597318.75848  83842067.79247  20475082.778    20475082.788    20475087.147
        48.000          43.000
 115655729.607 8  89954474.933 7  21605460.947    21605460.920    21605464.180
        48.000          42.000
 20  5  3  1 45  0.0000000  0 10G27G 8G16R 1G26G 7G 3G 9G 4R 3
 119017630.58446  92741017.82346  22648297.536    22648297.447    22648303.529
        41.000          39.000
 124365575.54846  96908234.87345  23665974.035    23665974.311    23665981.527
        37.000          31.000
 109053060.53847  84976411.62546  20752103.058    20752102.563    20752105.694
        47.000          38.000
 120223178.638 6  93506922.870 5  22490228.580    22490238.649    22490247.432
        40.000          31.000
 121804577.68246  94912651.09145  23178634.845    23178634.563    23178641.318
        38.000          33.000
 120188863.01247  93653649.83446  22871179.554    22871179.243    22871182.622
        43.000          39.000
 126412789.88146  98503479.16945  24055555.699    24055556.248    24055563.108
        37.000          31.000
 108078708.80548  84217183.38348  20566689.626    20566689.648    20566694.974
        50.000          52.000
 106118114.55848  82689441.12347  20193599.477    20193599.477    20193603.916
        49.000          43.000
 114025568.304 8  88686571.693 7  21300932.866    21300933.276    21300936.215
        48.000          43.000
 20  5  3  1 45 30.0000000  0 10G27G 8G16R 1G26G 7G 3G 9G 4R 3
 119017088.86546  92740595.73846  22648194.722    22648194.519    22648201.037
        41.000          39.000
 124336486.03946  96885567.78945  23660438.519    23660438.745    23660445.834
        37.000          31.000
 109182135.79748  85076989.74346  20776665.462    20776664.892    20776667.917
        48.000          38.000
 120427077.924 6  93665511.147 5  22528371.982    22528382.113    22528391.498
        40.000          31.000
 121975270.41546  95045658.40645  23211117.285    23211116.383    23211123.238
        38.000          34.000
 120191606.50947  93655787.64646  22871701.741    22871701.125    22871704.819
        42.000          40.000
 126593552.28146  98644332.92445  24089954.549    24089954.837    24089960.992
        38.000          32.000
 108106267.73748  84238657.86948  20571934.030    20571934.013    20571939.146
        49.000          52.000
 106214779.18548  82764764.19447  20211993.980    20211994.256    20211998.514
        48.000          43.000
 114000656.221 8  88667195.635 7  21296278.891    21296279.093    21296282.326
        48.000          42.000
 20  5  3  1 46  0.0000000  0 10G27G 8G16R 1G26G 7G 3G 9G 4R 3
 119016942.24746  92740481.50446  22648166.500    22648166.599    22648173.063
        41.000          39.000
 124307489.88946  96862973.43645  23654921.157    23654921.156    23654927.937
        38.000          31.000
 109311713.09947  85177959.06346  20801323.084    20801322.211    20801325.619
        47.000          37.000
 120631169.183 6  93824248.727 5  22566550.410    22566561.226    22566570.210
        40.000          31.000
 122146128.41946  95178794.49745  23243629.279    23243629.705    23243636.699
        38.000          33.000
 120194443.49747  93657998.30946  22872240.964    22872240.718    22872244.909
        42.000          40.000
 126774330.95046  98785199.37045  24124355.099    24124355.631    24124362.041
        37.000          31.000
 108134236.80048  84260451.93748  20577256.518    20577256.382    20577261.469
        50.000          52.000
 106311904.27448  82840446.07247  20230476.312    20230476.657    20230480.792
        49.000          43.000
 113976192.217 8  88648168.070 7  21291709.408    21291708.696    21291711.858
        48.000          42.000
 20  5  3  1 46 30.0000000  0 10G27G 8G16R 1G26G 7G 3G 9G 4R 3
 119017191.27947  92740675.57746  22648214.517    22648214.288    22648220.202
        42.000          39.000
 124278587.48646  96840452.11145  23649420.876    23649420.083    23649428.505
        37.000          30.000
 109441787.48047  85279315.71746  20826075.651    20826074.982    20826078.037
        47.000          38.000
 120835446.208 6  93983130.786 5  22604765.140    22604775.999    22604785.572
        41.000          31.000
 122317146.77646  95312055.54945  23276173.501    23276173.420    23276180.068
        38.000          32.000
 120197371.54747  93660279.92846  22872798.514    22872797.891    22872802.166
        42.000          40.000
 126955120.55446  98926074.33445  24158758.425    24158758.572    24158765.336
        37.000          31.000
 108162615.36648  84282565.09748  20582656.739    20582656.647    20582661.733
        49.000          52.000
 106409487.47048  82916484.91847  20249045.955    20249046.103    20249050.212
        48.000          43.000
 113952177.503 7  88629489.967 7  21287222.850    21287222.663    21287225.607
        47.000          42.000
 20  5  3  1 47  0.0000000  0 10G27G 8G16R 1G26G 7G 3G 9G 4R 3
 119017837.23246  92741178.93446  22648336.204    22648336.926    22648342.969
        41.000          39.000
 124249780.28146  96818004.95845  23643939.084    23643938.934    23643946.905
        37.000          31.000
 109572354.69347  85381056.40046  20850921.359    20850921.065    20850924.180
        47.000          38.000
 121039903.601 6  94142153.174 5  22643013.926    22643025.254    22643033.252
        41.000          31.000
 122488321.20646  95445438.18245  23308746.179    23308746.812    23308753.640
        37.000          33.000
 120200389.43447  93662631.54246  22873371.944    22873372.225    22873376.351
        42.000          39.000
 127135916.40246  99066954.14845  24193161.534    24193162.693    24193169.727
        37.000          30.000
 108191403.44148  84304997.35748  20588134.800    20588134.793    20588139.976
        50.000          52.000
 106507527.06748  82992879.39247  20267702.133    20267702.475    20267706.736
        49.000          42.000
 113928614.382 7  88611163.103 7  21282821.425    21282820.801    21282823.611
        47.000          42.000
 20  5  3  1 47 30.0000000  0 10G27G 8G16R 1G26G 7G 3G 9G 4R 3
 119018885.14646  92741995.52246  22648536.939    22648535.921    22648542.519
        41.000          39.000
 124221073.38546  96795635.98145  23638475.711    23638475.510    23638482.919
        36.000          31.000
 109703413.63948  85483180.25146  20875861.147    20875860.663    20875863.985
        48.000          37.000
 121244540.157 6  94301314.861 5  22681295.737    22681306.811    22681314.796
        41.000          31.000
 122659651.25446  95578942.08645  23341350.462    23341349.882    23341356.926
        38.000          33.000
 120203499.19647  93665054.75946  22873963.799    22873963.830    22873968.022
        42.000          40.000
 127316717.62746  99207838.17045  24227568.172    24227568.282    24227575.115
        37.000          30.000
 108220604.85548  84327751.69848  20593691.587    20593691.650    20593696.873
        50.000          52.000
 106606025.21048  83069631.18747  20286446.065    20286446.052    20286450.221
        49.000          43.000
 113905508.910 7  88593192.183 7  21278505.153    21278504.806    21278507.112
        47.000          42.000
 20  5  3  1 48  0.0000000  0 10G27G 8G16R 1G26G 7G 3G 9G 4R 3
 119020327.30946  92743119.30246  22648811.107    22648810.992    22648816.798
        41.000          39.000
 124192459.28846  96773339.31645  23633031.051    23633031.146    23633038.022
        37.000          31.000
 109834951.24048  85585677.07646  20900892.030    20900891.701    20900894.616
        48.000          38.000
 121449341.198 6  94460604.520 5  22719604.868    22719619.170    22719627.538
        40.000          31.000
 122831123.70346  95712556.94845  23373980.030    23373980.268    23373987.275
        38.000          33.000
 120206690.03547  93667541.13846  22874571.159    22874571.164    22874575.027
        43.000          39.000
 127497510.63446  99348715.76445  24261972.178    24261972.533    24261979.039
        36.000          30.000
 108250210.67048  84350821.16248  20599325.384    20599325.531    20599330.680
        51.000          52.000
 106704971.15148  83146731.90947  20305274.549    20305274.804    20305279.140
        49.000          42.000
 113882853.917 8  88575571.642 7  21274272.127    21274272.766    21274275.285
        48.000          42.000
 20  5  3  1 48 30.0000000  0 10G27G 8G16R 1G26G 7G 3G 9G 4R 3
 119022168.62646  92744554.12346  22649161.311    22649160.966    22649166.867
        41.000          38.000
 124163942.76946  96751118.68945  23627604.979    23627604.567    23627612.130
        37.000          32.000
 109966967.16147  85688546.61646  20926013.911    20926013.296    20926016.429
        47.000          38.000
 121654305.368 6  94620021.018 5  22757949.108    22757961.686    22757970.898
        41.000          31.000
 123002738.09846  95846282.42545  23406637.342    23406637.229    23406644.128
        38.000          33.000
 120209964.34647  93670092.57846  22875194.568    22875194.447    22875197.896
        43.000          40.000
 127678294.46046  99489586.22145  24296374.017    24296374.410    24296381.143
        37.000          30.000
 108280224.65048  84374208.67648  20605037.090    20605037.054    20605042.152
        49.000          52.000
 106804366.91048  83224183.13147  20324189.118    20324189.144    20324193.417
        48.000          42.000
 113860655.277 7  88558306.044 7  21270125.639    21270125.329    21270128.588
        47.000          42.000
 20  5  3  1 49  0.0000000  0 10G27G 8G16R 1G26G 7G 3G 9G 4R 3
 119024410.02746  92746300.68546  22649587.866    22649587.605    22649593.951
        41.000          38.000
 124135525.51146  96728975.39245  23622197.551    23622197.623    23622204.673
        38.000          33.000
 110099456.24847  85791784.86346  20951225.575    20951225.058    20951228.453
        47.000          38.000
 121859426.878 6  94779559.899 5  22796321.964    22796333.592    22796342.637
        41.000          31.000
 123174489.77446  95980114.87545  23439320.773    23439320.784    23439327.769
        39.000          33.000
 120213320.32247  93672707.63646  22875833.071    22875833.160    22875836.508
        43.000          40.000
 127859064.05946  99630445.59445  24330773.727    24330773.940    24330780.426
        37.000          30.000
 108310646.40148  84397913.93748  20610825.992    20610826.161    20610831.228
        50.000          52.000
 106904210.39448  83301983.23447  20343188.704    20343188.932    20343192.975
        48.000          42.000
 113838914.645 8  88541396.666 7  21266064.338    21266064.357    21266066.960
        48.000          43.000
 20  5  3  1 49 30.0000000  0 10G27G 8G16R 1G26G 7G 3G 9G 4R 3
 119027061.17746  92748366.53346  22650092.166    22650091.820    22650098.055
        40.000          39.000
 124107216.79646  96706916.67845  23616810.573    23616810.108    23616818.070
        37.000          33.000
 110232422.73648  85895395.10546  20976528.408    20976527.785    20976531.150
        48.000          37.000
 122064708.803 6  94939223.562 5  22834723.069    22834735.849    22834745.379
        40.000          31.000
 123346383.17846  96114057.75945  23472031.032    23472031.021    23472037.517
        38.000          33.000
 120216764.49547  93675391.43746  22876488.435    22876488.802    22876491.971
        43.000          40.000
 128039823.39146  99771296.95044  24365171.163    24365171.082    24365177.679
        37.000          29.000
 108341484.42648  84421943.56648  20616694.419    20616694.360    20616699.509
        51.000          52.000
 107004508.32148  83380137.44947  20362274.892    20362274.902    20362279.138
        49.000          42.000
 113817642.580 8  88524851.734 7  21262089.895    21262090.649    21262093.318
        48.000          43.000
 20  5  3  1 50  0.0000000  0 10G27G 8G16R 1G26G 7G 3G 9G 4R 3
 119030129.47046  92750757.42646  22650675.995    22650675.942    22650682.132
        41.000          38.000
 124079024.53346  96684948.73245  23611445.559    23611445.776    23611452.466
        38.000          33.000
 110365868.39347  85999378.73246  21001922.252    21001921.792    21001924.730
        47.000          37.000
 122270152.227 6  95099012.820 5  22873155.328    22873167.711    22873176.617
        40.000          30.000
 123518420.20646  96248112.53245  23504768.186    23504768.181    23504775.792
        37.000          32.000
 120220301.33447  93678147.43946  22877161.823    22877161.951    22877165.067
        43.000          40.000
 128220573.95846  99912141.47044  24399566.345    24399566.552    24399573.521
        36.000          29.000
 108372744.96548  84446302.42348  20622642.919    20622643.030    20622648.145
        50.000          52.000
 107105265.14248  83458649.24447  20381447.903    20381448.296    20381452.566
        48.000          42.000
 113796848.049 8  88508678.220 4  21258205.628    21258205.958    21258208.752
        48.000          24.000
 20  5  3  1 50 30.0000000  0 10G27G 8G16R 1G26G 7G 3G 9G 4R 3
 119033614.15746  92753472.78546  22651339.467    22651338.880    22651345.154
        41.000          39.000
 124050947.98946  96663070.95245  23606102.989    23606103.488    23606109.115
        39.000          33.000
 110499786.91547  86103730.82146  21027406.184    21027405.421    21027408.603
        47.000          37.000
 122475750.042 6  95258922.151 5  22911619.531    22911629.332    22911638.607
        39.000          30.000
 123690594.75146  96382274.48445  23537532.588    23537532.060    23537538.798
        37.000          31.000
 120223927.61247  93680973.13546  22877851.701    22877851.862    22877855.086
        43.000          40.000
 128401309.19346 100052974.05944  24433959.608    24433959.938    24433966.348
        37.000          29.000
 108404426.05348  84470988.98648  20628671.839    20628671.655    20628676.883
        50.000          52.000
 107206477.14948  83537515.73347  20400708.111    20400708.213    20400712.554
        49.000          42.000
 113776530.751 8  88492875.881 7  21254410.731    21254410.492    21254413.657
        48.000          43.000
 20  5  3  1 51  0.0000000  0 10G27G 8G16R 1G26G 7G 3G 9G 4R 3
 119037501.03746  92756501.53546  22652078.440    22652078.610    22652084.826
        41.000          38.000
 124022973.20246  96641272.47345  23600779.457    23600779.357    23600785.991
        38.000          33.000
 110634158.42248  86208435.88446  21052976.280    21052975.676    21052978.754
        48.000          37.000
 122681481.077 6  95418935.123 5  22950105.070    22950115.409    22950124.546
        39.000          30.000
 123862887.18246  96516528.30945  23570318.755    23570318.226    23570324.999
        38.000          31.000
 120227626.53447  93683855.44146  22878555.737    22878555.641    22878558.742
        44.000          40.000
 128582009.03046 100193779.07644  24468345.177    24468345.594    24468352.465
        37.000          29.000
 108436512.23648  84495991.20148  20634777.353    20634777.368    20634782.647
        49.000          52.000
 107308127.09848  83616723.46247  20420051.323    20420051.674    20420055.791
        48.000          42.000
 113756677.053 8  88477434.129 7  21250701.282    21250701.209    21250704.592
        48.000          43.000
 20  5  3  1 51 30.0000000  0 10G27G 8G16R 1G26G 7G 3G 9G 4R 3
 119041819.55946  92759866.62846  22652900.264    22652900.355    22652906.498
        41.000          39.000
 123995130.00946  96619576.52545  23595480.819    23595480.771    23595488.002
        38.000          33.000
 110769007.03147  86313512.71946  21078636.664    21078636.429    21078639.684
        47.000          38.000
 122887368.751 6  95579069.877 5  22988621.352    22988631.202    22988640.036
        39.000          30.000
 124035321.70846  96650892.85745  23603131.353    23603131.473    23603138.425
        37.000          31.000
 120231424.56547  93686814.96346  22879278.438    22879278.287    22879281.479
        43.000          40.000
 128762697.25146 100334575.02244  24502729.462    24502729.743    24502736.313
        37.000          29.000
 108469031.85448  84521331.16248  20640965.704    20640965.664    20640970.904
        50.000          52.000
 107410241.53848  83696293.14547  20439483.356    20439483.429    20439487.585
        49.000          42.000
 113737317.933 8  88462377.039 7  21247084.804    21247085.453    21247088.287
        48.000          43.000
 20  5  3  1 52  0.0000000  0 10G27G 8G16R 1G26G 7G 3G 9G 4R 3
 119046566.22447  92763565.35146  22653803.396    22653803.687    22653809.601
        42.000          39.000
 123967415.28646  96597980.68945  23590207.232    23590206.124    23590212.956
        38.000          33.000
 110904323.07447  86418953.78446  21104387.023    21104386.122    21104389.325
        47.000          37.000
 123093402.922 6  95739318.628 5  23027163.775    23027174.873    23027183.100
        39.000          30.000
 124207889.42246  96785361.19545  23635971.055    23635969.876    23635976.893
        37.000          31.000
 120235315.59147  93689846.95246  22880018.889    22880018.346    22880021.960
        44.000          40.000
 128943364.57246 100475354.68244  24537109.016    24537109.915    24537115.810
        37.000          29.000
 108501980.17748  84547005.17348  20647235.641    20647235.608    20647240.753
        49.000          52.000
 107512813.92648  83776219.67247  20459002.271    20459002.459    20459006.535
        48.000          42.000
 113718450.809 8  88447702.620 7  21243560.548    21243560.412    21243563.260
        48.000          43.000
 20  5  3  1 52 30.0000000  0 10G27G 8G16R 1G26G 7G 3G 9G 4R 3
 119051734.17346  92767592.34746  22654786.684    22654786.985    22654793.065
        41.000          39.000
 123939822.56446  96576479.91945  23584956.359    23584955.739    23584963.088
        38.000          33.000
 111040094.53248  86524749.71646  21130223.222    21130222.919    21130225.876
        48.000          37.000
 123299570.384 6  95899671.065 5  23065730.697    23065743.518    23065751.942
        40.000          30.000
 124380578.28246  96919923.90545  23668832.089    23668831.471    23668838.839
        37.000          31.000
 120239290.01147  93692943.91846  22880775.156    22880774.621    22880778.180
        43.000          40.000
 129123998.39846 100616108.24744  24571483.170    24571483.182    24571489.380
        37.000          29.000
 108535349.26148  84573007.05348  20653585.570    20653585.580    20653590.687
        50.000          53.000
 107615834.51048  83856495.43547  20478606.342    20478606.494    20478610.816
        49.000          42.000
 113700069.509 8  88433406.063 7  21240126.697    21240126.907    21240129.470
        48.000          43.000
 20  5  3  1 53  0.0000000  0 10G27G 8G16R 1G26G 7G 3G 9G 4R 3
 119057317.12646  92771942.70546  22655849.457    22655849.150    22655855.368
        40.000          39.000
 123912345.29846  96555069.10645  23579727.202    23579726.973    23579734.273
        37.000          32.000
 111176309.48848  86630891.23246  21156144.203    21156143.674    21156146.598
        48.000          37.000
 123505858.193 6  96060117.033 5  23104325.486    23104333.064    23104341.066
        39.000          30.000
 124553376.65446  97054571.96445  23701714.407    23701714.185    23701721.144
        37.000          31.000
 120243338.54147  93696098.64646  22881545.027    22881545.126    22881548.635
        42.000          40.000
 129304586.69046 100756826.35144  24605847.818    24605848.312    24605854.479
        37.000          29.000
 108569131.55748  84599330.91548  20660014.069    20660014.083    20660019.237
        50.000          53.000
 107719293.93548  83937113.15747  20498293.932    20498294.176    20498298.482
        48.000          42.000
 113682168.230 8  88419482.848 7  21236782.949    21236782.783    21236785.335
        48.000          43.000
 20  5  3  1 53 30.0000000  0 10G27G 8G16R 1G26G 7G 3G 9G 4R 3
 119063326.11546  92776625.05346  22656992.883    22656993.280    22656998.918
        41.000          40.000
 123884995.20546  96533757.37245  23574522.652    23574522.549    23574529.943
        37.000          32.000
 111312973.31347  86737382.52146  21182150.490    21182150.043    21182152.851
        47.000          37.000
 123712271.094 6  96220660.337 4  23142940.131    23142946.304    23142956.138
        38.000          29.000
 124726290.32246  97189309.84945  23734618.233    23734618.646    23734625.865
        37.000          32.000
 120247469.95347  93699317.95046  22882331.068    22882331.444    22882334.779
        42.000          41.000
 129485134.76946 100897513.09844  24640205.166    24640205.185    24640211.514
        36.000          29.000
 108603336.96248  84625984.48348  20666523.251    20666523.097    20666528.407
        49.000          53.000
 107823200.29648  84018079.13647  20518066.846    20518066.871    20518071.108
        48.000          42.000
 113664759.388 8  88405942.646 7  21233530.166    21233530.616    21233533.269
        48.000          43.000
 20  5  3  1 54  0.0000000  0 11G27G 8R21G16R 1G26G 7G 3G 9G 4R 3
 119069759.25647  92781637.90646  22658216.646    22658217.291    22658223.265
        42.000          39.000
 123857770.58046  96512543.43245  23569341.948    23569341.461    23569349.291
        37.000          32.000
 125164386.266 5  97350101.373    23389953.481    23389957.144    23389960.608
        33.000           1.000
 111450078.53148  86844217.75246  21208240.638    21208240.274    21208243.208
        48.000          37.000
 123918800.608 6  96381294.350 4  23181572.163    23181582.790    23181590.852
        38.000          29.000
 124899312.19746  97324132.05845  23767544.574    23767543.857    23767550.636
        38.000          32.000
 120251679.63247  93702598.23946  22883132.822    22883132.580    22883135.771
        43.000          41.000
 129665635.20546 101038162.70544  24674552.385    24674553.303    24674559.732
        36.000          28.000
 108637962.42848  84652965.36448  20673112.062    20673111.999    20673117.347
        49.000          52.000
 107927548.69348  84099389.55947  20537923.778    20537923.884    20537927.917
        48.000          42.000
 113647842.042 8  88392784.708 7  21230370.213    21230370.004    21230373.048
        48.000          44.000
 20  5  3  1 54 30.0000000  0 11G27G 8R21G16R 1G26G 7G 3G 9G 4R 3
 119076634.99247  92786995.63346  22659525.422    22659525.688    22659531.616
        43.000          40.000
 123830690.15646  96491441.81245  23564188.657    23564188.256    23564196.012
        36.000          32.000
 125180687.141 5  97362779.839 4  23393000.126    23393003.071    23393007.886
        34.000          29.000
 111587638.07248  86951406.99446  21234417.086    21234416.667    21234419.974
        48.000          37.000
 124125458.978 6  96542028.561 4  23220231.837    23220242.499    23220250.426
        39.000          29.000
 125072455.45946  97459048.85945  23800492.442    23800492.047    23800499.085
        38.000          33.000
 120255983.36347  93705951.81046  22883951.598    22883951.424    22883954.713
        43.000          41.000
 129846100.69946 101178785.09944  24708894.224    24708894.595    24708901.038
        36.000          29.000
 108673025.24248  84680287.03748  20679784.445    20679784.263    20679789.594
        49.000          52.000
 108032354.64548  84181056.51947  20557867.623    20557867.689    20557871.946
        49.000          42.000
 113631435.706 8  88380024.227 7  21227305.030    21227304.711    21227308.429
        48.000          43.000
 20  5  3  1 55  0.0000000  0 11G27G 8R21G16R 1G26G 7G 3G 9G 4R 3
 119083939.01047  92792687.09846  22660915.357    22660915.408    22660921.613
        42.000          40.000
 123803740.01646  96470441.74145  23559059.609    23559059.588    23559067.451
        37.000          32.000
 125197567.235 5  97375908.856 5  23396155.158    23396156.399    23396161.478
        32.000          30.000
 111725632.10447  87058934.79946  21260676.762    21260676.429    21260679.325
        47.000          37.000
 124332225.572 6  96702846.937 5  23258912.158    23258922.822    23258931.874
        39.000          30.000
 125245700.63746  97594045.08145  23833459.562    23833459.426    23833465.976
        38.000          32.000
 120260363.97047  93709365.29646  22884785.470    22884784.872    22884788.502
        43.000          41.000
 130026511.20046 101319364.64844  24743225.119    24743226.034    24743232.200
        36.000          28.000
 108708509.91848  84707937.43248  20686536.865    20686536.899    20686542.118
        50.000          53.000
 108137600.78748  84263066.48546  20577895.159    20577895.337    20577899.602
        48.000          41.000
 113615526.881 8  88367650.700 7  21224333.081    21224333.320    21224336.613
        48.000          44.000
 20  5  3  1 55 30.0000000  0 11G27G 8R21G16R 1G26G 7G 3G 9G 4R 3
 119091684.91947  92798722.88446  22662389.466    22662389.249    22662395.657
        42.000          40.000
 123776934.31746  96449554.20945  23553958.580    23553958.605    23553966.432
        38.000          33.000
 125215040.860 5  97389499.494 5  23399424.702    23399423.330    23399427.257
        34.000          30.000
 111864068.58747  87166807.37646  21287020.247    21287019.810    21287022.335
        47.000          36.000
 124539107.828 6  96863755.303 5  23297611.979    23297623.660    23297635.055
        38.000          30.000
 125419056.19046  97729127.28345  23866448.011    23866447.767    23866455.402
        37.000          32.000
 120264832.69047  93712847.43546  22885635.008    22885635.273    22885638.945
        44.000          41.000
 130206874.86446 101459907.70144  24777547.360    24777548.639    24777554.308
        36.000          28.000
 108744428.97048  84735926.29648  20693372.090    20693372.194    20693377.320
        51.000          53.000
 108243297.82648  84345427.79846  20598008.623    20598008.754    20598013.140
        48.000          41.000
 113600130.341 8  88355675.620 7  21221457.243    21221457.237    21221460.039
        48.000          44.000
 20  5  3  1 56  0.0000000  0 11G27G 8R21G16R 1G26G 7G 3G 9G 4R 3
 117524451.72647  91577502.23146  22364155.090    22364154.767    22364160.923
        42.000          40.000
 122174851.15046  95201177.73845  23249092.770    23249092.886    23249100.301
        38.000          33.000
 123628857.562 5  96155801.478 5  23103003.869    23103005.706    23103010.375
        34.000          30.000
 110427525.43047  86047423.09346  21013655.626    21013654.935    21013657.578
        47.000          36.000
 123143542.171 6  95778315.277 5  23036541.343    23036554.759    23036563.584
        38.000          30.000
 124017101.41446  96636694.95745  23599664.816    23599664.714    23599671.752
        37.000          32.000
 118693965.79147  92488795.31946  22586709.197    22586709.265    22586712.929
        44.000          41.000
 128811770.73445 100372813.49744  24512068.120    24512068.667    24512075.127
        35.000          28.000
 107205361.11848  83536652.64548  20400497.304    20400497.409    20400502.377
        50.000          53.000
 106774024.95148  83200539.82346  20318415.210    20318415.621    20318419.849
        48.000          41.000
 111980432.518 8  87095910.644 7  20918883.691    20918884.344    20918887.081
        49.000          44.000
 20  5  3  1 56 30.0000000  0 11G27G 8R21G16R 1G26G 7G 3G 9G 4R 3
 117533079.51347  91584225.19146  22365796.676    22365797.021    22365802.360
        43.000          40.000
 122148333.31446  95180514.52345  23244046.429    23244046.435    23244054.124
        38.000          33.000
 123647517.099 6  96170314.464 5  23106496.296    23106494.303    23106495.955
        36.000          30.000
 110566828.26747  86155970.75446  21040163.634    21040163.463    21040166.143
        47.000          36.000
 123350634.128 6  95939386.733 5  23075282.624    23075295.294    23075304.893
        38.000          30.000
 124190660.31846  96771935.61645  23632691.825    23632691.922    23632699.222
        37.000          32.000
 118698600.79847  92492407.03546  22587591.316    22587591.168    22587594.649
        43.000          41.000
 128992021.86045 100513268.84344  24546368.082    24546368.723    24546375.578
        35.000          28.000
 107242143.48148  83565314.21948  20407496.612    20407496.825    20407501.779
        50.000          53.000
 106880612.74548  83283595.24347  20338698.420    20338698.596    20338702.910
        48.000          42.000
 111966061.216 8  87084732.981 7  20916199.050    20916199.442    20916202.442
        49.000          44.000
 20  5  3  1 57  0.0000000  0 11G27G 8R21G16R 1G26G 7G 3G 9G 4R 3
 117542151.38347  91591294.19946  22367523.380    22367523.227    22367528.977
        43.000          41.000
 122121963.37646  95159966.53445  23239027.893    23239028.407    23239036.115
        38.000          33.000
 123666773.411 6  96185291.683 4  23110089.613    23110091.427    23110095.618
        37.000          29.000
 110706559.27347  86264852.04546  21066753.537    21066753.318    21066756.345
        47.000          36.000
 123557824.707 6  96100534.906 5  23114043.998    23114055.283    23114063.850
        38.000          30.000
 124364316.43946  96907252.03845  23665738.104    23665737.407    23665745.283
        37.000          32.000
 118703318.27947  92496083.00446  22588489.285    22588489.047    22588492.378
        43.000          41.000
 129172211.49445 100653676.31344  24580657.442    24580657.432    24580664.870
        34.000          27.000
 107279358.97848  83594313.29948  20414578.590    20414578.697    20414583.613
        51.000          53.000
 106987644.64448  83366996.70947  20359066.021    20359066.016    20359070.261
        49.000          42.000
 111952207.230 8  87073957.664 7  20913611.372    20913610.976    20913614.529
        49.000          44.000
 20  5  3  1 57 30.0000000  0 11G27G 8R21G16R 1G26G 7G 3G 9G 4R 3
 117551669.42847  91598710.85946  22369333.901    22369334.405    22369340.265
        43.000          40.000
 122095743.73446  95139535.68145  23234039.101    23234039.013    23234046.902
        38.000          33.000
 123686628.722 6  96200734.732 4  23113802.184    23113801.496    23113806.365
        38.000          29.000
 110846714.86747  86374064.18746  21093424.451    21093423.858    21093426.933
        47.000          36.000
 123765109.712 6  96261756.455 5  23152819.164    23152832.082    23152841.327
        38.000          30.000
 124538066.68246  97042641.79545  23698801.321    23698801.154    23698808.335
        37.000          31.000
 118708118.05447  92499823.11246  22589402.629    22589402.505    22589405.715
        44.000          41.000
 129352336.24245 100794033.20144  24614932.692    24614934.026    24614941.522
        35.000          27.000
 107317008.52548  83623650.60348  20421743.032    20421743.136    20421748.128
        51.000          53.000
 107095119.66548  83450743.46346  20379517.677    20379517.710    20379522.264
        48.000          41.000
 111938873.542 8  87063587.032 7  20911120.390    20911119.918    20911123.522
        48.000          44.000
 20  5  3  1 58  0.0000000  0 11G27G 8R21G16R 1G26G 7G 3G 9G 4R 3
 117561635.99547  91606477.03546  22371230.626    22371230.751    22371236.575
        42.000          40.000
 122069677.04046  95119223.97345  23229078.488    23229078.762    23229085.858
        38.000          33.000
 123707085.981 6  96216645.970 5  23117625.594    23117624.236    23117629.229
        38.000          30.000
 110987292.10747  86483604.88946  21120175.385    21120175.015    21120177.838
        47.000          36.000
 123972485.046 6  96423048.328 5  23191615.372    23191625.660    23191635.154
        38.000          30.000
 124711908.44346  97178102.87445  23731881.955    23731881.785    23731889.463
        36.000          31.000
 118712999.92847  92503627.19147  22590331.632    22590331.518    22590334.824
        44.000          42.000
 129532392.99245 100934337.09444  24649198.214    24649197.466    24649204.933
        35.000          27.000
 107355093.40548  83653327.13048  20428990.363    20428990.373    20428995.487
        50.000          53.000
 107203037.23148  83534835.06946  20400053.712    20400053.923    20400058.220
        48.000          41.000
 111926063.631 8  87053623.764 7  20908727.822    20908727.177    20908730.238
        49.000          44.000
 20  5  3  1 58 30.0000000  0 11G27G 8R21G16R 1G26G 7G 3G 9G 4R 3
 117572052.65547  91614593.92746  22373213.392    22373213.076    22373218.922
        42.000          40.000
 122043765.45946  95099033.16145  23224147.798    23224147.318    23224154.830
        38.000          33.000
 123728147.080 6  96233026.839 5  23121560.044    23121560.616    23121564.927
        40.000          31.000
 111128286.69747  86593470.79046  21147005.727    21147005.335    21147008.215
        47.000          36.000
 124179946.270 6  96584406.987 5  23230424.295    23230436.062    23230444.777
        39.000          30.000
 124885838.15846  97313632.50045  23764979.939    23764979.836    23764986.706
        37.000          31.000
 118717962.61847  92507494.23247  22591276.239    22591276.029    22591279.115
        44.000          42.000
 129712377.68945 101074584.86644  24683447.772    24683447.382    24683455.534
        34.000          27.000
 107393613.98848  83683343.16248  20436320.580    20436320.567    20436325.726
        50.000          52.000
 107311395.87148  83619270.35947  20420673.566    20420673.805    20420678.171
        48.000          42.000
 111913779.901 8  87044069.757 7  20906433.009    20906432.925    20906436.046
        49.000          45.000
 20  5  3  1 59  0.0000000  0 11G27G 8R21G16R 1G26G 7G 3G 9G 4R 3
 117582914.09547  91623057.40546  22375279.986    22375279.784    22375285.788
        42.000          40.000
 122018004.29446  95078959.54645  23219245.592    23219245.824    23219252.155
        39.000          33.000
 123749806.747 6  96249873.254 5  23125608.674    23125607.822    23125612.387
        40.000          31.000
 111269688.11147  86703653.69446  21173913.600    21173912.975    21173916.231
        47.000          36.000
 124387481.620 6  96745823.301 4  23269247.433    23269260.072    23269268.326
        38.000          29.000
 125059845.66846  97449222.73545  23798092.058    23798092.289    23798099.217
        37.000          31.000
 118722998.54447  92511418.36346  22592234.261    22592234.258    22592237.382
        44.000          41.000
 129892279.67145 101214768.17344  24717681.618    24717682.003    24717689.546
        35.000          27.000
 107432563.94348  83713693.77248  20443732.522    20443732.519    20443737.771
        50.000          52.000
 107420187.34047  83704042.92846  20441375.948    20441376.122    20441380.526
        47.000          41.000
 111902018.024 8  87034921.632 7  20904236.216    20904235.768    20904238.440
        49.000          44.000
 20  5  3  1 59 30.0000000  0 11G27G 8R21G16R 1G26G 7G 3G 9G 4R 3
 117594239.20047  91631882.17146  22377434.936    22377435.029    22377440.870
        43.000          41.000
 121992412.51446  95059017.94145  23214375.809    23214375.805    23214382.551
        40.000          33.000
 123772084.407 7  96267200.369 5  23129770.646    23129771.791    23129775.042
        42.000          31.000
 111411509.60847  86814163.94846  21200901.108    21200900.746    21200903.507
        47.000          36.000
 124595103.986 6  96907307.287 4  23308087.785    23308099.574    23308109.299
        38.000          29.000
 125233944.68246  97584884.28845  23831222.626    23831222.331    23831229.306
        37.000          31.000
 118728123.98247  92515412.21147  22593209.411    22593209.542    22593212.654
        44.000          42.000
 130072112.28845 101354897.44344  24751903.119    24751902.861    24751910.469
        35.000          27.000
 107471960.94648  83744392.72648  20451229.560    20451229.504    20451234.855
        49.000          53.000
 107529427.46147  83789165.08846  20462163.866    20462163.715    20462168.267
        47.000          41.000
 111890798.042 8  87026194.986 7  20902139.267    20902139.469    20902142.537
        49.000          45.000
 20  5  3  2  0  0.0000000  0 10G27G 8R21G16R 1G26G 7G 9G 4R 3
 117606010.46747  91641054.60246  22379674.896    22379675.038    22379680.986
        42.000          41.000
 121966973.70046  95039195.50245  23209535.178    23209534.884    23209541.621
        39.000          33.000
 123794962.845 6  96284994.713 5  23134046.643    23134046.258    23134050.827
        40.000          32.000
 111553728.12147  86924983.56246  21227964.823    21227964.224    21227967.219
        47.000          36.000
 124802789.590 6  97068840.426 4  23346942.085    23346950.618    23346960.094
        38.000          28.000
 125408112.86746  97720599.73345  23864365.948    23864365.803    23864372.724
        38.000          31.000
 118733318.92147  92519460.23247  22594198.238    22594198.059    22594201.217
        44.000          42.000
 107511786.48248  83775425.60348  20458808.287    20458808.180    20458813.451
        50.000          53.000
 107639095.83548  83874620.95146  20483032.852    20483032.896    20483037.446
        48.000          41.000
 111880103.287 8  87017876.833 7  20900141.235    20900141.223    20900144.853
        49.000          45.000
 20  5  3  2  0 30.0000000  0 10G27G 8R21G16R 1G26G 7G 9G 4R 3
 117618236.25547  91650581.20746  22382001.645    22382001.616    22382007.450
        43.000          41.000
 121941696.26946  95019498.83145  23204724.753    23204724.855    23204731.794
        39.000          34.000
 123818450.594 6  96303262.996 4  23138436.505    23138435.784    23138440.726
        40.000          24.000
 111696346.64147  87036114.86646  21255104.034    21255103.424    21255106.854
        47.000          36.000
 125010540.460 6  97230424.448 4  23385804.039    23385815.240    23385826.863
        38.000          28.000
 125582353.67446  97856371.75645  23897522.916    23897522.461    23897529.506
        38.000          31.000
 118738589.59847  92523567.26947  22595200.683    22595200.908    22595204.267
        43.000          42.000
 107552047.78648  83806798.03848  20466469.726    20466469.752    20466474.832
        50.000          53.000
 107749197.75147  83960414.64146  20503984.566    20503984.742    20503989.097
        47.000          41.000
 111869943.180 8  87009974.803 1  20898243.368    20898243.206    20898243.485
        49.000           9.000
 20  5  3  2  1  0.0000000  0 10G27G 8R21G16R 1G26G 7G 9G 4R 3
 117630934.43147  91660475.90246  22384418.435    22384418.062    22384423.900
        43.000          41.000
 121916598.96746  94999942.52445  23199949.153    23199948.875    23199955.830
        39.000          34.000
 123842566.059 6                  23142942.489
        39.000
 111839377.59947  87147567.55846  21282321.854    21282321.444    21282324.593
        46.000          36.000
 125218368.657 6                  23424683.314
        38.000
 125756679.95746  97992210.39345  23930695.676    23930695.409    23930703.137
        37.000          31.000
 118743951.37547  92527745.29646  22596221.432    22596221.180    22596224.435
        45.000          41.000
 107592761.64048  83838523.11148  20474217.376    20474217.266    20474222.323
        51.000          53.000
 107859748.13547  84046557.78346  20525021.627    20525021.703    20525026.229
        47.000          40.000
 111860336.940 8                  20896449.187
        49.000
 20  5  3  2  1 30.0000000  0 10G27G 8R21G16R 1G26G 7G 9G 4R 3
 117644097.92447  91670733.18946  22386922.840    22386922.884    22386928.804
        43.000          41.000
 121891674.98646  94980521.26645  23195205.596    23195206.027    23195212.713
        39.000          34.000
 123867302.346 6  96341237.872 5  23147564.303    23147565.513    23147569.020
        41.000          34.000
 111982808.58247  87259331.95046  21309615.596    21309615.304    21309618.748
        46.000          36.000
 125426260.784 6                  23463574.867
        38.000
 125931079.85846  98128106.39345  23963883.047    23963882.714    23963890.342
        37.000          31.000
 118749394.70347  92531986.89247  22597257.194    22597257.090    22597260.279
        44.000          42.000
 107633919.85448  83870594.44348  20482049.585    20482049.439    20482054.494
        50.000          53.000
 107970736.89847  84133042.52246  20546142.001    20546142.162    20546146.778
        46.000          41.000
 111851278.271 8                  20894756.514
        49.000
 20  5  3  2  2  0.0000000  0 10G27G 8R21G16R 1G26G 7G 9G 4R 3
 117657720.34547  91681348.07946  22389515.356    22389515.390    22389520.779
        43.000          41.000
 121866919.17046  94961231.04045  23190495.588    23190495.665    23190502.192
        39.000          35.000
 123892653.084 6  96360955.131 5  23152301.670    23152301.920    23152306.342
        40.000          34.000
 112126627.67647  87371398.77445  21336983.862    21336983.496    21336986.413
        47.000          35.000
 125634204.129 6                  23502475.341
        39.000
 126105542.09046  98264050.95345  23997081.483    23997081.529    23997089.640
        36.000          30.000
 118754911.14747  92536285.44447  22598306.675    22598306.855    22598309.869
        44.000          42.000
 107675514.99548  83903006.24048  20489964.819    20489964.759    20489969.810
        50.000          53.000
 108082154.75047  84219861.61446  20567343.921    20567344.314    20567348.882
        47.000          41.000
 111842761.736 8                  20893165.904
        49.000
 20  5  3  2  2 30.0000000  0 10G27G 8R21G16R 1G26G 7G 9G 4R 3
 117671800.11347  91692319.34746  22392194.527    22392194.338    22392200.116
        44.000          40.000
 121842329.69846  94942070.44545  23185816.211    23185816.064    23185823.319
        39.000          35.000
 123918616.981 6  96381149.289 5  23157154.268    23157154.249    23157159.477
        40.000          34.000
 112270827.92547  87483762.60345  21364423.984    21364423.688    21364426.438
        47.000          35.000
 125842190.854 6                  23541382.531
        39.000
 126280060.16846  98400039.02944  24030291.591    24030291.307    24030298.847
        36.000          29.000
 118760496.16147  92540637.39947  22599369.839    22599369.488    22599372.636
        45.000          42.000
 107717544.39348  83935756.41848  20497962.596    20497962.693    20497967.795
        50.000          53.000
 108193997.01947  84307011.42046  20588626.979    20588627.207    20588631.885
        47.000          40.000
 111834786.616 8                  20891675.539
        49.000
 20  5  3  2  3  0.0000000  0 10G27G 8R21G16R 1G26G 7G 9G 4R 3
 117686345.43647  91703653.37746  22394962.420    22394962.306    22394967.892
        43.000          40.000
 121817916.17546  94923046.93646  23181170.092    23181170.428    23181177.523
        39.000          36.000
 123945202.436 6  96401826.865 5  23162122.271    23162121.813    23162126.995
        40.000          34.000
 112415411.85247  87596425.39845  21391937.483    21391937.182    21391940.038
        47.000          35.000
 126050223.433 6  98039096.345    23580299.958    23580310.859    23580319.310
        37.000           1.000
 126454637.68845  98536073.41644  24063512.286    24063512.360    24063520.174
        35.000          29.000
 118766156.05247  92545047.72247  22600446.523    22600446.627    22600449.546
        44.000          42.000
 107760015.15848  83968850.51648  20506044.506    20506044.629    20506049.685
        51.000          53.000
 108306268.98448  84394496.05446  20609991.689    20609991.779    20609996.510
        48.000          40.000
 111827362.322 8  86976848.108 7  20890288.916    20890288.502    20890292.437
        49.000          45.000
 20  5  3  2  3 30.0000000  0 10G27G 8R21G16R 1G26G 7G 9G 4R 3
 117701358.00747  91715351.50946  22397818.573    22397818.711    22397824.463
        43.000          40.000
 121793680.75046  94904162.21846  23176558.652    23176558.500    23176565.583
        39.000          36.000
 123972411.441 6  96422989.434 5  23167206.192    23167206.857    23167211.091
        41.000          33.000
 112560376.11747  87709384.55445  21419523.377    21419523.046    21419525.828
        45.000          35.000
 126258297.302 6  98200931.502 4  23619224.744    23619235.346    23619243.972
        39.000          28.000
 126629271.32245  98672151.51444  24096743.198    24096744.202    24096751.717
        35.000          29.000
 118771890.28547  92549515.99247  22601537.835    22601537.946    22601540.698
        45.000          42.000
 107802927.95048  84002289.05148  20514210.567    20514210.678    20514215.703
        50.000          53.000
 108418969.35547  84482314.51346  20631437.732    20631438.218    20631442.612
        47.000          40.000
 111820491.634 8                  20889005.246
        49.000
 20  5  3  2  4  0.0000000  0  9G27G 8R21G16G26G 7G 9G 4R 3
 117716842.95046  91727417.70346  22400765.332    22400765.565    22400771.391
        41.000          41.000
 121769628.86446  94885420.50646  23171981.199    23171981.492    23171988.723
        39.000          36.000
 124000249.379 6  96444641.150 5  23172409.083    23172408.248    23172413.580
        39.000          34.000
 112705720.29547  87822639.76245  21447181.352    21447180.971    21447183.732
        47.000          35.000
 126803961.58646  98808273.74044  24129986.295    24129986.797    24129994.250
        36.000          29.000
 118777701.68347  92554044.36247  22602643.534    22602643.872    22602646.717
        45.000          42.000
 107846286.80648  84036075.17548  20522461.435    20522461.522    20522466.567
        51.000          53.000
 108532100.27647  84570468.46346  20652966.207    20652966.274    20652970.761
        47.000          40.000
 111814180.731 8  86966594.772 7  20887826.730    20887826.590    20887829.847
        49.000          45.000
 20  5  3  2  4 30.0000000  0  9G27G 8R21G16G26G 7G 9G 4R 3
 117732804.95547  91739855.65546  22403802.886    22403802.910    22403809.005
        43.000          41.000
 121745766.18346  94866826.23445  23167440.326    23167440.029    23167447.514
        39.000          35.000
 124028721.161 6  96466785.872 5  23177728.273    23177728.869    23177734.110
        39.000          34.000
 112851443.67047  87936190.41945  21474911.305    21474910.981    21474914.182
        46.000          34.000
 126978708.47546  98944440.09845  24163239.763    24163239.886    24163247.773
        36.000          30.000
 118783592.58747  92558634.69247  22603764.864    22603764.754    22603767.938
        44.000          42.000
 107890095.41048  84070211.74348  20530798.045    20530797.907    20530803.011
        49.000          53.000
 108645663.45548  84658959.23946  20674576.505    20674576.647    20674581.017
        48.000          40.000
 111808435.393 8  86962126.178 7  20886753.522    20886753.344    20886755.798
        49.000          45.000
 20  5  3  2  5  0.0000000  0  9G27G 8R21G16G26G 7G 9G 4R 3
 117749242.70247  91752664.30946  22406931.267    22406931.111    22406936.911
        43.000          41.000
 121722091.93146  94848378.79845  23162935.095    23162935.147    23162942.355
        38.000          35.000
 124057825.598 6  96489422.691 5  23183167.621    23183168.576    23183172.974
        39.000          34.000
 112997539.48347  88050031.31745  21502712.955    21502712.032    21502715.681
        46.000          34.000
 127153505.82046  99080645.77345  24196503.318    24196503.153    24196510.863
        37.000          30.000
 118789559.42547  92563284.18747  22604900.630    22604900.319    22604903.620
        44.000          42.000
 107934351.34648  84104696.88749  20539219.575    20539219.512    20539224.683
        50.000          54.000
 108759654.66548  84747783.54646  20696268.189    20696268.363    20696272.817
        48.000          40.000
 111803255.411 8  86958097.304 7  20885786.076    20885785.979    20885789.164
        50.000          45.000
 20  5  3  2  5 30.0000000  0  9G27G 8R21G16G26G 7G 9G 4R 3
 117766163.82647  91765849.62046  22410150.954    22410150.847    22410156.778
        43.000          41.000
 121698614.60946  94830084.79945  23158467.497    23158467.379    23158475.077
        38.000          35.000
 124087570.742 6  96512557.786 5  23188727.426    23188727.397    23188732.022
        40.000          35.000
 113144010.42247  88164164.50545  21530585.426    21530584.809    21530587.569
        47.000          34.000
 127328356.69246  99216893.17945  24229776.463    24229776.376    24229783.695
        36.000          30.000
 118795607.78947  92567997.20947  22606051.063    22606051.310    22606054.617
        46.000          43.000
 107979061.25048  84139535.77048  20547727.410    20547727.492    20547732.782
        51.000          53.000
 108874078.51547  84836944.97346  20718042.403    20718042.500    20718046.920
        47.000          40.000
 111798649.303 8  86954514.779 7  20884925.545    20884925.246    20884928.696
        50.000          45.000
 20  5  3  2  6  0.0000000  0  9G27G 8R21G16G26G 7G 9G 4R 3
 117783566.91447  91779410.48546  22413462.390    22413462.720    22413468.404
        42.000          40.000
 121675333.38346  94811943.61345  23154037.144    23154037.225    23154044.557
        39.000          35.000
 124117955.091 7  96536190.057 5  23194405.796    23194406.226    23194409.568
        42.000          35.000
 113290849.61147  88278584.64245  21558527.682    21558527.430    21558530.292
        46.000          34.000
 127503255.09646  99353177.61645  24263057.765    24263058.184    24263065.548
        36.000          30.000
 118801733.89447  92572770.81847  22607217.123    22607217.037    22607220.422
        45.000          43.000
 108024222.66748  84174726.47448  20556321.524    20556321.476    20556326.763
        51.000          53.000
 108988930.65948  84926440.14246  20739898.027    20739898.036    20739902.678
        48.000          40.000
 111794616.915 8  86951378.484 7  20884171.824    20884171.749    20884175.401
        49.000          45.000
 20  5  3  2  6 30.0000000  0  9G27G 8R21G16G26G 7G 9G 4R 3
 117801453.19947  91793347.86346  22416866.725    22416866.032    22416872.164
        42.000          41.000
 121652250.07046  94793956.65345  23149644.593    23149645.182    23149651.666
        39.000          35.000
 124148979.891 6  96560320.485 6  23200202.055    23200203.154    23200206.966
        41.000          36.000
 113438052.64847  88393288.29645  21586539.601    21586539.294    21586542.355
        46.000          34.000
 127678197.52246  99489496.36345  24296349.058    24296348.837    24296356.224
        37.000          30.000
 118807937.04747  92577604.45947  22608397.239    22608397.324    22608400.804
        44.000          43.000
 108069835.80048  84210269.17049  20565001.488    20565001.357    20565006.667
        51.000          54.000
 109104209.34047  85016267.66546  20761834.771    20761835.015    20761839.532
        47.000          40.000
 111791160.414 8  86948690.096 7  20883526.671    20883526.276    20883529.405
        49.000          45.000
 20  5  3  2  7  0.0000000  0  9G27G 8R21G16G26G 7G 9G 4R 3
 117819817.37147  91807657.61746  22420360.565    22420360.819    22420366.706
        42.000          41.000
 121629360.47246  94776120.63945  23145288.958    23145288.991    23145296.275
        39.000          35.000
 124180640.071 7  96584945.086 6  23206118.551    23206120.023    23206123.815
        42.000          36.000
 113585609.28547  88508267.47845  21614618.739    21614618.193    21614621.294
        44.000          34.000
 127853174.13146  99625841.72944  24329645.370    24329645.661    24329652.766
        37.000          29.000
 118814209.57947  92582492.16747  22609590.913    22609590.805    22609594.426
        43.000          43.000
 108115894.33548  84246158.92748  20573766.025    20573766.023    20573771.319
        49.000          53.000
 109219906.35247  85106421.16846  20783851.452    20783851.564    20783856.002
        46.000          40.000
 111788275.607 8  86946446.351 7  20882987.077    20882987.506    20882990.548
        49.000          45.000
 20  5  3  2  7 30.0000000  0  9G27G 8R21G16G26G 7G 9G 4R 3
 116263246.49547  90594745.26446  22124155.092    22124155.364    22124161.039
        44.000          41.000
 120031250.60646  93530840.25046  22841178.744    22841178.732    22841185.663
        40.000          36.000
 122608693.029 7  95362319.614 5  22912364.625    22912363.775    22912367.878
        42.000          35.000
 112158105.39947  87395926.78345  21342973.948    21342973.455    21342976.495
        45.000          34.000
 126452772.66046  98534619.77044  24063157.857    24063158.291    24063165.352
        36.000          28.000
 117245135.94447  91359837.39947  22311005.893    22311006.052    22311009.401
        44.000          43.000
 106586985.17348  83054801.13449  20282824.436    20282824.356    20282829.560
        50.000          54.000
 107760608.99147  83969306.32646  20506156.357    20506156.490    20506160.842
        46.000          40.000
 110181157.034 8  85696465.238 7  20582763.850    20582763.849    20582767.457
        49.000          45.000
 20  5  3  2  8  0.0000000  0 10G27G 8R21G16G26G 7G 9G30G 4R 3
 116282577.66147  90609808.52446  22127833.789    22127833.916    22127839.701
        44.000          41.000
 120008761.88946  93513316.62146  22836899.573    22836899.308    22836905.824
        41.000          36.000
 122641635.362 7  95387941.436 5  22918518.817    22918519.602    22918523.860
        42.000          35.000
 112306364.47047  87511453.32445  21371186.645    21371186.252    21371189.376
        46.000          34.000
 126627815.17245  98671016.49444  24096467.516    24096467.361    24096474.875
        35.000          28.000
 117251551.91947  91364836.87347  22312227.214    22312227.003    22312230.311
        45.000          43.000
 106633942.60448  83091391.32848  20291760.239    20291760.066    20291765.178
        51.000          53.000
 130095922.44145 101373447.59144  24756428.208    24756428.302    24756435.991
        34.000          25.000
 107877144.90047  84060113.51046  20528332.330    20528332.546    20528337.059
        47.000          40.000
 110179429.651 8  85695121.721 7  20582440.903    20582441.250    20582444.706
        50.000          45.000
 20  5  3  2  8 30.0000000  0 10G27G 8R21G16G26G 7G 9G30G 4R 3
 116302402.36047  90625256.35046  22131606.389    22131606.448    22131612.239
        44.000          41.000
 119986484.83447  93495957.91246  22832660.598    22832660.298    22832666.634
        42.000          36.000
 122675228.769 7  95414069.624 6  22924797.273    22924797.702    22924801.443
        43.000          36.000
 112454976.86847  87627255.17945  21399466.752    21399466.211    21399469.010
        46.000          34.000
 126802893.91846  98807441.44644  24129784.254    24129784.121    24129791.024
        36.000          28.000
 117258046.82547  91369897.85847  22313462.625    22313462.762    22313466.084
        45.000          43.000
 106681358.00748  83128338.38648  20300782.890    20300782.873    20300788.015
        51.000          53.000
 130079371.47745 101360550.73844  24753279.280    24753277.851    24753286.135
        34.000          25.000
 107994105.90948  84151251.94046  20550589.297    20550589.456    20550593.795
        48.000          40.000
 110178292.762 8  85694237.479 7  20582228.802    20582228.912    20582232.286
        49.000          45.000
 20  5  3  2  9  0.0000000  0 10G27G 8R21G16G26G 7G 9G30G 4R 3
 116322721.90547  90641089.77646  22135473.209    22135473.017    22135478.847
        43.000          41.000
 119964421.34846  93478765.62346  22828461.589    22828461.541    22828468.151
        41.000          37.000
 122709475.272 6  95440705.794 6  22931197.881    22931196.957    22931201.822
        40.000          36.000
 112603938.75347  87743329.36945  21427813.085    21427812.779    21427815.991
        46.000          34.000
 126978005.74346  98943892.18544  24163106.259    24163106.583    24163113.813
        36.000          28.000
 117264619.96747  91375019.79847  22314713.663    22314713.431    22314716.857
        45.000          42.000
 106729231.76748  83165642.60348  20309892.946    20309892.944    20309898.191
        50.000          53.000
 130062806.49545 101347642.95644  24750127.084    24750126.171    24750133.692
        34.000          25.000
 108111490.43448  84242720.39046  20572926.824    20572926.956    20572931.433
        48.000          40.000
 110177748.790 8  85693814.388 7  20582127.272    20582127.452    20582130.673
        49.000          45.000
 20  5  3  2  9 30.0000000  0 10G27G 8R21G16G26G 7G 9G30G 4R 3
 116343535.97247  90657308.55047  22139434.058    22139433.924    22139439.575
        44.000          42.000
 119942572.15946  93461740.31146  22824303.836    22824303.506    22824310.393
        40.000          37.000
 122744374.033 6  95467849.319 6  22937719.196    22937718.639    22937722.853
        41.000          36.000
 112753244.98747  87859671.88045  21456225.114    21456224.621    21456227.780
        46.000          34.000
 127153145.88045  99080364.98544  24196434.819    24196434.842    24196441.772
        35.000          29.000
 117271268.86947  91380200.77447  22315979.121    22315978.598    22315982.008
        45.000          42.000
 106777562.51248  83203302.91049  20319089.884    20319089.957    20319095.254
        49.000          54.000
 130046225.08045 101334722.39344  24746970.021    24746970.909    24746978.642
        33.000          25.000
 108229295.15248  84334516.25846  20595344.283    20595344.320    20595348.966
        48.000          40.000
 110177798.356 8  85693852.947 7  20582136.233    20582136.798    20582139.930
        49.000          45.000
 20  5  3  2 10  0.0000000  0 10G27G 8R21G16G26G 7G 9G30G 4R 3
 116364851.25547  90673917.87746  22143489.807    22143490.068    22143495.786
        44.000          41.000
 119920944.91646  93444887.94646  22820188.527    22820188.171    22820195.025
        40.000          37.000
 122779931.976 6  95495505.501 6  22944364.144    22944363.815    22944368.050
        40.000          37.000
 112902896.43747  87976283.39745  21484702.736    21484702.255    21484705.468
        46.000          34.000
 127328316.55646  99216861.57544  24229769.520    24229768.557    24229776.027
        36.000          28.000
 117277998.09547  91385444.31747  22317259.114    22317259.133    22317262.673
        45.000          43.000
 106826355.95048  83241323.75948  20328375.013    20328375.058    20328380.345
        50.000          53.000
 130029631.87545 101321792.64244  24743813.767    24743813.162    24743821.456
        34.000          25.000
 108347523.80747  84426642.46446  20617842.271    20617842.706    20617847.068
        47.000          40.000
 110178449.369 8  85694359.295 7  20582257.810    20582258.319    20582261.838
        50.000          45.000
 20  5  3  2 10 30.0000000  0 10G27G 8R21G16G26G 7G 9G30G 4R 3
 116386676.54447  90690924.61147  22147643.346    22147643.329    22147648.900
        44.000          42.000
 119899549.63446  93428216.34046  22816116.904    22816116.522    22816123.610
        41.000          37.000
 122816158.270 6  95523681.542 6  22951132.605    22951132.839    22951137.508
        40.000          36.000
 113052897.04547  88093166.98045  21513246.930    21513246.515    21513249.505
        46.000          33.000
 127503522.30345  99353385.47344  24263109.652    24263108.889    24263116.321
        35.000          28.000
 117284814.64747  91390755.93347  22318556.432    22318556.377    22318559.799
        45.000          43.000
 106875619.95248  83279711.28448  20337749.731    20337749.674    20337754.999
        50.000          53.000
 130013033.77145 101308859.07644  24740655.276    24740654.035    24740661.690
        35.000          25.000
 108466182.36247  84519103.66646  20640422.629    20640422.491    20640427.150
        47.000          40.000
 110179711.965 8  85695341.326 7  20582493.976    20582493.663    20582497.512
        49.000          45.000
 20  5  3  2 11  0.0000000  0 10G27G 8R21G16G26G 7G 9G30G 4R 3
 116408999.46547  90708319.11447  22151890.915    22151891.103    22151896.664
        43.000          42.000
 119878374.37846  93411716.17146  22812087.223    22812087.041    22812094.067
        41.000          37.000
 122853040.175 6  95552367.495 6  22958025.449    22958025.961    22958029.864
        40.000          37.000
 113203229.08147  88210308.81345  21541854.459    21541853.921    21541856.817
        47.000          33.000
 127678746.25046  99489923.58444  24296454.056    24296453.263    24296460.753
        36.000          28.000
 117291704.23847  91396124.47747  22319867.703    22319867.610    22319870.994
        45.000          43.000
 106925341.10848  83318455.03548  20347211.341    20347211.289    20347216.671
        51.000          53.000
 129996416.25445 101295910.37944  24737492.965    24737492.170    24737500.238
        34.000          26.000
 108585255.47847  84611887.89246  20663081.350    20663081.363    20663086.073
        47.000          39.000
 110181574.286 8  85696789.795 7  20582841.687    20582841.529    20582845.200
        49.000          45.000
 20  5  3  2 11 30.0000000  0 10G27G 8R21G16G26G 7G 9G30G 4R 3
 116431821.42147  90726102.47747  22156234.234    22156234.105    22156239.433
        44.000          42.000
 119857421.48446  93395389.29046  22808100.329    22808100.212    22808106.824
        41.000          38.000
 122890579.073 6  95581564.423 6  22965038.817    22965040.022    22965044.875
        40.000          36.000
 113353889.23547  88327706.32845  21570524.083    21570523.470    21570526.383
        45.000          33.000
 127853985.55946  99626473.65145  24329800.567    24329800.764    24329807.679
        37.000          30.000
 117298666.32847  91401549.50047  22321192.720    22321192.379    22321195.801
        44.000          43.000
 106975519.89248  83357555.37849  20356760.137    20356760.050    20356765.279
        51.000          54.000
 129979778.89645 101282946.22044  24734326.840    24734326.178    24734333.870
        34.000          26.000
 108704741.63847  84704993.97546  20685818.825    20685818.846    20685823.530
        46.000          39.000
 110184039.025 8  85698706.818 7  20583302.495    20583302.304    20583305.568
        49.000          45.000
 20  5  3  2 12  0.0000000  0 10G27G 8R21G16G26G 7G 9G30G 4R 3
 116455140.46047  90744273.17146  22160671.664    22160671.520    22160677.232
        44.000          41.000
 119836690.30446  93379235.15046  22804155.007    22804155.102    22804161.971
        40.000          38.000
 122928772.887 6  95611270.726 5  22972178.140    22972178.163    22972181.931
        41.000          35.000
 113504869.97047  88445353.64745  21599254.815    21599254.281    21599257.088
        46.000          34.000
 128029233.92546  99763030.77845  24363149.561    24363149.252    24363155.978
        37.000          30.000
 117305697.18247  91407028.09847  22322530.363    22322530.380    22322533.670
        45.000          43.000
 107026153.34348  83397010.00848  20366395.267    20366395.353    20366400.437
        51.000          53.000
 129963117.67745 101269963.47744  24731156.756    24731155.598    24731163.835
        35.000          25.000
 108824635.94047  84798418.08846  20708633.949    20708634.018    20708638.483
        47.000          39.000
 110187105.141 8  85701091.566 7  20583875.423    20583875.654    20583878.173
        50.000          45.000
 20  5  3  2 12 30.0000000  0 10G27G 8R21G16G26G 7G 9G30G 4R 3
 116478970.13047  90762841.75947  22165206.287    22165206.252    22165211.898
        44.000          42.000
 119816194.81846  93363264.68646  22800254.824    22800254.676    22800261.895
        41.000          37.000
 122967635.259 6  95641497.034 5  22979441.115    22979440.068    22979444.385
        41.000          35.000
 113656179.91547  88563257.48545  21628048.193    21628047.675    21628050.109
        46.000          33.000
 128204500.73246  99899602.27345  24396501.915    24396501.568    24396508.536
        37.000          30.000
 117312807.98347  91412568.97347  22323883.519    22323883.432    22323886.812
        44.000          43.000
 107077254.11248  83436828.77948  20376119.503    20376119.499    20376124.595
        51.000          53.000
 129946444.32545 101256971.28644  24727983.069    24727982.427    24727991.100
        35.000          25.000
 108944949.09347  84892168.58346  20731528.568    20731528.952    20731533.499
        47.000          39.000
 110190787.534 8  85703955.643 7  20584563.379    20584563.604    20584566.136
        50.000          45.000
