     2.11           OBSERVATION DATA    M (MIXED)           RINEX VERSION / TYPE
teqc  2008Oct2                          20220524 02:04:50UTCPGM / RUN BY / DATE
MSXP|IAx86-PII|bcc32 5.0|MSWin95->XP|486/DX+                COMMENT
BIT 2 OF LLI FLAGS DATA COLLECTED UNDER A/S CONDITION       COMMENT
-Unknown-                                                   MARKER NAME
-Unknown-           -Unknown-                               OBSERVER / AGENCY
235-1829            TPS E_GGD           2.3 Aug,01,2003 p2  REC # / TYPE / VERS
-Unknown-           -Unknown-                               ANT # / TYPE
  1240235.6898  4530663.6537  4302599.8486                  APPROX POSITION XYZ
        0.0000        0.0000        0.0000                  ANTENNA: DELTA H/E/N
     1     1                                                WAVELENGTH FACT L1/2
     7    L1    L2    C1    P1    P2    S1    S2            # / TYPES OF OBSERV
 SNR is mapped to RINEX snr flag value [0-9]                COMMENT
  L1 & L2: min(max(int(snr_dBHz/6), 0), 9)                  COMMENT
pseudorange smoothing corrections not applied               COMMENT
rx board ID = AGUS451XLHC                                   COMMENT
  2020     5     5     0     0    0.0000000     GPS         TIME OF FIRST OBS
    14                                                      LEAP SECONDS
                                                            END OF HEADER
 20  5  5  0  0  0.0000000  0 10G14G 3G 4G22G16R 4G26G 9G31R 3
 126592175.13845  98643258.31142  24089687.650    24089689.561    24089692.066
        35.000          13.000
 109659003.00048  85448578.25648  20867409.658    20867409.991    20867415.471
        48.000          50.000
 109532481.35947  85350006.59246  20843334.904    20843334.854    20843338.571
        46.000          37.000
 117058871.26547  91214709.50745  22275553.831    22275552.639    22275553.943
        45.000          33.000
 109770859.83047  85535754.42946  20888700.227    20888699.910    20888703.070
        46.000          37.000
 111466896.461 7  86696475.641 7  20859504.100    20859504.739    20859507.597
        47.000          44.000
 109322228.23948  85186162.13048  20803326.309    20803326.213    20803332.522
        48.000          49.000
 122460687.55146  95423933.40646  23303493.044    23303492.359    23303497.607
        39.000          36.000
 120417145.06747  93831550.95146  22914617.850    22914618.271    22914620.923
        42.000          38.000
 102009864.547 8  79341009.546 8  19056297.255    19056297.083    19056299.978
        52.000          49.000
 20  5  5  0  0 30.0000000  0 10G14G 3G 4G22G16R 4G26G 9G31R 3
 126750176.78145  98766376.41442  24119754.028    24119751.139    24119759.066
        34.000          12.000
 109783004.63147  85545202.89048  20891006.538    20891006.727    20891012.255
        47.000          50.000
 109556208.81247  85368495.50646  20847850.004    20847850.112    20847853.900
        46.000          37.000
 117218609.76047  91339181.03945  22305950.649    22305949.912    22305951.308
        45.000          33.000
 109781279.80047  85543873.87746  20890683.066    20890682.609    20890685.781
        47.000          37.000
 111680946.201 7  86862958.781    20855622.805    20855623.471    20855626.817
        47.000           1.000
 109414795.85547  85258292.73148  20820941.287    20820941.177    20820947.663
        47.000          49.000
 122444727.08046  95411496.68046  23300455.026    23300454.862    23300460.442
        39.000          36.000
 120583745.04447  93961369.07846  22946321.124    22946321.105    22946323.551
        42.000          37.000
 102095938.236 8  79407955.791    19072376.562    19072376.451    19072379.035
        52.000           1.000
 20  5  5  0  1  0.0000000  0 10G14G 3G 4G22G16R 4G26G 9G31R 3
 126908318.58845  98889603.73042  24149849.283    24149849.541    24149852.842
        34.000          13.000
 109907540.63847  85642243.92548  20914704.687    20914705.133    20914710.691
        47.000          50.000
 109580195.49747  85387186.43546  20852414.840    20852414.865    20852418.525
        47.000          38.000
 117378657.36247  91463893.44345  22336407.089    22336405.816    22336407.032
        45.000          33.000
 109792259.28347  85552429.30846  20892772.609    20892772.049    20892775.235
        47.000          37.000
 111660479.719 8                  20851801.174
        48.000
 109507961.96247  85330889.68548  20838670.257    20838670.126    20838676.458
        47.000          49.000
 122428835.63246  95399113.75046  23297431.703    23297430.838    23297436.650
        38.000          36.000
 120750419.36647  94091245.14246  22978037.887    22978038.071    22978040.868
        42.000          37.000
 102182675.584 8                  19088579.770
        52.000
 20  5  5  0  1 30.0000000  0 10G14G 3G 4G22G16R 4G26G 9G31R 3
 127066596.51645  99012937.12142  24179966.959    24179967.158    24179970.200
        34.000          14.000
 110032605.88548  85739697.35548  20938504.044    20938504.164    20938509.850
        48.000          50.000
 109604439.24447  85406077.66846  20857027.892    20857028.096    20857031.837
        47.000          37.000
 117539008.57047  91588842.41845  22366920.614    22366919.907    22366920.957
        46.000          33.000
 109803797.18547  85561419.87946  20894967.986    20894967.284    20894970.625
        47.000          38.000
 111640328.919 7                  20848038.291
        47.000
 109601722.07048  85403949.50448  20856512.322    20856512.167    20856518.506
        48.000          49.000
 122413010.85646  95386782.75946  23294419.580    23294419.402    23294424.946
        39.000          36.000
 120917163.02047  94221175.21946  23009768.605    23009768.687    23009771.001
        42.000          38.000
 102270073.825 8                  19104906.584
        52.000
 20  5  5  0  2  0.0000000  0 10G14G 3G 4G22G16R 4G26G 9G31R 3
 127225018.73145  99136382.97942  24210114.009    24210112.470    24210118.911
        34.000          12.000
 110158207.25547  85837568.53448  20962405.132    20962405.211    20962410.943
        47.000          50.000
 109628949.83847  85425176.82346  20861692.290    20861692.376    20861696.083
        47.000          38.000
 117699669.23147  91714032.52245  22397493.326    22397492.313    22397493.737
        45.000          33.000
 109815903.94147  85570853.71046  20897271.480    20897271.133    20897274.539
        47.000          37.000
 111620505.684 7                  20844336.281
        47.000
 109696083.70148  85477478.04248  20874468.729    20874468.491    20874474.904
        48.000          49.000
 122397262.47146  95374511.29346  23291422.861    23291422.784    23291428.229
        40.000          36.000
 121083982.80747  94351164.62846  23041513.451    23041513.351    23041515.921
        42.000          38.000
 102358142.544 8                  19121358.713
        52.000
 20  5  5  0  2 30.0000000  0 10G14G 3G 4G22G16R 4G26G 9G31R 3
 127383568.44745  99259928.06841  24240284.409    24240283.590    24240291.220
        33.000          10.000
 110284326.95048  85935843.61048  20986405.034    20986405.188    20986410.763
        48.000          50.000
 109653712.57947  85444472.44946  20866404.299    20866404.508    20866408.299
        46.000          38.000
 117860620.57747  91839449.14745  22428121.226    22428120.265    22428121.938
        45.000          32.000
 109828565.54147  85580719.88446  20899681.272    20899680.697    20899683.983
        47.000          37.000
 111600997.223 8                  20840693.337
        48.000
 109791029.71448  85551461.93548  20892536.205    20892536.150    20892542.519
        48.000          49.000
 122381575.66346  95362287.81146  23288437.564    23288437.865    23288443.131
        39.000          36.000
 121250861.10447  94481199.63746  23073269.076    23073269.273    23073271.544
        42.000          37.000
 102446866.134 8  79680904.578 8  19137933.000    19137932.781    19137935.772
        52.000          49.000
 20  5  5  0  3  0.0000000  0 10G14G 3G 4G22G16R 4G26G 9G31R 3
 127542255.70945  99383580.42841  24270483.206    24270482.746    24270488.115
        33.000          10.000
 110410973.60948  86034529.30548  21010505.088    21010505.392    21010510.763
        48.000          50.000
 109678739.05847  85463973.60446  20871166.590    20871166.884    20871170.751
        46.000          38.000
 118021870.80147  91965098.65145  22458806.280    22458805.115    22458806.632
        45.000          32.000
 109841794.52348  85591028.18546  20902198.831    20902198.279    20902201.286
        48.000          38.000
 111581817.509 8                  20837111.685
        48.000
 109886569.40547  85625908.44648  20910716.742    20910716.576    20910723.026
        47.000          49.000
 122365961.96146  95350121.29046  23285466.509    23285467.023    23285471.980
        40.000          36.000
 121417806.79747  94611287.15146  23105037.879    23105037.925    23105040.502
        42.000          37.000
 102536255.848 8  79750429.888 8  19154631.966    19154631.658    19154634.506
        52.000          49.000
 20  5  5  0  3 30.0000000  0 10G14G 3G 4G22G16R 4G26G 9G31R 3
 127701077.38545  99507337.50741  24300705.596    24300704.005    24300710.809
        33.000          10.000
 110538143.01748  86133622.34448  21034704.794    21034705.031    21034710.400
        48.000          50.000
 109704028.16347  85483679.39546  20875979.080    20875979.040    20875982.816
        46.000          38.000
 118183414.79447  92090977.06945  22489546.865    22489545.949    22489547.910
        44.000          32.000
 109855590.91047  85601778.60446  20904824.241    20904823.545    20904826.906
        47.000          38.000
 111562967.376 8  86771194.434 7  20833591.232    20833591.895    20833594.748
        48.000          44.000
 109982699.19148  85700814.76148  20929009.681    20929009.601    20929016.123
        48.000          49.000
 122350420.05746  95338010.74046  23282509.418    23282509.482    23282514.722
        40.000          37.000
 121584815.87647  94741424.05446  23136818.682    23136818.732    23136821.519
        42.000          37.000
 102626309.984 8  79820471.976 8  19171454.353    19171454.592    19171457.293
        52.000          49.000
 20  5  5  0  4  0.0000000  0 10G14G 3G 4G22G16R 4G26G 9G31R 3
 127860036.18445  99631201.43341  24330954.431    24330954.706    24330958.067
        33.000           8.000
 110665836.71548  86233123.91348  21059004.008    21059004.305    21059009.655
        48.000          50.000
 109729584.47847  85503593.40646  20880842.172    20880842.238    20880846.295
        46.000          38.000
 118345253.05747  92217084.78845  22520343.748    22520342.616    22520344.658
        44.000          32.000
 109869959.89447  85612975.21146  20907558.600    20907557.853    20907561.046
        47.000          38.000
 111544453.633 8  86756794.854 7  20830134.355    20830135.017    20830137.385
        48.000          44.000
 110079421.26448  85776182.59848  20947415.331    20947415.160    20947421.722
        48.000          49.000
 122334954.28146  95325959.48046  23279566.648    23279566.528    23279571.458
        40.000          37.000
 121751890.08947  94871611.70046  23168611.781    23168612.177    23168614.933
        42.000          38.000
 102717032.479 8  79891033.894 8  19188402.231    19188402.302    19188405.011
        52.000          49.000
 20  5  5  0  4 30.0000000  0 10G14G 3G 4G22G16R 4G26G 9G31R 3
 128019135.10245  99755174.54041  24361229.380    24361227.711    24361226.811
        32.000           7.000
 110794056.44948  86333035.38048  21083403.365    21083403.662    21083409.019
        48.000          50.000
 109755412.82647  85523719.38846  20885756.925    20885757.381    20885761.143
        47.000          38.000
 118507387.03747  92343422.92545  22551196.831    22551195.551    22551197.661
        44.000          32.000
 109884906.92548  85624622.24446  20910402.814    20910402.386    20910405.663
        48.000          38.000
 111526283.399 8  86742662.447 7  20826741.356    20826742.250    20826743.960
        48.000          44.000
 110176737.98548  85852013.80148  20965934.371    20965934.077    20965940.601
        48.000          49.000
 122319569.90946  95313971.66046  23276638.824    23276638.840    23276643.774
        40.000          37.000
 121919031.44147  95001851.66546  23200418.000    23200417.946    23200420.618
        42.000          37.000
 102808427.541 8  79962118.921 8  19205475.769    19205475.565    19205478.343
        52.000          49.000
 20  5  5  0  5  0.0000000  0 10G14G 3G 4G22G16R 4G26G 9G31R 3
 128178370.66345  99879254.1634   24391530.672    24391536.494    24391539.307
        30.000           5.000
 110922797.49747  86433353.06648  21107901.958    21107902.278    21107907.615
        47.000          50.000
 109781511.61147  85544056.10846  20890723.580    20890723.762    20890727.496
        47.000          38.000
 118669811.14247  92469987.13245  22582105.025    22582103.789    22582105.886
        43.000          32.000
 109900431.59648  85636719.37946  20913357.043    20913356.787    20913359.816
        48.000          38.000
 111508457.011 8  86728797.463 7  20823412.579    20823413.423    20823414.971
        49.000          45.000
 110274645.25647  85928305.17348  20984564.984    20984565.158    20984571.562
        47.000          49.000
 122304264.88046  95302045.67446  23273727.223    23273726.597    23273731.730
        41.000          37.000
 122086235.53747  95132140.52546  23232235.779    23232235.871    23232238.683
        42.000          37.000
 102900493.049 8  80033725.401 8  19222674.471    19222674.179    19222676.918
        52.000          49.000
 20  5  5  0  5 30.0000000  0 10G14G 3G 4G22G16R 4G26G 9G31R 3
 128337742.53145 100003440.13741  24421857.811    24421858.859    24421860.335
        30.000           7.000
 111052058.08048  86534075.58648  21132499.309    21132499.793    21132505.125
        48.000          50.000
 109807882.23347  85564604.65046  20895741.900    20895741.938    20895745.706
        47.000          38.000
 118832522.81247  92596775.42645  22613068.309    22613067.198    22613069.265
        44.000          32.000
 109916535.80147  85649268.10746  20916421.633    20916421.104    20916424.219
        47.000          38.000
 111490978.007 8  86715202.677 7  20820147.952    20820149.094    20820150.829
        49.000          45.000
 110373141.96747  86005055.85248  21003308.742    21003308.535    21003314.953
        47.000          49.000
 122289040.60346  95290182.60646  23270829.748    23270829.497    23270834.365
        41.000          37.000
 122253500.63347  95262476.92046  23264065.741    23264065.266    23264068.220
        42.000          37.000
 102993229.342 8  80105853.609 8  19239998.024    19239998.324    19240001.027
        52.000          49.000
 20  5  5  0  6  0.0000000  0 10G14G 3G 4G22G16R 4G26G 9G31R 3
 128497250.96945                  24452211.397
        30.000
 111181837.37748  86635202.30148  21157195.596    21157195.990    21157201.289
        48.000          50.000
 109834526.99447  85585366.78946  20900812.071    20900812.169    20900816.158
        47.000          38.000
 118995520.56347  92723786.63145  22644085.607    22644084.625    22644086.326
        44.000          31.000
 109933222.38047  85662270.63546  20919596.942    20919596.342    20919599.558
        47.000          38.000
 111473851.037 8  86701881.701 7  20816949.364    20816950.200    20816952.314
        48.000          44.000
 110472227.92548  86082265.67848  21022164.018    21022164.022    21022170.458
        48.000          49.000
 122273899.33346  95278384.21746  23267947.924    23267947.968    23267952.709
        40.000          37.000
 122420826.50546  95392860.66746  23295906.490    23295906.506    23295909.035
        41.000          36.000
 103086638.267 8  80178504.977 8  19257447.872    19257447.749    19257450.500
        52.000          49.000
 20  5  5  0  6 30.0000000  0 10G14G 3G 4G22G16R 4G26G 9G31R 3
 128656894.70945                  24482590.602
        30.000
 111312132.86447  86736731.23648  21181989.995    21181990.432    21181995.642
        47.000          50.000
 109861446.54347  85606343.05546  20905934.891    20905934.811    20905938.637
        47.000          38.000
 119158800.95547  92851018.07845  22675157.375    22675156.009    22675157.644
        44.000          31.000
 109950492.80747  85675728.10146  20922883.516    20922882.755    20922885.829
        47.000          38.000
 111457078.839 7  86688836.653 7  20813817.034    20813817.789    20813820.241
        47.000          44.000
 110571901.16647  86159933.12948  21041131.001    21041130.968    21041137.774
        47.000          49.000
 122258841.60446  95266650.93646  23265082.890    23265082.521    23265087.699
        40.000          37.000
 122588210.88946  95523290.01246  23327758.609    23327758.669    23327761.389
        41.000          36.000
 103180719.649 8  80251679.367 8  19275023.027    19275022.890    19275025.678
        52.000          49.000
 20  5  5  0  7  0.0000000  0 10G14G 3G 4G22G16R 4G26G 9G31R 3
 128816668.14445                  24512995.201
        30.000
 111442937.55647  86838656.95948  21206881.639    21206881.841    21206887.008
        47.000          50.000
 109888637.09047  85627530.48346  20911108.798    20911108.809    20911112.988
        47.000          38.000
 119322356.48747  92978463.93145  22706280.726    22706279.914    22706281.086
        45.000          31.000
 109968344.04647  85689638.14946  20926280.111    20926279.648    20926282.865
        47.000          38.000
 111440659.541 8  86676066.074 7  20810751.159    20810751.658    20810754.158
        48.000          44.000
 110672155.34847  86238053.26148  21060208.974    21060208.848    21060215.147
        47.000          49.000
 122243863.60246  95254979.78246  23262232.863    23262232.240    23262237.391
        40.000          38.000
 122755647.28946  95653759.89146  23359620.925    23359620.876    23359623.605
        41.000          36.000
 103275468.742 8  80325373.081 8  19292722.900    19292722.864    19292725.715
        52.000          49.000
 20  5  5  0  7 30.0000000  0 10G14G 3G 4G22G16R 4G26G 9G31R 3
 128976569.17645                  24543423.117
        31.000
 111574248.03748  86940976.79948  21231868.884    21231869.382    21231874.626
        48.000          49.000
 109916098.43747  85648928.92046  20916334.481    20916334.519    20916338.594
        47.000          38.000
 119486183.03547  93106120.95745  22737455.708    22737455.171    22737456.531
        45.000          31.000
 109986776.58247  85704001.15646  20929787.632    20929787.056    20929790.617
        47.000          38.000
 111424595.220 8  86663571.599 7  20807751.380    20807751.912    20807754.227
        48.000          45.000
 110772987.69048  86316623.91348  21079396.741    21079396.593    21079403.223
        48.000          49.000
 122228965.11946  95243370.56946  23259396.707    23259397.143    23259402.418
        41.000          38.000
 122923132.64147  95784267.91446  23391492.493    23391492.575    23391495.145
        42.000          37.000
 103370884.660 8  80399585.447 8  19310547.460    19310547.349    19310550.253
        52.000          49.000
 20  5  5  0  8  0.0000000  0 10G14G 3G 4G22G16R 4G26G 9G31R 3
 129136605.87945                  24573878.201
        32.000
 111706071.00748  87043695.98348  21256954.076    21256954.496    21256959.707
        48.000          49.000
 109943840.55547  85670546.15246  20921613.770    20921613.948    20921617.793
        47.000          38.000
 119650286.80347  93233993.99745  22768684.008    22768682.713    22768684.568
        45.000          31.000
 110005800.92847  85718825.31146  20933407.914    20933407.281    20933410.847
        47.000          38.000
 111408897.977 8  86651362.629 7  20804819.860    20804820.697    20804822.889
        48.000          45.000
 110874405.46848  86395650.74548  21098696.069    21098695.851    21098702.260
        48.000          49.000
 122214155.97246  95231830.99546  23256579.283    23256579.358    23256584.344
        41.000          38.000
 123090674.32747  95914819.83646  23423374.672    23423374.630    23423377.244
        42.000          36.000
 103466976.272 8  80474323.347 8  19328498.125    19328498.206    19328500.956
        52.000          49.000
 20  5  5  0  8 30.0000000  0 10G14G 3G 4G22G16R 4G26G 9G31R 3
 129296776.37745                  24604356.396
        31.000
 111838403.48548  87146812.18748  21282136.034    21282136.527    21282141.807
        48.000          49.000
 109971863.70047  85692382.36246  20926946.555    20926946.725    20926950.342
        47.000          38.000
 119814663.77647  93362079.92345  22799963.569    22799962.657    22799964.252
        44.000          31.000
 110025417.97647  85734111.31646  20937141.090    20937140.344    20937143.703
        47.000          38.000
 111393570.260 8  86639441.057 7  20801957.511    20801958.142    20801960.647
        48.000          44.000
 110976406.34048  86475131.93448  21118106.245    21118105.825    21118112.379
        48.000          49.000
 122199436.49246  95220361.26846  23253778.336    23253778.424    23253783.454
        41.000          39.000
 123258269.63846  96045413.55745  23455266.222    23455266.789    23455269.539
        41.000          35.000
 103563743.131 8  80549586.442 8  19346575.155    19346575.038    19346577.767
        53.000          49.000
 20  5  5  0  9  0.0000000  0 10G14G 3G 4G22G16R 4G26G 9G31R 3
 129457082.84945                  24634862.043
        31.000
 111971246.21848  87250325.99348  21307415.464    21307415.808    21307420.942
        48.000          50.000
 110000171.89447  85714440.69646  20932333.538    20932333.657    20932337.199
        47.000          39.000
 119979314.16147  93490378.89545  22831295.460    22831294.588    22831296.324
        45.000          31.000
 110045632.10048  85749862.58046  20940987.786    20940987.245    20940990.333
        48.000          38.000
 111378618.362 8  86627811.800 7  20799165.220    20799166.207    20799168.424
        48.000          45.000
 111078991.66348  86555068.54248  21137627.649    21137627.390    21137633.626
        48.000          49.000
 122184810.59346  95208964.47246  23250995.312    23250995.134    23251000.253
        41.000          38.000
 123425919.57146  96176049.82745  23487169.473    23487169.430    23487172.404
        41.000          34.000
 103661188.650 8  80625377.381 8  19364779.068    19364778.917    19364781.652
        52.000          49.000
 20  5  5  0  9 30.0000000  0 10G14G 3G 4G22G16R 4G26G 9G31R 3
 129617517.02745                  24665391.753
        32.000
 112104589.26048  87354229.65048  21332789.708    21332790.126    21332795.310
        48.000          50.000
 110028758.48347  85736715.95346  20937773.261    20937773.395    20937777.110
        47.000          39.000
 120144227.49847  93618882.76445  22862677.921    22862676.650    22862678.432
        44.000          31.000
 110066437.37848  85766074.47546  20944946.838    20944946.399    20944949.467
        48.000          38.000
 111364037.650 8  86616471.244 7  20796442.296    20796443.435    20796445.595
        48.000          45.000
 111182152.02748  86635453.23248  21157258.093    21157258.003    21157264.404
        48.000          49.000
 122170271.62646  95197635.41246  23248229.021    23248228.257    23248233.736
        41.000          38.000
 123593615.04446  96306721.59345  23519080.434    23519080.888    23519083.940
        40.000          34.000
 103759304.427 8  80701689.627 8  19383107.498    19383107.550    19383110.522
        52.000          49.000
 20  5  5  0 10  0.0000000  0 10G14G 3G 4G22G16R 4G26G 9G31R 3
 128202677.99945                  24396158.263
        32.000
 110663029.60948  86230936.39848  21058470.121    21058470.440    21058475.679
        48.000          49.000
 108482220.36347  84531621.30746  20643476.862    20643476.742    20643480.615
        46.000          39.000
 118734001.45947  92520005.30545  22594320.497    22594319.521    22594321.333
        44.000          31.000
 108512430.95447  84555160.38146  20649229.322    20649228.868    20649231.822
        47.000          38.000
 109744470.859 8  85356808.177 7  20493999.957    20494000.776    20494003.078
        48.000          45.000
 109710484.11448  85488699.00548  20877209.277    20877209.105    20877215.424
        48.000          48.000
 120580414.99846  93958786.08946  22945688.253    22945688.652    22945694.150
        40.000          38.000
 122185954.72446  95209843.38145  23251212.052    23251211.770    23251215.119
        40.000          34.000
 102253296.688 8  79530350.253 8  19101772.556    19101772.654    19101775.479
        52.000          49.000
 20  5  5  0 10 30.0000000  0 10G14G 3G 4G22G16R 4G26G 9G31R 3
 128363389.19545                  24426739.528
        34.000
 110797391.05248  86335633.61048  21084038.418    21084038.492    21084043.891
        48.000          49.000
 108511391.58448  84554352.11646  20649027.628    20649027.820    20649031.947
        48.000          39.000
 118899457.07147  92648931.72845  22625805.767    22625804.805    22625806.398
        44.000          30.000
 108534447.84848  84572316.39246  20653419.002    20653418.344    20653421.498
        48.000          39.000
 109730667.075 8  85346071.890 4  20491421.995    20491422.762    20491425.274
        48.000          28.000
 109814814.19147  85569995.16848  20897062.514    20897062.476    20897068.696
        47.000          48.000
 120566077.66646  93947614.15546  22942960.063    22942959.965    22942965.551
        41.000          38.000
 122353760.79546  95340601.30545  23283144.708    23283144.767    23283147.744
        41.000          35.000
 102352778.906 8  79607725.287 8  19120356.981    19120356.959    19120359.628
        52.000          49.000
 20  5  5  0 11  0.0000000  0 10G14G 3G 4G22G16R 4G26G 9G31R 3
 128524241.30145                  24457347.949
        32.000
 110932261.88847  86440727.75348  21109703.156    21109703.600    21109708.968
        47.000          49.000
 108540860.36347  84577314.79546  20654635.562    20654635.851    20654639.665
        46.000          39.000
 119065182.83647  92778068.65045  22657341.885    22657341.246    22657343.260
        43.000          30.000
 108557076.42147  84589949.05046  20657724.970    20657724.528    20657727.777
        47.000          39.000
 109717260.342 8  85335644.420 7  20488918.545    20488919.010    20488921.770
        49.000          45.000
 109919730.26047  85651747.93548  20917027.508    20917027.453    20917033.453
        47.000          49.000
 120551846.34146  93936524.81046  22940251.728    22940251.399    22940257.329
        40.000          38.000
 122521623.06146  95471403.01246  23315087.433    23315087.966    23315090.604
        41.000          36.000
 102452948.346 8  79685634.832 8  19139069.513    19139069.257    19139072.175
        52.000          49.000
 20  5  5  0 11 30.0000000  0 10G14G 3G 4G22G16R 4G26G 9G31R 3
 128685226.41345                  24487982.065
        32.000
 111067632.75148  86546211.52648  21135463.410    21135463.887    21135469.244
        48.000          49.000
 108570620.66247  84600504.62146  20660298.846    20660298.985    20660302.739
        47.000          39.000
 119231169.06147  92907408.53645  22688928.240    22688927.279    22688928.649
        43.000          30.000
 108580311.13048  84608054.00546  20662146.266    20662145.868    20662149.072
        48.000          39.000
 109704246.707 8  85325522.699 7  20486488.262    20486489.336    20486491.556
        49.000          45.000
 110025223.46048  85733950.41848  20937101.923    20937101.852    20937108.214
        48.000          49.000
 120537715.04446  93925513.42146  22937562.219    22937562.204    22937568.117
        40.000          38.000
 122689532.91947  95602241.82546  23347040.229    23347040.190    23347043.044
        42.000          36.000
 102553797.255 8  79764072.852 8  19157908.697    19157908.888    19157911.613
        52.000          49.000
 20  5  5  0 12  0.0000000  0 10G14G 3G 4G22G16R 4G26G 9G31R 3
 128846332.47645                  24518640.098
        32.000
 111203490.32148  86652074.55048  21161316.278    21161316.676    21161322.115
        48.000          49.000
 108600662.60447  84623913.90646  20666015.467    20666015.830    20666019.648
        47.000          39.000
 119397401.86347  93036940.55745  22720561.445    22720560.377    22720562.444
        44.000          30.000
 108604142.51848  84626623.92246  20666681.304    20666680.782    20666684.096
        48.000          39.000
 109691618.171 8  85315700.497 7  20484130.309    20484131.596    20484133.115
        49.000          45.000
 110131281.10548  85816592.72748  20957284.044    20957284.222    20957290.276
        48.000          49.000
 120523673.84846  93914572.24346  22934890.659    22934890.777    22934896.265
        41.000          38.000
 122857477.86247  95733107.97145  23378998.842    23378999.146    23379001.888
        42.000          35.000
 102655314.764 8  79843030.887 8  19176873.426    19176873.175    19176875.904
        52.000          49.000
 20  5  5  0 12 30.0000000  0  9G 3G 4G22G16R 4G26G 9G31R 3
 111339849.20448  86758328.20648  21187264.525    21187264.936    21187270.321
        48.000          49.000
 108631004.15547  84647556.67046  20671789.609    20671789.890    20671793.474
        47.000          39.000
 119563894.69047  93166675.20145  22752244.016    22752242.846    22752244.492
        44.000          30.000
 108628588.93947  84645673.07446  20671333.332    20671332.846    20671336.000
        47.000          39.000
 109679395.324 8  85306193.821 7  20481847.784    20481849.412    20481850.956
        49.000          45.000
 110237918.29648  85899686.63248  20977576.406    20977576.441    20977582.753
        48.000          48.000
 120509740.73346  93903715.28046  22932239.193    22932239.498    22932244.511
        41.000          37.000
 123025473.12047  95864013.32544  23410967.402    23410967.838    23410970.171
        42.000          26.000
 102757517.523 8  79922521.897 8  19195965.691    19195965.545    19195968.355
        52.000          49.000
 20  5  5  0 13  0.0000000  0  9G 3G 4G22G16R 4G26G 9G31R 3
 111476697.87047  86864963.51148  21213305.981    21213306.329    21213311.738
        47.000          49.000
 108661637.32647  84671426.67446  20677619.068    20677619.063    20677622.862
        46.000          39.000
 119730635.67347  93296603.21745  22783973.700    22783972.983    22783974.582
        43.000          30.000
 108653642.67348  84665195.45546  20676100.889    20676100.442    20676103.656
        48.000          39.000
 109667571.972 8  85296997.872 7  20479639.999    20479641.079    20479642.943
        49.000          45.000
 110345124.13648  85983223.64048  20997976.950    20997976.955    20997983.293
        48.000          48.000
 120495907.74646  93892936.32646  22929607.402    22929606.902    22929612.263
        41.000          38.000
 123193507.83746  95994949.41444  23442943.397    23442943.621    23442946.132
        41.000          25.000
 102860396.557 8  80002538.907 8  19215184.141    19215184.122    19215187.013
        52.000          49.000
 20  5  5  0 13 30.0000000  0  9G 3G 4G22G16R 4G26G 9G31R 3
 111614032.76848  86971977.70648  21239439.969    21239440.193    21239445.728
        48.000          49.000
 108692561.98447  84695523.80446  20683503.425    20683503.620    20683507.339
        47.000          39.000
 119897621.53247  93426722.02945  22815750.302    22815749.068    22815750.493
        43.000          30.000
 108679303.94148  84685191.24146  20680984.372    20680983.719    20680986.842
        48.000          39.000
 109656150.152 8  85288114.222 7  20477507.179    20477507.947    20477509.807
        49.000          45.000
 110452895.68048  86067201.45548  21018485.623    21018485.236    21018491.667
        48.000          48.000
 120482174.73446  93882235.28746  22926993.433    22926993.595    22926998.907
        41.000          38.000
 123361579.02946  96125913.92944  23474925.998    23474926.230    23474929.841
        41.000          25.000
 102963950.508 8  80083080.846 8  19234529.060    19234529.022    19234531.905
        52.000          49.000
 20  5  5  0 14  0.0000000  0  9G 3G 4G22G16R 4G26G 9G31R 3
 111751860.93747  87079376.25548  21265667.617    21265667.931    21265673.538
        46.000          49.000
 108723788.58647  84719856.21546  20689445.655    20689446.094    20689449.667
        46.000          39.000
 120064858.56847  93557036.58144  22847574.425    22847573.387    22847575.035
        43.000          29.000
 108705583.57147  84705668.87046  20685985.053    20685984.547    20685987.802
        47.000          39.000
 109645142.706 8  85279552.868 7  20475451.566    20475452.474    20475453.952
        49.000          45.000
 110561240.45847  86151625.95148  21039102.489    21039102.540    21039108.928
        47.000          48.000
 120468552.30946  93871620.41446  22924401.934    22924401.404    22924406.780
        40.000          39.000
 123529694.87846  96256913.22744  23506917.591    23506917.677    23506920.816
        40.000          24.000
 103068188.272 8  80164154.646 8  19254001.391    19254001.332    19254004.411
        52.000          49.000
 20  5  5  0 14 30.0000000  0  9G 3G 4G22G16R 4G26G 9G31R 3
 111890169.91447  87187149.46548  21291986.905    21291987.233    21291992.827
        47.000          49.000
 108755308.19647  84744416.93746  20695443.575    20695444.004    20695447.656
        47.000          39.000
 120232333.38147  93687536.41944  22879443.656    22879442.783    22879444.616
        43.000          29.000
 108732472.91847  84726621.60046  20691101.769    20691101.173    20691104.689
        47.000          39.000
 109634542.501 8  85271308.254 7  20473471.980    20473472.738    20473474.570
        49.000          45.000
 110670146.60947  86236487.87648  21059827.139    21059826.631    21059833.103
        47.000          48.000
 120455031.45146  93861084.68246  22921828.540    22921828.372    22921834.102
        41.000          39.000
 123697843.47446  96387938.07144  23538915.419    23538915.032    23538917.732
        40.000          24.000
 103173099.999 8  80245752.632 8  19273600.102    19273599.618    19273602.743
        52.000          49.000
 20  5  5  0 15  0.0000000  0  9G 3G 4G22G16R 4G26G 9G31R 3
 112028957.45448  87295295.58148  21318397.404    21318397.666    21318403.253
        48.000          49.000
 108787122.01647  84769206.91846  20701497.509    20701497.797    20701501.585
        47.000          39.000
 120400043.42747  93818219.54844  22911357.753    22911357.123    22911358.832
        44.000          29.000
 108759973.35648  84748050.50846  20696334.914    20696334.641    20696337.773
        48.000          39.000
 109624353.084 8  85263383.143 7  20471568.796    20471569.736    20471571.900
        48.000          45.000
 110779612.43347  86321785.91048  21080657.275    21080657.233    21080663.822
        47.000          48.000
 120441613.49446  93850629.13846  22919275.283    22919275.020    22919280.769
        41.000          39.000
 123866023.37046  96518987.28443  23570918.780    23570919.266    23570921.530
        40.000          23.000
 103278685.359 8  80327874.564 8  19293324.193    19293323.989    19293326.861
        52.000          49.000
 20  5  5  0 15 30.0000000  0  9G 3G 4G22G16R 4G26G 9G31R 3
 112168224.95448  87403815.69348  21344899.281    21344899.492    21344905.096
        48.000          48.000
 108819235.07847  84794230.06246  20707608.356    20707608.640    20707612.561
        47.000          39.000
 120567989.48647  93949086.57144  22943317.049    22943316.322    22943317.851
        43.000          29.000
 108788090.02748  84769959.59846  20701685.590    20701684.926    20701688.343
        48.000          39.000
 109614581.566 8  85255783.065 7  20469744.584    20469744.705    20469747.132
        48.000          45.000
 110889639.91848  86407521.60148  21101595.025    21101594.940    21101601.267
        48.000          48.000
 120428303.40547  93840257.65046  22916742.754    22916742.474    22916747.817
        42.000          40.000
 124034236.67546  96650062.53643  23602928.568    23602929.509    23602932.054
        39.000          23.000
 103384948.041 8  80410523.299 8  19313174.878    19313174.720    19313177.804
        52.000          49.000
 20  5  5  0 16  0.0000000  0  9G 3G 4G22G16R 4G26G 9G31R 3
 112307978.80747  87512714.77848  21371493.338    21371493.875    21371499.454
        47.000          48.000
 108851657.28047  84819494.09646  20713778.163    20713778.455    20713782.202
        47.000          40.000
 120736177.61647  94080142.23544  22975322.481    22975321.191    22975323.253
        43.000          29.000
 108816833.15648  84792356.83646  20707155.336    20707154.629    20707157.803
        48.000          39.000
 109605240.543 8  85248517.814 7  20467999.983    20468000.538    20468002.661
        49.000          45.000
 111000235.94647  86493700.30648  21122640.660    21122640.586    21122647.074
        47.000          48.000
 120415111.19646  93829978.00846  22914232.562    22914232.334    22914237.494
        41.000          40.000
 124202490.92946  96781169.70643  23634946.229    23634946.162    23634949.971
        38.000          21.000
 103491896.889 8  80493705.714 8  19333154.030    19333153.846    19333156.628
        53.000          49.000
 20  5  5  0 16 30.0000000  0  9G 3G 4G22G16R 4G26G 9G31R 3
 112448201.76447  87621979.39748  21398176.849    21398177.308    21398182.971
        47.000          49.000
 108884374.88648  84844988.32346  20720004.367    20720004.361    20720008.273
        48.000          39.000
 120904590.05847  94211372.67344  23007369.838    23007369.091    23007370.446
        43.000          29.000
 108846189.29348  84815231.74346  20712741.320    20712740.863    20712744.156
        48.000          39.000
 109596317.871 8  85241577.953 7  20466333.254    20466334.044    20466336.621
        48.000          46.000
 111111383.86347  86580309.06148  21143791.303    21143791.311    21143797.772
        47.000          48.000
 120402023.23047  93819779.58846  22911741.939    22911741.780    22911746.517
        42.000          40.000
 124370769.79446  96912296.03643  23666968.806    23666969.228    23666971.787
        37.000          21.000
 103599516.244 8  80577409.644 8  19353258.019    19353257.980    19353260.960
        52.000          49.000
 20  5  5  0 17  0.0000000  0  9G 3G 4G22G16R 4G26G 9G31R 3
 112588893.96947  87731609.67248  21424949.896    21424950.100    21424955.760
        47.000          48.000
 108917391.67247  84870715.66546  20726287.122    20726287.409    20726291.201
        47.000          40.000
 121073226.35747  94342777.56544  23039460.741    23039459.404    23039460.641
        43.000          29.000
 108876162.29748  84838587.32346  20718444.883    20718444.595    20718447.766
        48.000          39.000
 109587819.559 8  85234968.147 7  20464746.150    20464747.280    20464749.736
        48.000          46.000
 111223084.34047  86667348.38348  21165047.554    21165047.437    21165053.759
        47.000          48.000
 120389043.31147  93809665.37046  22909271.594    22909271.784    22909276.624
        43.000          40.000
 124539074.03146  97043442.14343  23698996.062    23698996.051    23698997.910
        38.000          21.000
 103707808.597 8  80661637.008 8  19373487.953    19373487.999    19373490.827
        52.000          49.000
 20  5  5  0 17 30.0000000  0  9G 3G 4G22G16R 4G26G 9G31R 3
 112730051.76047  87841602.73548  21451811.121    21451811.616    21451817.173
        47.000          48.000
 108950707.54647  84896676.08046  20732627.123    20732627.194    20732630.856
        47.000          39.000
 121242082.75247  94474353.95144  23071592.481    23071591.682    23071593.414
        43.000          29.000
 108906751.97548  84862423.43146  20724265.933    20724265.584    20724268.728
        48.000          39.000
 109579747.740 8  85228690.058 7  20463238.679    20463239.813    20463241.993
        48.000          45.000
 111335334.25447  86754815.83648  21186407.821    21186407.731    21186414.253
        47.000          48.000
 120376171.39747  93799635.30746  22906821.894    22906822.359    22906827.507
        42.000          40.000
 124707401.10146  97174606.04343  23731027.921    23731028.433    23731031.523
        39.000          22.000
 103816772.220 8  80746386.472 8  19393843.449    19393843.273    19393846.115
        52.000          49.000
 20  5  5  0 18  0.0000000  0  9G 3G 4G22G16R 4G26G 9G31R 3
 112871684.40147  87951965.81348  21478763.166    21478763.541    21478769.001
        47.000          48.000
 108984335.42547  84922879.61446  20739026.321    20739026.449    20739030.208
        46.000          40.000
 121411168.08747  94606108.72744  23103768.193    23103767.176    23103769.655
        43.000          29.000
 108937971.43647  84886750.27546  20730206.825    20730206.399    20730209.756
        47.000          39.000
 109572117.601 8  85222755.489 7  20461814.366    20461815.200    20461817.248
        49.000          45.000
 111448143.45647  86842719.09448  21207874.555    21207874.493    21207881.059
        47.000          48.000
 120363420.53947  93789699.57346  22904395.818    22904395.838    22904400.943
        42.000          40.000
 124875761.54346  97305795.95343  23763065.924    23763066.181    23763068.340
        40.000          22.000
 103926418.950 8  80831667.241 8  19414326.257    19414326.328    19414329.137
        52.000          49.000
 20  5  5  0 18 30.0000000  0  9G 3G 4G22G16R 4G26G 9G31R 3
 113013786.99247  88062695.08548  21505804.454    21505804.876    21505810.250
        47.000          48.000
 109018273.96447  84949325.21146  20745484.463    20745484.775    20745488.485
        47.000          40.000
 121580477.00447  94738037.72244  23135986.888    23135985.793    23135987.761
        42.000          29.000
 108969819.63348  84911567.05046  20736267.526    20736266.942    20736270.069
        48.000          39.000
 109564929.879 8  85217165.028 7  20460471.981    20460473.058    20460475.214
        49.000          46.000
 111561507.52847  86931054.72548  21229447.199    21229446.997    21229453.492
        47.000          48.000
 120350789.49147  93779857.20146  22901992.333    22901992.071    22901997.461
        42.000          40.000
 125044151.21346  97437008.63643  23795109.699    23795109.879    23795112.403
        40.000          22.000
 104036745.671 8  80917476.896 8  19434936.191    19434936.172    19434939.162
        52.000          49.000
 20  5  5  0 19  0.0000000  0  9G 3G 4G22G16R 4G26G 9G31R 3
 113156356.93947  88173788.53548  21532934.803    21532934.934    21532940.430
        47.000          48.000
 109052524.23447  84976013.71346  20752002.378    20752002.370    20752006.196
        47.000          39.000
 121750006.60447  94870138.67444  23168247.287    23168246.128    23168248.238
        42.000          28.000
 109002297.32847  84936874.33946  20742448.013    20742447.275    20742450.521
        47.000          39.000
 109558187.857 8  85211921.222 7  20459213.521    20459214.070    20459216.086
        49.000          46.000
 111675424.39547  87019821.10148  21251124.963    21251124.742    21251131.271
        46.000          48.000
 120338279.36947  93770109.05846  22899611.443    22899611.609    22899616.647
        42.000          40.000
 125212568.26446  97568242.66143  23827158.512    23827158.969    23827160.970
        40.000          21.000
 104147751.926 8  81003815.074 8  19455672.993    19455673.115    19455676.049
        52.000          49.000
 20  5  5  0 19 30.0000000  0  9G 3G 4G22G16R 4G26G 9G31R 3
 113299384.88647  88285238.85548  21560151.921    21560152.159    21560157.827
        47.000          48.000
 109087080.58847  85002940.73046  20758577.984    20758577.952    20758581.845
        47.000          40.000
 121919746.98947  95002403.88044  23200548.202    23200546.819    23200548.754
        42.000          28.000
 109035399.11448  84962667.94246  20748747.088    20748746.410    20748749.579
        48.000          39.000
 109551888.007 8  85207021.333 7  20458036.685    20458037.796    20458039.550
        49.000          46.000
 111789885.31647  87109011.41648  21272905.906    21272905.907    21272912.296
        47.000          48.000
 120325884.71147  93760450.87646  22897253.283    22897253.120    22897258.507
        42.000          40.000
 125381004.65246  97699491.75143  23859210.529    23859210.318    23859213.196
        40.000          22.000
 104259430.245 8  81090675.964 8  19476535.523    19476535.196    19476538.496
        52.000          49.000
 20  5  5  0 20  0.0000000  0  9G 3G 4G22G16R 4G26G 9G31R 3
 113442877.60947  88397051.34848  21587457.609    21587458.025    21587463.578
        47.000          48.000
 109121953.41448  85030114.35146  20765214.152    20765214.230    20765218.136
        48.000          40.000
 122089704.42047  95134838.20644  23232889.859    23232888.670    23232891.036
        43.000          28.000
 109069135.33748  84988955.89746  20755166.487    20755166.152    20755169.291
        48.000          40.000
 109546042.879 8  85202475.106 7  20456945.416    20456946.086    20456948.104
        49.000          46.000
 111904897.51747  87198631.30148  21294792.031    21294792.098    21294798.648
        47.000          48.000
 120313615.95247  93750890.81146  22894918.473    22894918.315    22894924.000
        42.000          41.000
 125549468.21146  97830762.02943  23891268.401    23891267.839    23891270.922
        39.000          21.000
 104371789.584 8  81178066.544 8  19497525.220    19497525.065    19497528.324
        52.000          49.000
 20  5  5  0 20 30.0000000  0  9G 3G 4G22G16R 4G26G 9G31R 3
 112011414.29247  87281625.36648  21315059.317    21315059.586    21315065.114
        47.000          48.000
 107581721.97847  83829933.99946  20472117.884    20472117.915    20472121.924
        47.000          40.000
 120684458.74347  94039841.55144  22965480.398    22965479.138    22965481.698
        42.000          28.000
 107528084.96348  83788137.42446  20461914.614    20461913.772    20461917.378
        48.000          40.000
 107935277.573 8  83949657.641 7  20156146.255    20156146.940    20156148.841
        49.000          45.000
 110445039.74647  86061079.77548  21016990.533    21016990.498    21016996.884
        47.000          48.000
 118726050.88947  92513827.12546  22592815.075    22592814.757    22592820.361
        42.000          40.000
 124142540.00046  96734454.27143  23623538.648    23623538.295    23623541.500
        39.000          21.000
 102880017.633 8  80017799.448 8  19218849.516    19218849.706    19218852.724
        52.000          49.000
 20  5  5  0 21  0.0000000  0  9G 3G 4G22G16R 4G26G 9G31R 3
 112155817.61147  87394147.40947  21342538.235    21342538.626    21342544.176
        47.000          47.000
 107617219.91847  83857594.72246  20478872.870    20478873.016    20478876.873
        47.000          40.000
 120854830.79646  94172598.97644  22997900.898    22997899.652    22997902.219
        41.000          28.000
 107563081.80448  83815407.68546  20468573.988    20468573.573    20468576.983
        48.000          39.000
 107930340.384 8  83945817.593 7  20155224.318    20155224.994    20155226.707
        49.000          45.000
 110561137.15547  86151545.27748  21039083.112    21039083.090    21039089.332
        47.000          48.000
 118714026.50147  92504457.47346  22590526.543    22590526.562    22590532.144
        42.000          40.000
 124311042.15446  96865754.59443  23655603.882    23655603.892    23655605.946
        37.000          20.000
 102993725.963 8  80106239.237 8  19240091.560    19240091.479    19240094.319
        52.000          49.000
 20  5  5  0 21 30.0000000  0  9G 3G 4G22G16R 4G26G 9G31R 3
 112300675.60047  87507023.74948  21370103.873    21370104.214    21370109.729
        47.000          48.000
 107653035.34148  83885502.83946  20485688.352    20485688.338    20485692.413
        48.000          40.000
 121025409.01647  94305517.01644  23030360.859    23030359.684    23030362.079
        42.000          28.000
 107598713.95848  83843172.99446  20475354.656    20475354.123    20475357.384
        48.000          39.000
 107925865.528 8  83942337.136 7  20154388.052    20154389.139    20154391.109
        49.000          46.000
 110677777.31347  86242433.69348  21061278.931    21061278.836    21061285.446
        47.000          48.000
 118702129.44047  92495187.03546  22588262.552    22588262.297    22588267.960
        42.000          40.000
 124479564.65146  96997070.75343  23687672.501    23687672.890    23687675.763
        37.000          20.000
 103108111.212 8  80195205.523 8  19261459.805    19261459.490    19261462.407
        52.000          49.000
 20  5  5  0 22  0.0000000  0  9G 3G 4G22G16R 4G26G 9G31R 3
 112445984.29347  87620251.27848  21397755.239    21397755.572    21397761.074
        47.000          48.000
 107689168.04348  83913658.17446  20492564.026    20492564.294    20492568.245
        48.000          40.000
 121196188.93946  94438592.25544  23062859.137    23062858.307    23062860.727
        41.000          27.000
 107634980.64748  83871432.74746  20482256.265    20482255.510    20482258.624
        48.000          39.000
 107921854.780 8  83939217.655 7  20153639.598    20153640.336    20153642.316
        49.000          46.000
 110794956.76747  86333742.34848  21083577.683    21083577.526    21083584.130
        47.000          48.000
 118690359.61947  92486015.75346  22586022.844    22586022.346    22586028.178
        42.000          40.000
 124648104.65846  97128400.56943  23719744.359    23719744.998    23719748.176
        37.000          20.000
 103223171.313 8  80284696.697 8  19282953.806    19282953.490    19282956.659
        52.000          49.000
 20  5  5  0 22 30.0000000  0  9G 3G 4G22G16R 4G26G 9G31R 3
 112591744.49347  87733830.63148  21425492.613    21425492.884    21425498.290
        47.000          48.000
 107725622.51648  83942064.23546  20499501.183    20499501.364    20499505.193
        48.000          40.000
 121367171.42547  94571825.32544  23095396.509    23095395.283    23095397.381
        42.000          27.000
 107671886.65248  83900190.66546  20489278.802    20489278.502    20489281.702
        48.000          40.000
 107918314.850 8  83936464.371 4  20152978.365    20152979.427    20152981.264
        50.000          28.000
 110912676.82147  86425472.24548  21105979.251    21105978.785    21105985.389
        47.000          48.000
 118678721.73046  92476947.26046  22583807.703    22583807.637    22583813.398
        41.000          40.000
 124816664.20346  97259745.61243  23751820.394    23751819.550    23751822.320
        37.000          19.000
 103338909.068 8  80374714.925 8  19304574.709    19304574.453    19304577.524
        52.000          49.000
 20  5  5  0 23  0.0000000  0  9G 3G 4G22G16R 4G26G 9G31R 3
 112737943.36047  87847751.80947  21453313.416    21453313.550    21453318.936
        47.000          47.000
 107762389.75348  83970714.02446  20506497.851    20506498.078    20506501.881
        48.000          40.000
 121538343.11747  94705205.82644  23127969.576    23127968.339    23127970.234
        43.000          27.000
 107709422.56348  83929439.42546  20496421.878    20496421.361    20496424.710
        48.000          39.000
 107915238.779 8  83934071.858 7  20152404.259    20152405.009    20152406.990
        50.000          46.000
 111030925.14548  86517613.78048  21128480.901    21128480.845    21128487.405
        48.000          48.000
 118667206.86047  92467974.63746  22581616.559    22581616.680    22581622.064
        42.000          40.000
 124985231.86446  97391096.98143  23783896.943    23783897.559    23783901.183
        37.000          19.000
 103455313.321 8  80465251.547 8  19326319.645    19326319.803    19326322.762
        52.000          49.000
 20  5  5  0 23 30.0000000  0  9G 3G 4G22G16R 4G26G 9G31R 3
 112884585.08047  87962018.06047  21481218.246    21481218.639    21481223.999
        46.000          47.000
 107799477.66147  83999613.67546  20513555.610    20513555.594    20513559.525
        47.000          40.000
 121709707.78347  94838736.70744  23160579.059    23160578.469    23160580.129
        42.000          27.000
 107747596.05448  83959184.99846  20503686.053    20503685.329    20503688.796
        48.000          39.000
 107912636.545 8  83932047.888 7  20151918.503    20151919.369    20151921.190
        50.000          46.000
 111149706.44047  86610170.62447  21151083.990    21151084.084    21151090.607
        46.000          47.000
 118655823.13847  92459104.19946  22579450.450    22579450.662    22579455.605
        43.000          40.000
 125153812.83246  97522458.74543  23815978.004    23815977.374    23815981.740
        38.000          19.000
 103572390.331 8  80556311.426 8  19348190.933    19348190.709    19348193.860
        52.000          49.000
 20  5  5  0 24  0.0000000  0  9G 3G 4G22G16R 4G26G 9G31R 3
 113031661.87447  88076623.32847  21509205.870    21509206.462    21509211.860
        47.000          47.000
 107836882.24847  84028760.09946  20520673.291    20520673.337    20520677.266
        47.000          40.000
 121881257.44547  94972411.75044  23193223.726    23193222.876    23193224.498
        43.000          27.000
 107786403.09747  83989424.24546  20511070.586    20511070.237    20511073.723
        47.000          39.000
 107910506.344 8  83930391.059 7  20151520.182    20151521.353    20151523.502
        50.000          46.000
 111269013.41247  86703137.08147  21173787.469    21173787.367    21173793.832
        46.000          47.000
 118644566.70447  92450332.95746  22577308.800    22577308.858    22577313.789
        43.000          41.000
 125322400.71746  97653825.84543  23848058.700    23848058.408    23848062.936
        37.000          19.000
 103690134.150 8  80647889.932 8  19370186.362    19370186.453    19370189.494
        52.000          49.000
 20  5  5  0 24 30.0000000  0  9G 3G 4G22G16R 4G26G 9G31R 3
 113179178.87647  88191571.61647  21537277.717    21537277.924    21537283.414
        46.000          47.000
 107874612.46948  84058160.25346  20527852.937    20527853.089    20527857.031
        48.000          40.000
 122052997.09747  95106234.82444  23225904.878    23225904.124    23225905.628
        43.000          27.000
 107825852.23848  84020163.83346  20518577.673    20518577.150    20518580.665
        48.000          40.000
 107908859.325 8  83929110.035 7  20151213.088    20151213.684    20151215.949
        50.000          46.000
 111388851.70947  86796517.55747  21196591.999    21196591.825    21196598.428
        47.000          47.000
 118633446.75547  92441668.05646  22575192.677    22575192.731    22575197.582
        42.000          40.000
 125491001.66846  97785203.18343  23880142.908    23880142.800    23880147.245
        38.000          19.000
 103808551.854 8  80739992.573 8  19392307.950    19392308.032    19392310.902
        52.000          49.000
 20  5  5  0 25  0.0000000  0  9G 3G 4G22G16R 4G26G 9G31R 3
 113327130.93647  88306858.91747  21565431.992    21565432.301    21565437.815
        46.000          47.000
 107912666.94647  84087813.08746  20535094.640    20535094.778    20535098.619
        47.000          40.000
 122224921.41847  95240201.78444  23258621.108    23258619.907    23258621.569
        43.000          27.000
 107865941.55548  84051402.26046  20526206.785    20526205.954    20526209.403
        48.000          40.000
 107907696.291 8  83928205.444 7  20150995.562    20150996.298    20150998.814
        50.000          46.000
 111509216.66947  86890308.42147  21219496.794    21219496.584    21219503.060
        46.000          47.000
 118622462.09847  92433108.58246  22573102.600    22573102.350    22573107.430
        42.000          41.000
 125659612.05246  97916587.83343  23912228.062    23912229.133    23912231.506
        38.000          21.000
 103927640.094 8  80832616.737 8  19414554.998    19414554.659    19414557.570
        52.000          49.000
 20  5  5  0 25 30.0000000  0  9G 3G 4G22G16R 4G26G 9G31R 3
 113475516.58947  88422484.07747  21593668.830    21593669.196    21593674.773
        47.000          47.000
 107951048.08448  84117720.45146  20542397.969    20542398.168    20542402.221
        48.000          41.000
 122397028.67247  95374311.30744  23291371.985    23291371.490    23291372.936
        43.000          27.000
 107906673.62948  84083141.53246  20533957.726    20533957.113    20533960.514
        48.000          40.000
 107907021.719 8  83927680.763 7  20150869.771    20150870.467    20150872.788
        50.000          46.000
 111630107.29447  86984508.89447  21242501.471    21242501.428    21242507.805
        47.000          47.000
 118611615.25847  92424656.49746  22571038.237    22571038.319    22571043.368
        43.000          41.000
 125828231.59146  98047979.65943  23944315.750    23944316.985    23944318.779
        39.000          20.000
 104047399.420 8  80925762.859 8  19436926.771    19436926.740    19436929.490
        53.000          49.000
 20  5  5  0 26  0.0000000  0  9G 3G 4G22G16R 4G26G 9G31R 3
 113624334.71747  88538446.23547  21621988.101    21621988.403    21621994.004
        47.000          47.000
 107989758.57648  84147884.45246  20549764.837    20549764.834    20549768.826
        48.000          40.000
 122569317.49847  95508562.30944  23324157.835    23324156.871    23324158.250
        43.000          27.000
 107948050.62948  84115383.34346  20541831.434    20541830.853    20541834.124
        48.000          40.000
 107906840.594 8  83927539.877 7  20150836.100    20150836.505    20150839.082
        50.000          46.000
 111751522.98447  87079118.51447  21265605.993    21265605.826    21265612.604
        47.000          47.000
 118600909.25547  92416314.15146  22569001.227    22569001.003    22569006.082
        43.000          41.000
 125996860.55546  98179378.79943  23976404.831    23976403.481    23976407.990
        39.000          21.000
 104167830.707 8  81019431.617 8  19459424.518    19459424.354    19459427.313
        52.000          49.000
 20  5  5  0 26 30.0000000  0 10G 3G 4G22G 7G16R 4G26G 9G31R 3
 113773574.79947  88654737.18147  21650387.379    21650387.758    21650393.386
        46.000          47.000
 108028791.73548  84178299.88646  20557192.388    20557192.691    20557196.560
        48.000          40.000
 122741776.89947  95642946.22244  23356975.791    23356974.889    23356976.239
        42.000          27.000
 131860384.40246 102748348.27244  25092194.315    25092196.238    25092198.626
        36.000          26.000
 107990065.15948  84148121.93746  20549826.338    20549826.042    20549829.312
        48.000          40.000
 107907147.778 8  83927778.784 7  20150893.494    20150894.160    20150896.311
        50.000          46.000
 111873453.68747  87174129.44047  21288808.450    21288808.610    21288815.227
        46.000          47.000
 118590337.52747  92408076.43747  22566989.489    22566989.316    22566994.302
        43.000          42.000
 126165489.68146  98310778.05443  24008492.863    24008494.078    24008497.741
        38.000          20.000
 104288924.629 8  81113615.762 8  19482045.676    19482045.615    19482048.694
        52.000          49.000
 20  5  5  0 27  0.0000000  0 10G 3G 4G22G 7G16R 4G26G 9G31R 3
 113923247.58047  88771365.29447  21678869.138    21678869.489    21678875.230
        46.000          47.000
 108068162.19048  84208978.14646  20564684.419    20564684.583    20564688.569
        48.000          41.000
 122914417.57547  95777471.38644  23389828.758    23389827.663    23389828.714
        43.000          27.000
 131851793.64146 102741654.13444  25090560.801    25090561.243    25090563.674
        36.000          27.000
 108032731.83348  84181368.68946  20557945.730    20557945.211    20557948.390
        48.000          40.000
 107907960.558 8  83928410.933 7  20151045.315    20151046.249    20151048.035
        51.000          46.000
 111995910.62347  87269550.41047  21312111.694    21312111.363    21312118.186
        46.000          47.000
 118579914.98747  92399954.96847  22565006.043    22565005.897    22565011.066
        43.000          42.000
 126334131.39346  98442187.13443  24040584.757    24040585.189    24040588.342
        37.000          19.000
 104410694.160 8  81208325.371 8  19504793.175    19504793.156    19504796.085
        52.000          49.000
 20  5  5  0 27 30.0000000  0 10G 3G 4G22G 7G16R 4G26G 9G31R 3
 114073335.60647  88888316.98647  21707429.820    21707430.481    21707436.086
        46.000          47.000
 108107856.38148  84239908.67346  20572237.971    20572238.238    20572242.122
        48.000          41.000
 123087221.90247  95912124.07344  23422712.072    23422711.207    23422712.215
        43.000          27.000
 131843267.63745 102735010.48844  25088938.735    25088938.557    25088941.469
        35.000          26.000
 108076036.58248  84215112.64446  20566186.300    20566185.873    20566189.078
        48.000          40.000
 107909267.225 8  83929427.223 7  20151288.949    20151290.026    20151292.057
        50.000          47.000
 112118876.85347  87365368.23747  21335511.411    21335510.955    21335517.753
        46.000          47.000
 118569628.26547  92391939.34747  22563048.823    22563048.532    22563053.953
        43.000          42.000
 126502769.60646  98573593.48543  24072676.040    24072675.114    24072679.540
        37.000          18.000
 104533123.377 8  81303548.081 8  19527664.089    19527663.997    19527666.808
        52.000          48.000
 20  5  5  0 28  0.0000000  0 10G 3G 4G22G 7G16R 4G26G 9G31R 3
 114223842.48347  89005595.04547  21736070.994    21736070.981    21736076.662
        46.000          47.000
 108147881.70948  84271097.22546  20579854.420    20579854.732    20579858.679
        48.000          41.000
 123260193.48047  96046907.06944  23455627.439    23455626.553    23455627.837
        43.000          27.000
 131834813.24846 102728422.60844  25087329.276    25087329.132    25087333.681
        36.000          26.000
 108119986.37948  84249359.23046  20574549.748    20574549.125    20574552.621
        48.000          40.000
 107911077.324 8  83930835.061 7  20151627.073    20151627.745    20151630.224
        50.000          46.000
 112242356.39847  87461586.04347  21359008.639    21359008.332    21359015.333
        45.000          47.000
 118559485.04247  92384035.52947  22561118.414    22561118.386    22561123.852
        44.000          42.000
 126671408.94746  98705000.71343  24104767.063    24104766.683    24104770.340
        37.000          18.000
 104656217.627 8  81399288.031 8  19550659.024    19550659.063    19550662.051
        52.000          49.000
 20  5  5  0 28 30.0000000  0 10G 3G 4G22G 7G16R 4G26G 9G31R 3
 114374758.42647  89123191.85947  21764788.785    21764789.259    21764794.901
        46.000          46.000
 108188232.36848  84302539.27746  20587533.175    20587533.217    20587537.092
        48.000          41.000
 123433322.30247  96181812.62444  23488573.074    23488571.789    23488573.353
        42.000          27.000
 131826423.08045 102721884.79944  25085732.931    25085732.853    25085736.633
        35.000          26.000
 108164574.73448  84284103.39746  20583034.423    20583034.043    20583037.280
        48.000          40.000
 107913386.942 8  83932631.423 7  20152058.322    20152059.113    20152061.585
        50.000          47.000
 112366340.00747  87558196.62747  21382601.753    21382601.686    21382608.492
        46.000          47.000
 118549479.72647  92376239.18547  22559214.688    22559214.393    22559219.850
        43.000          42.000
 126840041.35246  98836402.54943  24136856.996    24136854.957    24136860.152
        38.000          18.000
 104779968.744 8  81495538.881 8  19573776.884    19573776.674    19573779.941
        52.000          49.000
 20  5  5  0 29  0.0000000  0 10G 3G 4G22G 7G16R 4G26G 9G31R 3
 114526089.59547  89241112.22847  21793586.438    21793586.675    21793592.370
        46.000          46.000
 108228918.35047  84334242.61846  20595275.217    20595275.337    20595279.328
        47.000          41.000
 123606614.18347  96316845.19944  23521549.183    23521548.451    23521549.762
        42.000          26.000
 131818105.79046 102715403.76044  25084150.659    25084150.578    25084154.151
        36.000          26.000
 108209811.16248  84319352.55846  20591642.714    20591642.213    20591645.547
        48.000          41.000
 107916208.570 8  83934826.010 7  20152585.452    20152586.277    20152588.284
        50.000          47.000
 112490834.26647  87655205.12847  21406292.531    21406292.310    21406298.914
        46.000          47.000
 118539622.59847  92368558.29947  22557338.918    22557338.507    22557344.026
        43.000          42.000
 127008674.48346  98967804.91743  24168946.395    24168946.779    24168949.806
        37.000          18.000
 104904384.950 8  81592307.021 8  19597018.822    19597018.780    19597021.770
        52.000          48.000
 20  5  5  0 29 30.0000000  0 10G 3G 4G22G 7G16R 4G26G 9G31R 3
 114677834.50147  89359354.98247  21822462.299    21822462.851    21822468.370
        46.000          46.000
 108269942.15147  84366209.20046  20603081.933    20603082.023    20603085.860
        47.000          41.000
 123780067.56547  96452003.66244  23554556.353    23554555.639    23554555.665
        42.000          26.000
 131809863.53345 102708981.19844  25082581.654    25082581.045    25082585.165
        35.000          27.000
 108255697.62948  84355108.24146  20600374.845    20600374.369    20600377.419
        48.000          40.000
 107919546.722 8  83937422.343 7  20153208.676    20153209.409    20153211.818
        50.000          47.000
 112615838.18047  87752610.75648  21430079.967    21430079.883    21430086.518
        46.000          48.000
 118529916.39547  92360995.02347  22555491.418    22555491.447    22555496.880
        44.000          42.000
 127177308.18146  99099207.76843  24201036.800    24201037.079    24201040.203
        38.000          19.000
 105029466.482 8  81689592.636 8  19620385.115    19620385.246    19620388.066
        52.000          48.000
 20  5  5  0 30  0.0000000  0 10G 3G 4G22G 7G16R 4G26G 9G31R 3
 114829984.75347  89477913.60047  21851415.776    21851416.183    21851421.605
        46.000          47.000
 108311299.25848  84398435.49546  20610951.869    20610952.099    20610956.092
        48.000          41.000
 123953673.95347  96587281.32144  23587592.900    23587591.465    23587592.456
        42.000          26.000
 131801689.92645 102702612.12744  25081026.575    25081026.294    25081029.936
        35.000          27.000
 108302229.07848  84391366.50746  20609229.315    20609228.826    20609232.084
        48.000          40.000
 107923398.669 8  83940418.295 7  20153927.709    20153928.908    20153931.265
        50.000          46.000
 112741343.80747  87850407.32947  21453962.876    21453962.673    21453969.342
        46.000          47.000
 118520356.92647  92353546.09147  22553672.489    22553672.434    22553677.723
        44.000          42.000
 127345935.65446  99230605.72843  24233125.859    24233125.537    24233128.537
        38.000          18.000
 105155206.323 8  81787390.270 8  19643874.531    19643874.267    19643877.506
        52.000          48.000
 20  5  5  0 30 30.0000000  0 10G 3G 4G22G 7G16R 4G26G 9G31R 3
 114982533.39547  89596782.64747  21880444.881    21880445.292    21880450.688
        46.000          47.000
 108352986.68448  84430919.19346  20618884.740    20618885.036    20618888.937
        48.000          41.000
 124127426.37047  96722672.78944  23620656.597    23620655.642    23620656.910
        42.000          26.000
 131793581.26645 102696293.66244  25079483.962    25079483.356    25079486.486
        35.000          27.000
 108349402.11048  84428124.70846  20618206.084    20618205.607    20618208.838
        48.000          40.000
 107927763.424 8  83943813.094 7  20154742.883    20154743.864    20154746.087
        50.000          47.000
 112867344.64647  87948589.78447  21477939.778    21477940.013    21477946.555
        46.000          47.000
 118510941.41347  92346209.32647  22551880.777    22551880.544    22551885.976
        43.000          42.000
 127514551.42346  99361994.62443  24265212.718    24265212.103    24265215.361
        37.000          18.000
 105281599.175 8  81885695.806 8  19667485.669    19667485.482    19667488.528
        52.000          48.000
 20  5  5  0 31  0.0000000  0 10G 3G 4G22G 7G16R 4G26G 9G31R 3
 113560068.97747  88488368.79447  21609758.986    21609759.366    21609764.892
        46.000          46.000
 106819593.20648  83236067.11846  20327089.853    20327090.039    20327093.887
        48.000          41.000
 122725914.01247  95630585.19544  23353957.214    23353956.065    23353957.731
        42.000          26.000
 130210123.36646 101462430.34244  24778161.155    24778160.663    24778165.135
        36.000          27.000
 106821804.73548  83237789.09046  20327514.133    20327513.452    20327516.633
        48.000          40.000
 106327275.886 8  82698989.442 7  19855863.649    19855864.188    19855866.534
        51.000          47.000
 111418428.85947  86819564.47747  21202220.686    21202220.235    21202226.942
        46.000          47.000
 116926257.28447  91111390.52447  22250325.564    22250325.088    22250330.571
        43.000          43.000
 126107746.14446  98265782.64142  23997505.529    23997505.685    23997508.955
        37.000          17.000
 103803842.003 8  80736329.099 8  19391428.285    19391428.069    19391431.174
        52.000          48.000
 20  5  5  0 31 30.0000000  0 10G 3G 4G22G 7G16R 4G26G 9G31R 3
 113713420.31647  88607863.32047  21638940.769    21638941.042    21638946.695
        46.000          46.000
 106861958.94548  83269079.36347  20335151.875    20335151.918    20335155.863
        49.000          42.000
 122899963.61347  95766208.22144  23387078.224    23387076.848    23387078.420
        42.000          26.000
 130202158.20246 101456223.70044  24776645.706    24776645.280    24776649.327
        36.000          27.000
 106870276.10048  83275558.98146  20336737.607    20336737.106    20336740.440
        48.000          40.000
 106332690.838 8  82703201.056 7  19856874.807    19856875.626    19856877.793
        51.000          47.000
 111545427.46647  86918524.41847  21226387.418    21226387.460    21226393.982
        46.000          46.000
 116917148.40147  91104292.69047  22248592.007    22248591.759    22248597.101
        43.000          42.000
 126276349.23746  98397161.64043  24029589.427    24029589.363    24029593.697
        36.000          18.000
 103931552.021 8  80835659.090 8  19415285.743    19415285.430    19415288.468
        51.000          48.000
 20  5  5  0 32  0.0000000  0 10G 3G 4G22G 7G16R 4G26G 9G31R 3
 113867171.33447  88727669.28347  21668198.744    21668198.778    21668204.605
        45.000          46.000
 106904668.12748  83302359.23046  20343278.846    20343279.172    20343283.128
        48.000          41.000
 123074160.57647  95901946.08644  23420226.351    23420225.333    23420227.654
        42.000          25.000
 130194268.03546 101450075.48044  24775144.066    24775143.927    24775148.306
        36.000          28.000
 106919400.16848  83313837.47446  20346085.649    20346085.280    20346088.461
        48.000          40.000
 106338638.143 8  82707826.730 7  19857985.142    19857985.991    19857988.137
        50.000          47.000
 111672923.94147  87017872.30847  21250649.447    21250649.405    21250655.843
        46.000          46.000
 116908197.53347  91097317.99047  22246888.291    22246888.799    22246893.793
        43.000          42.000
 126444946.62346  98528536.19942  24061673.173    24061673.591    24061676.143
        36.000          17.000
 104059921.330 8  80935501.867 8  19439266.038    19439265.895    19439268.947
        51.000          48.000
 20  5  5  0 32 30.0000000  0 10G 3G 4G22G 7G16R 4G26G 9G31R 3
 114021316.35147  88847782.25747  21697531.143    21697531.487    21697537.437
        46.000          45.000
 106947719.04447  83335905.38346  20351471.359    20351471.515    20351475.570
        47.000          41.000
 123248498.62646  96037793.88944  23453402.527    23453401.338    23453401.901
        41.000          25.000
 130186449.02646 101443982.72944  24773656.184    24773656.806    24773660.529
        37.000          29.000
 106969174.42847  83352622.60546  20355557.284    20355556.990    20355560.215
        47.000          40.000
 106345118.244 8  82712866.795 7  19859195.318    19859196.449    19859198.280
        51.000          47.000
 111800913.08047  87117604.08547  21275004.661    21275004.699    21275011.481
        46.000          46.000
 116899403.31647  91090465.35247  22245215.416    22245215.430    22245220.298
        44.000          43.000
 126613534.11246  98659903.00743  24093754.053    24093755.148    24093757.853
        36.000          18.000
 104188945.716 8  81035854.147 8  19463368.622    19463368.692    19463371.836
        52.000          49.000
 20  5  5  0 33  0.0000000  0 10G 3G 4G22G 7G16R 4G26G 9G31R 3
 114175864.74647  88968209.56047  21726940.651    21726940.997    21726946.946
        46.000          45.000
 106991125.03748  83369728.22146  20359731.201    20359731.400    20359735.430
        48.000          41.000
 123422986.89046  96173758.75444  23486606.077    23486605.479    23486606.945
        41.000          25.000
 130178714.08546 101437955.48544  24772185.602    24772184.732    24772188.504
        37.000          28.000
 107019611.37148  83391924.11846  20365155.298    20365154.729    20365158.053
        48.000          40.000
 106352146.455 8  82718333.166 7  19860508.330    19860508.720    19860510.552
        51.000          47.000
 111929404.69947  87217727.40547  21299456.172    21299455.871    21299462.597
        46.000          46.000
 116890779.43647  91083745.44247  22243574.442    22243574.361    22243579.363
        44.000          43.000
 126782122.95046  98791270.87842  24125835.957    24125835.617    24125839.440
        36.000          17.000
 104318636.520 8  81136724.750 8  19487596.125    19487596.216    19487599.077
        52.000          48.000
 20  5  5  0 33 30.0000000  0 10G 3G 4G22G 7G16R 4G26G 9G31R 3
 114330805.91647  89088942.90047  21756424.917    21756425.396    21756431.206
        45.000          45.000
 107034879.52748  83403822.61446  20368057.465    20368057.616    20368061.520
        48.000          41.000
 123597615.17746  96309832.70044  23519836.708    23519835.070    23519838.233
        41.000          25.000
 130171055.55646 101431987.77844  24770727.369    24770727.445    24770731.019
        36.000          28.000
 107070703.82747  83431736.42146  20374877.921    20374877.375    20374880.572
        47.000          40.000
 106359718.414 8  82724222.465 7  19861921.741    19861922.574    19861924.590
        51.000          46.000
 112058388.67247  87318234.38647  21324001.316    21324000.907    21324007.278
        46.000          46.000
 116882319.63347  91077153.38447  22241964.373    22241964.481    22241969.545
        44.000          43.000
 126950703.96345  98922632.63942  24157915.749    24157915.343    24157918.050
        35.000          17.000
 104448984.286 8  81238106.327 8  19511946.515    19511946.321    19511949.347
        52.000          48.000
 20  5  5  0 34  0.0000000  0 10G 3G 4G22G 7G16R 4G26G 9G31R 3
 114486129.98347  89209974.62047  21785982.466    21785982.582    21785988.424
        46.000          46.000
 107078976.59648  83438183.95047  20376448.852    20376448.959    20376452.971
        48.000          42.000
 123772373.47546  96446007.95844  23553092.058    23553090.812    23553093.290
        41.000          25.000
 130163466.12546 101426073.91644  24769283.135    24769283.278    24769287.363
        36.000          28.000
 107122445.01548  83472054.22246  20384723.743    20384723.293    20384726.600
        48.000          40.000
 106367829.977 8  82730531.448 7  19863436.642    19863437.536    19863439.417
        50.000          47.000
 112187855.53947  87419117.64147  21348637.534    21348637.473    21348644.197
        46.000          46.000
 116874018.40247  91070684.88247  22240384.572    22240384.661    22240389.739
        44.000          43.000
 127119269.02245  99053981.98342  24189992.743    24189993.025    24189995.455
        35.000          17.000
 104579980.773 8  81339992.462 8  19536417.710    19536417.434    19536420.611
        52.000          49.000
 20  5  5  0 34 30.0000000  0 10G 3G 4G22G 7G16R 4G26G 9G31R 3
 114641843.33747  89331309.67247  21815613.386    21815613.933    21815619.757
        46.000          45.000
 107123426.66548  83472820.35546  20384907.521    20384907.525    20384911.529
        49.000          41.000
 123947267.94146  96582289.34344  23586373.075    23586371.721    23586374.562
        41.000          25.000
 130155955.15746 101420221.17644  24767854.051    24767854.362    24767858.080
        37.000          29.000
 107174844.41348  83512884.92046  20394695.150    20394694.726    20394698.060
        48.000          40.000
 106376493.590 8  82737269.800 7  19865054.463    19865055.411    19865057.438
        50.000          47.000
 112317812.10747  87520382.48147  21373367.517    21373367.230    21373373.981
        45.000          46.000
 116865886.41647  91064348.25947  22238837.047    22238836.949    22238842.260
        43.000          43.000
 127287826.09446  99185325.09042  24222067.891    24222069.883    24222072.041
        36.000          17.000
 104711633.999 8  81442389.394 8  19561011.838    19561011.473    19561014.677
        52.000          49.000
 20  5  5  0 35  0.0000000  0 10G 3G 4G22G 7G16R 4G26G 9G31R 3
 114797944.19247  89452946.68247  21845319.037    21845318.955    21845324.890
        45.000          46.000
 107168231.95448  83507733.55846  20393433.541    20393433.732    20393437.771
        48.000          41.000
 124122296.79046  96718675.41244  23619680.390    23619679.249    23619680.824
        41.000          24.000
 130148523.55046 101414430.29644  24766439.732    24766439.861    24766444.113
        36.000          28.000
 107227903.44348  83554229.62146  20404792.121    20404791.506    20404794.792
        48.000          41.000
 106385713.646 8  82744440.946 7  19866776.211    19866777.267    19866779.274
        50.000          47.000
 112448257.09247  87622027.91447  21398190.458    21398190.184    21398196.935
        45.000          46.000
 116857926.33047  91058145.59547  22237322.153    22237322.123    22237327.645
        44.000          43.000
 127456375.30845  99316662.11142  24254142.087    24254141.665    24254144.931
        35.000          16.000
 104843943.525 8  81545296.788 8  19585728.080    19585728.101    19585731.073
        52.000          49.000
 20  5  5  0 35 30.0000000  0 10G 3G 4G22G 7G16R 4G26G 9G31R 3
 114954419.89847  89574875.77347  21875095.005    21875095.267    21875101.190
        45.000          45.000
 107213383.78248  83542916.79046  20402025.741    20402026.016    20402029.729
        49.000          41.000
 124297447.38646  96855156.34344  23653010.333    23653009.147    23653010.809
        40.000          24.000
 130141161.56646 101408693.66644  24765038.962    24765039.246    24765042.787
        37.000          29.000
 107281612.85548  83596081.10546  20415012.514    20415012.081    20415015.435
        49.000          40.000
 106395483.284 8  82752039.542 7  19868600.616    19868601.595    19868603.761
        50.000          47.000
 112579178.18747  87724044.33647  21423104.173    21423103.941    21423110.315
        46.000          46.000
 116850129.84447  91052070.40647  22235838.541    22235838.408    22235844.056
        44.000          43.000
 127624905.50846  99447984.25642  24286212.613    24286212.589    24286216.172
        36.000          16.000
 104976898.037 8  81648705.834 8  19610564.997    19610565.062    19610568.044
        52.000          48.000
 20  5  5  0 36  0.0000000  0 10G 3G 4G22G 7G16R 4G26G 9G31R 3
 115111277.07047  89697102.11347  21904944.176    21904944.210    21904950.263
        46.000          46.000
 107258892.84148  83578378.38147  20410686.023    20410685.927    20410689.716
        49.000          42.000
 124472726.28846  96991737.27944  23686364.483    23686363.128    23686365.938
        39.000          24.000
 130133878.81246 101403018.77644  24763653.559    24763653.547    24763656.877
        37.000          29.000
 107335982.19748  83638446.82546  20425358.748    20425358.153    20425361.554
        48.000          41.000
 106405815.411 8  82760075.630 7  19870530.186    19870531.252    19870533.212
        50.000          47.000
 112710582.52847  87826437.31647  21448109.268    21448109.120    21448115.688
        46.000          46.000
 116842508.02447  91046131.32047  22234388.412    22234388.100    22234393.577
        44.000          43.000
 127793425.22446  99579298.28243  24318281.629    24318281.304    24318283.252
        36.000          18.000
 105110505.876 8  81752623.017 8  19635524.265    19635524.393    19635527.196
        52.000          48.000
 20  5  5  0 36 30.0000000  0 10G 3G 4G22G 7G16R 4G26G 9G31R 3
 115268513.03347  89819623.61947  21934864.999    21934865.443    21934871.282
        45.000          45.000
 107304760.49647  83614119.39947  20419413.974    20419414.297    20419418.200
        47.000          42.000
 124648130.80146  97128416.07444  23719742.449    23719741.405    23719745.098
        40.000          24.000
 130126675.68846 101397405.94444  24762283.600    24762282.559    24762286.048
        37.000          29.000
 107391011.87447  83681327.08846  20435830.485    20435829.952    20435833.294
        47.000          41.000
 106416713.363 8  82768551.798 7  19872564.961    19872565.892    19872568.236
        50.000          47.000
 112842467.83947  87929205.07447  21473206.262    21473205.925    21473212.583
        45.000          46.000
 116835062.60547  91040329.69847  22232971.339    22232971.174    22232976.621
        43.000          43.000
 127961933.25946  99710603.13042  24350346.475    24350346.775    24350350.529
        36.000          17.000
 105244765.837 8  81857047.418 8  19660605.254    19660605.092    19660608.019
        52.000          48.000
 20  5  5  0 37  0.0000000  0 10G 3G 4G22G 7G16R 4G26G 9G31R 3
 115426123.73047  89942437.11747  21964857.283    21964857.847    21964863.569
        46.000          45.000
 107350986.66848  83650139.77647  20428210.961    20428210.993    20428214.833
        49.000          42.000
 124823656.96246  97265189.67543  23753144.026    23753143.021    23753145.872
        38.000          23.000
 130119550.78546 101391854.08644  24760926.534    24760926.655    24760930.569
        37.000          29.000
 107446700.97648  83724721.19146  20446427.697    20446427.251    20446430.617
        49.000          40.000
 106428178.900 8  82777469.421 7  19874706.155    19874707.010    19874709.256
        50.000          47.000
 112974830.49147  88032344.78447  21498394.024    21498393.837    21498400.294
        45.000          46.000
 116827793.99047  91034665.84047  22231588.133    22231588.006    22231593.436
        43.000          43.000
 128130427.51445  99841897.29242  24382409.651    24382408.619    24382415.680
        35.000          15.000
 105379674.930 8  81961976.685 8  19685807.298    19685807.149    19685810.235
        52.000          48.000
 20  5  5  0 37 30.0000000  0 10G 3G 4G22G 7G16R 4G26G 9G31R 3
 115584109.69247  90065543.04147  21994921.303    21994921.681    21994927.302
        45.000          45.000
 107397575.96148  83686443.10547  20437076.372    20437076.519    20437080.529
        49.000          42.000
 124999305.31746  97402058.47643  23786568.562    23786567.603    23786570.960
        39.000          23.000
 130112507.40546 101386365.75844  24759585.721    24759586.048    24759590.665
        37.000          29.000
 107503052.96748  83768631.82746  20457151.253    20457150.739    20457154.128
        48.000          41.000
 106440218.710 8  82786833.709 7  19876954.265    19876955.294    19876957.802
        50.000          47.000
 113107671.45947  88135857.21347  21523673.005    21523672.931    21523679.317
        46.000          45.000
 116820707.15347  91029143.63047  22230240.012    22230239.803    22230244.961
        44.000          43.000
 128298910.44945  99973182.66942  24414470.465    24414470.150    24414472.642
        34.000          15.000
 105515235.222 8  82067412.448 8  19711131.246    19711131.024    19711134.081
        52.000          48.000
 20  5  5  0 38  0.0000000  0 10G 3G 4G22G 7G16R 4G26G 9G31R 3
 115742463.22647  90188935.37947  22025054.879    22025055.350    22025061.150
        45.000          45.000
 107444524.74348  83723026.55347  20446010.521    20446010.537    20446014.609
        49.000          42.000
 125175068.08846  97539016.44843  23820016.010    23820013.888    23820017.152
        40.000          23.000
 130105540.96546 101380937.31444  24758259.339    24758260.518    24758264.462
        37.000          29.000
 107560063.39048  83813055.53246  20468000.074    20467999.419    20468002.724
        48.000          40.000
 106452831.045 8  82796643.283 8  19879309.731    19879310.842    19879313.137
        50.000          48.000
 113240983.45147  88239736.66647  21549041.478    21549041.574    21549047.649
        46.000          46.000
 116813798.90547  91023760.58247  22228925.349    22228925.243    22228930.381
        44.000          44.000
 128467375.92945 100104454.39842  24446528.245    24446528.965    24446531.640
        35.000          14.000
 105651440.393 8  82173349.782 8  19736575.366    19736575.372    19736578.449
        52.000          48.000
 20  5  5  0 38 30.0000000  0 10G 3G 4G22G 7G16R 4G26G 9G31R 3
 115901186.22147  90312615.60647  22055259.158    22055259.338    22055264.921
        45.000          44.000
 107491838.88048  83759894.69547  20455013.878    20455014.048    20455018.186
        48.000          42.000
 125350947.53446  97676065.33443  23853484.422    23853482.776    23853485.829
        39.000          22.000
 130098656.55646 101375572.82444  24756949.691    24756950.472    24756954.760
        37.000          29.000
 107617736.98547  83857995.99546  20478974.847    20478974.373    20478977.664
        47.000          41.000
 106466024.050 8  82806904.498 8  19881773.975    19881774.578    19881776.819
        50.000          48.000
 113374768.75647  88343984.94447  21574499.697    21574499.747    21574506.316
        45.000          45.000
 116807075.54847  91018521.60347  22227645.963    22227645.910    22227651.029
        45.000          44.000
 128635827.64645 100235715.45942  24478584.585    24478582.890    24478587.318
        34.000          14.000
 105788293.724 8  82279791.244 8  19762140.500    19762140.546    19762143.703
        52.000          48.000
 20  5  5  0 39  0.0000000  0 10G 3G 4G22G 7G16R 4G26G 9G31R 3
 116060273.23347  90436579.48647  22085532.415    22085532.609    22085538.125
        45.000          45.000
 107539517.08548  83797046.52547  20464086.857    20464086.909    20464091.122
        48.000          42.000
 125526937.78046  97813200.55643  23886974.472    23886973.566    23886976.183
        40.000          22.000
 130091851.39346 101370270.09044  24755655.075    24755655.326    24755659.166
        37.000          29.000
 107676071.34948  83903451.33446  20490075.253    20490074.807    20490078.387
        48.000          40.000
 106479797.856 8  82817617.449 8  19884345.938    19884346.620    19884348.906
        50.000          48.000
 113509022.41347  88448598.16347  21600047.626    21600047.437    21600054.166
        46.000          46.000
 116800536.23747  91013426.03447  22226401.711    22226401.404    22226406.644
        44.000          44.000
 128804262.13845 100366963.02542  24510635.777    24510637.561    24510639.679
        34.000          13.000
 105925791.015 8  82386733.561 8  19787826.055    19787826.039    19787829.305
        52.000          48.000
 20  5  5  0 39 30.0000000  0 10G 3G 4G22G 7G16R 4G26G 9G31R 3
 116219723.55047  90560826.46147  22115874.668    22115875.129    22115880.646
        45.000          45.000
 107587562.69648  83834484.64947  20473229.790    20473229.752    20473233.971
        48.000          42.000
 125703038.38746  97950421.76343  23920484.784    23920484.131    23920486.538
        39.000          22.000
 130085127.67046 101365030.80844  24754375.454    24754375.800    24754380.250
        38.000          29.000
 107735068.67848  83949423.27546  20501302.274    20501301.670    20501305.006
        48.000          40.000
 106494158.171 8  82828786.566 8  19887027.839    19887028.617    19887030.846
        50.000          48.000
 113643744.10347  88553576.08647  21625684.213    21625684.100    21625690.810
        46.000          46.000
 116794184.74947  91008476.81747  22225193.034    22225192.729    22225198.120
        45.000          44.000
 128972680.69845 100498198.24442  24542686.000    24542685.641    24542690.031
        35.000          13.000
 106063933.050 8  82494177.340 8  19813632.703    19813632.311    19813635.560
        52.000          48.000
 20  5  5  0 40  0.0000000  0 10G 3G 4G22G 7G16R 4G26G 9G31R 3
 116379529.82247  90685350.81147  22146284.892    22146285.161    22146290.768
        45.000          45.000
 107635972.41648  83872206.48747  20482441.930    20482442.006    20482445.887
        48.000          42.000
 125879242.49346  98087723.62243  23954015.312    23954014.788    23954017.421
        39.000          22.000
 130078481.01246 101359851.60045  24753111.587    24753110.942    24753115.193
        37.000          30.000
 107794724.81348  83995908.57446  20512654.379    20512653.897    20512657.310
        48.000          40.000
 106509103.295 8  82840410.541 7  19889818.689    19889819.594    19889821.492
        51.000          47.000
 113778926.86647  88658913.29147  21651408.880    21651408.755    21651415.070
        46.000          45.000
 116788018.26147  91003671.75647  22224019.502    22224019.468    22224024.821
        45.000          45.000
 129141077.51945 100629416.52642  24574731.396    24574730.651    24574734.097
        35.000          12.000
 106202713.458 8  82602117.639 8  19839558.175    19839558.086    19839560.956
        52.000          48.000
 20  5  5  0 40 30.0000000  0 10G 3G 4G22G 7G16R 4G26G 9G31R 3
 116539694.22247  90810154.20947  22176763.255    22176763.417    22176769.052
        45.000          44.000
 107684752.44248  83910216.89047  20491724.421    20491724.556    20491728.363
        49.000          42.000
 126055551.77646  98225107.44043  23987567.079    23987566.567    23987568.148
        40.000          22.000
 130071916.78746 101354736.57945  24751861.705    24751861.756    24751865.915
        37.000          30.000
 107855044.86448  84042911.20446  20524133.135    20524132.402    20524135.866
        48.000          40.000
 106524641.489 8  82852495.790 8  19892719.995    19892720.939    19892723.187
        50.000          48.000
 113914573.30747  88764611.79747  21677221.311    21677221.027    21677227.774
        46.000          45.000
 116782043.48947  90999016.08547  22222882.781    22222882.572    22222887.951
        45.000          45.000
 129309456.69845 100760620.99542  24606772.737    24606771.765    24606772.887
        33.000          12.000
 106342135.903 8  82710557.296 8  19865603.395    19865603.022    19865606.255
        52.000          48.000
 20  5  5  0 41  0.0000000  0 11G 3G 4G22R 5G 7G16R 4G26G 9G31R 3
 116700199.22647  90935223.01247  22207306.141    22207306.427    22207312.206
        44.000          44.000
 107733889.39348  83948505.40247  20501074.919    20501074.886    20501078.875
        49.000          42.000
 126231948.99046  98362559.78343  24021133.866    24021132.862    24021135.043
        40.000          22.000
 127070407.243 6  98832545.014 5  23771152.624    23771152.071    23771157.478
        41.000          32.000
 130065419.78346 101349673.96545  24750625.753    24750625.416    24750629.851
        37.000          30.000
 107916014.07048  84090419.67446  20535734.866    20535734.648    20535737.907
        48.000          40.000
 106540760.913 8  82865033.110 7  19895730.515    19895731.244    19895733.276
        50.000          47.000
 114050666.28747  88870658.25947  21703118.922    21703118.884    21703125.509
        45.000          46.000
 116776247.45647  90994499.69047  22221779.451    22221779.537    22221784.970
        45.000          44.000
 129477802.65645 100891799.66241  24638806.301    24638807.127    24638807.716
        33.000          10.000
 106482183.682 8  82819483.326 8  19891765.106    19891765.154    19891768.356
        51.000          48.000
 20  5  5  0 41 30.0000000  0 11G 3G 4G22R 5G 7G16R 4G26G 9G31R 3
 116861050.69347  91060561.79647  22237915.062    22237915.374    22237921.211
        45.000          44.000
 107783393.21248  83987079.79347  20510495.186    20510495.079    20510499.073
        49.000          42.000
 126408440.30246  98500085.43743  24054719.230    24054718.383    24054719.959
        40.000          22.000
 127019945.610 6  98793297.065 5  23761711.763    23761712.413    23761717.113
        41.000          33.000
 130058999.83546 101344671.43145  24749403.872    24749404.474    24749407.779
        38.000          30.000
 107977641.14748  84138440.77146  20547462.323    20547461.855    20547465.339
        48.000          40.000
 106557473.659 8  82878031.899 7  19898851.459    19898852.330    19898854.402
        50.000          47.000
 114187212.16147  88977057.62447  21729102.926    21729102.672    21729109.349
        45.000          46.000
 116770640.65947  90990130.74847  22220712.633    22220712.512    22220717.865
        44.000          45.000
 129646123.21745 101022958.47341  24670838.665    24670838.770    24670840.463
        32.000           9.000
 106622864.196 8  82928901.476 7  19918045.538    19918045.454    19918048.754
        51.000          47.000
 20  5  5  0 42  0.0000000  0 11G 3G 4G22R 5G 7G16R 4G26G 9G31R 3
 115446835.90647  89958576.21847  21968798.724    21968799.330    21968805.235
        44.000          44.000
 106257851.52448  82798345.99847  20220193.982    20220194.101    20220198.158
        48.000          42.000
 125009613.42546  97410090.41043  23788531.173    23788529.830    23788532.673
        40.000          22.000
 125366985.869 6  97507661.691 5  23452492.541    23452490.612    23452496.856
        41.000          33.000
 128477241.01946 100112132.07945  24448405.308    24448405.961    24448408.987
        38.000          31.000
 106464513.06648  82959379.93046  20259523.561    20259523.007    20259526.649
        48.000          40.000
 104969413.245 8  81642873.789 8  19602291.818    19602293.234    19602295.468
        50.000          48.000
 112748797.76147  87856215.21347  21455381.653    21455381.489    21455388.038
        45.000          45.000
 115189809.39747  89758314.17247  21919890.318    21919890.277    21919895.532
        44.000          45.000
 128239007.91145  99926504.90241  24403072.017    24403073.288    24403073.429
        33.000          11.000
 105159372.743 8  81790630.323 8  19644652.886    19644652.798    19644656.205
        52.000          48.000
 20  5  5  0 42 30.0000000  0 11G 3G 4G22R 5G 7G16R 4G26G 9G31R 3
 115608381.39947  90084455.80247  21999540.018    21999540.433    21999546.422
        45.000          44.000
 106308102.40148  82837502.50847  20229756.656    20229756.594    20229760.639
        49.000          42.000
 125186293.81946  97547763.39943  23822153.030    23822150.975    23822153.206
        40.000          22.000
 125316659.727 6  97468519.118 5  23443078.593    23443077.002    23443081.834
        41.000          31.000
 128470983.73346 100107256.27145  24447215.154    24447215.130    24447217.945
        38.000          30.000
 106527465.75848  83008433.97046  20271503.242    20271502.303    20271506.102
        48.000          40.000
 104987331.764 8  81656810.404 8  19605638.456    19605639.092    19605641.781
        50.000          48.000
 112886251.64147  87963322.11747  21481538.128    21481538.068    21481544.691
        46.000          45.000
 115184595.91247  89754251.71447  21918898.288    21918898.163    21918903.365
        45.000          45.000
 128407284.59445 100057629.53941  24435095.697    24435095.991    24435097.060
        31.000           9.000
 105301323.205 8  81901036.219 8  19671170.515    19671170.552    19671173.719
        52.000          48.000
 20  5  5  0 43  0.0000000  0 11G 3G 4G22R 5G 7G16R 4G26G 9G31R 3
 115770263.09747  90210597.35547  22030344.981    22030345.508    22030351.407
        44.000          44.000
 106358722.16248  82876946.45947  20239389.218    20239389.316    20239393.303
        50.000          42.000
 125363058.39846  97685501.97343  23855789.390    23855788.644    23855790.516
        40.000          23.000
 125266399.480 6  97429427.821 5  23433677.330    23433675.332    23433680.715
        41.000          34.000
 128464801.42046 100102438.88245  24446038.166    24446038.448    24446041.612
        38.000          30.000
 106591074.99747  83057999.60946  20283607.296    20283606.974    20283610.505
        47.000          40.000
 105005851.147 8  81671214.363 7  19609096.423    19609097.356    19609099.907
        49.000          47.000
 113024149.32647  88070774.84647  21507779.347    21507779.193    21507785.766
        45.000          45.000
 115179575.19947  89750339.45747  21917942.763    21917942.720    21917947.882
        45.000          44.000
 128575531.41344 100188730.91841  24467109.015    24467109.471    24467114.603
        29.000           8.000
 105443899.955 8  82011929.229 8  19697805.157    19697805.133    19697808.317
        52.000          48.000
 20  5  5  0 43 30.0000000  0 11G 3G 4G22R 5G 7G16R 4G26G 9G31R 3
 115932472.53347  90336994.29747  22061212.410    22061212.827    22061219.028
        45.000          44.000
 106409706.39248  82916674.41247  20249091.099    20249091.327    20249095.421
        50.000          43.000
 125539898.40746  97823299.35043  23889441.490    23889440.720    23889442.053
        40.000          22.000
 125216202.466 6  97390385.689 5  23424285.775    23424284.231    23424289.731
        41.000          34.000
 128458688.96046 100097675.92045  24444875.100    24444875.258    24444878.554
        38.000          30.000
 106655334.82847  83108072.20646  20295835.789    20295835.130    20295838.725
        47.000          40.000
 105024968.797 8  81686083.632 8  19612666.742    19612667.730    19612670.112
        50.000          48.000
 113162482.75247  88178567.10747  21534103.369    21534103.245    21534109.832
        46.000          45.000
 115174743.42847  89746574.44147  21917023.315    21917023.358    21917028.298
        45.000          45.000
 128743741.88445 100319803.92341  24499119.453    24499122.939    24499121.340
        30.000           6.000
 105587094.900 8  82123303.054 8  19724555.279    19724555.050    19724558.357
        52.000          48.000
 20  5  5  0 44  0.0000000  0 11G 3G 4G22R 5G 7G16R 4G26G 9G31R 3
 116095017.30447  90463652.52747  22092143.936    22092143.967    22092150.147
        44.000          44.000
 106461066.81948  82956695.51147  20258864.883    20258864.831    20258869.076
        49.000          43.000
 125716821.89146  97961161.74043  23923109.058    23923108.342    23923110.369
        40.000          22.000
 125166082.437 6  97351403.457 5  23414908.670    23414906.898    23414914.180
        40.000          30.000
 128452656.57946 100092975.36145  24443728.269    24443727.217    24443730.275
        38.000          30.000
 106720255.30748  83158659.58546  20308189.744    20308189.242    20308192.512
        48.000          40.000
 105044698.392 8  81701428.866 8  19616351.068    19616351.951    19616354.318
        50.000          48.000
 113301259.92947  88286705.15747  21560511.714    21560511.611    21560518.274
        45.000          45.000
 115170112.84047  89742966.18247  21916142.327    21916142.430    21916147.131
        44.000          45.000
 128911925.51144 100450856.0104   24531124.971    24531125.391    24531127.820
        29.000           5.000
 105730917.211 8  82235164.826 7  19751422.391    19751422.382    19751425.661
        52.000          47.000
 20  5  5  0 44 30.0000000  0 11G 3G 4G22R 5G 7G16R 4G26G 9G31R 3
 116257891.18047  90590567.20047  22123137.556    22123137.719    22123144.096
        43.000          43.000
 106512801.26448  82997008.05047  20268709.644    20268709.557    20268713.784
        49.000          43.000
 125893822.59546  98099084.32843  23956791.145    23956790.100    23956792.759
        39.000          22.000
 125116039.092 6  97312480.892 5  23405545.735    23405544.134    23405553.108
        38.000          35.000
 128446701.52646 100088335.04545  24442593.056    24442593.675    24442597.007
        37.000          30.000
 106785833.28348  83209759.30446  20320669.012    20320668.263    20320671.609
        48.000          40.000
 105065039.594 8  81717249.786 8  19620149.858    19620150.502    19620153.011
        50.000          48.000
 113440474.99047  88395184.41147  21587003.565    21587003.412    21587010.156
        46.000          45.000
 115165681.84147  89739513.44647  21915299.394    21915299.283    21915303.972
        45.000          45.000
 129080078.14644 100581884.0534   24563122.038    24563119.803    24563128.275
        27.000           4.000
 105875361.823 8  82347510.615 8  19778406.082    19778405.726    19778409.018
        52.000          48.000
 20  5  5  0 45  0.0000000  0 11G 3G 4G22R 5G 7G16R 4G26G 9G31R 3
 116421093.94147  90717738.16247  22154194.069    22154194.260    22154200.720
        44.000          43.000
 106564913.66348  83037615.08947  20278626.305    20278626.333    20278630.373
        49.000          43.000
 126070900.49746  98237067.06543  23990487.799    23990487.351    23990487.944
        39.000          22.000
 125066078.529 6  97273622.650 4  23396201.024    23396199.498    23396206.226
        40.000          27.000
 128440826.50146 100083757.08845  24441476.116    24441475.482    24441479.111
        38.000          30.000
 106852071.20848  83261373.27246  20333273.613    20333272.957    20333276.414
        48.000          40.000
 105085997.925 8  81733550.697 8  19624063.299    19624064.401    19624066.864
        50.000          48.000
 113580128.15147  88504005.04547  21613578.507    21613578.546    21613585.184
        45.000          45.000
 115161454.90847  89736219.72547  21914494.827    21914494.789    21914499.824
        45.000          45.000
 129248201.67144 100712889.3144   24595116.568    24595115.058    24595121.590
        28.000           4.000
 106020429.489 8  82460340.999 8  19805505.793    19805505.870    19805509.012
        52.000          48.000
 20  5  5  0 45 30.0000000  0 11G 3G 4G22R 5G 7G16R 4G26G 9G31R 3
 116584622.24047  90845162.78247  22185312.595    22185312.685    22185319.038
        44.000          43.000
 106617404.77248  83078517.23847  20288614.807    20288615.075    20288619.074
        48.000          43.000
 126248052.50746  98375107.54443  24024198.881    24024198.574    24024200.135
        40.000          21.000
 125016203.134 6  97234830.702 5  23386869.115    23386868.665    23386875.613
        39.000          35.000
 128435030.51846 100079240.72145  24440373.983    24440372.917    24440376.295
        37.000          30.000
 106918968.61248  83313501.11746  20346003.654    20346003.090    20346006.382
        48.000          40.000
 105107576.174 8  81750333.770 8  19628093.089    19628094.060    19628096.210
        50.000          48.000
 113720216.45247  88613164.75447  21640235.896    21640236.305    21640242.897
        45.000          45.000
 115157433.43147  89733086.10247  21913729.570    21913729.351    21913734.649
        45.000          45.000
 129416294.66944 100843870.82441  24627103.387    24627105.236    24627101.084
        29.000           6.000
 106166117.914 8  82573654.190 8  19832721.822    19832721.736    19832724.893
        51.000          48.000
 20  5  5  0 46  0.0000000  0 11G 3G 4G22R 5G 7G16R 4G26G 9G31R 3
 116748475.69247  90972840.76547  22216492.788    22216492.971    22216499.315
        44.000          43.000
 106670278.24548  83119717.33547  20298676.595    20298676.475    20298680.593
        49.000          43.000
 126425278.49146  98513205.66943  24057924.512    24057923.548    24057925.325
        40.000          21.000
 124966418.771 6  97196109.538 5  23377554.236    23377555.318    23377562.447
        41.000          35.000
 128429316.54246 100074788.25145  24439285.816    24439285.258    24439288.623
        37.000          30.000
 106986527.99748  83366144.78946  20358859.756    20358859.209    20358862.558
        48.000          40.000
 105129779.706 8  81767603.171 8  19632239.702    19632240.418    19632242.772
        51.000          48.000
 113860739.87347  88722663.50847  21666977.271    21666977.086    21666983.833
        45.000          45.000
 115153621.60647  89730115.84747  21913004.166    21913003.887    21913009.348
        45.000          45.000
 129584358.73744                  24659081.272
        28.000
 106312427.779 8  82687450.729 7  19860053.554    19860053.180    19860056.813
        51.000          47.000
 20  5  5  0 46 30.0000000  0 11G 3G 4G22R 5G 7G16R 4G26G 9G31R 3
 116912651.07147  91100769.60747  22247734.468    22247734.806    22247740.869
        44.000          43.000
 106723535.04548  83161216.12547  20308810.900    20308811.069    20308814.987
        49.000          43.000
 126602575.32246  98651358.98843  24091663.282    24091661.427    24091663.442
        39.000          21.000
 124916728.404 6  97157461.473 5  23368261.535    23368261.113    23368267.952
        41.000          30.000
 128423684.93946 100070399.95945  24438214.603    24438213.387    24438217.571
        37.000          30.000
 107054748.56247  83419303.67146  20371841.703    20371841.171    20371844.471
        47.000          40.000
 105152611.314 8  81785361.080 8  19636503.400    19636504.024    19636506.447
        50.000          48.000
 114001695.66647  88832499.17747  21693800.037    21693800.201    21693806.883
        45.000          45.000
 115150021.02647  89727310.19947  21912318.691    21912318.628    21912324.314
        44.000          45.000
 129752392.99544                  24691061.159
        28.000
 106459356.916 8  82801728.926 8  19887501.457    19887500.819    19887504.400
        51.000          48.000
 20  5  5  0 47  0.0000000  0 11G 3G 4G22R 5G 7G16R 4G26G 9G31R 3
 117077135.93747  91228939.60847  22279035.213    22279035.574    22279041.167
        44.000          43.000
 106777166.79248  83203007.08147  20319016.729    20319016.851    20319020.732
        50.000          42.000
 126779930.67346  98789557.93043  24125411.975    24125411.155    24125412.095
        40.000          21.000
 124867125.506 6  97118881.429 5  23358983.458    23358981.799    23358988.623
        41.000          35.000
 128418125.73346 100066068.09945  24437155.410    24437155.294    24437159.330
        37.000          30.000
 107123620.33548  83472969.98346  20384947.539    20384946.969    20384950.249
        48.000          40.000
 105176064.237 8  81803602.231 8  19640882.839    19640883.805    19640886.059
        51.000          48.000
 114143071.67547  88942662.28947  21720703.397    21720703.277    21720709.917
        45.000          45.000
 115146623.90947  89724663.08547  21911672.363    21911672.196    21911677.983
        46.000          45.000
 129920386.77944                  24723024.030
        28.000
 106606893.508 8  82916479.586 7  19915062.214    19915062.223    19915065.290
        51.000          47.000
 20  5  5  0 47 30.0000000  0 12G 3G 4G22R 5G 7G16R 4G26G27G 9G31R 3
 117241938.08347  91357356.83647  22310396.382    22310396.485    22310402.076
        45.000          44.000
 106831185.37848  83245099.46947  20329296.148    20329296.234    20329300.238
        50.000          43.000
 126957352.59346  98927808.73643  24159174.372    24159173.240    24159175.872
        40.000          20.000
 124817624.142 6  97080380.382 5  23349722.788    23349721.063    23349727.589
        41.000          34.000
 128412649.72446 100061801.07145  24436113.714    24436113.459    24436117.668
        37.000          30.000
 107193153.75248  83527151.86446  20398179.369    20398178.885    20398182.172
        48.000          40.000
 105200152.215 8  81822337.312 8  19645381.462    19645382.164    19645384.275
        50.000          48.000
 114284876.12147  89053159.24647  21747687.851    21747687.591    21747694.322
        45.000          45.000
 128541323.53946 100162069.69544  24460597.484    24460597.666    24460604.648
        37.000          29.000
 115143442.76947  89722184.27447  21911067.015    21911066.996    21911072.471
        46.000          45.000
 130088350.06344                  24754989.813
        25.000
 106755046.764 8  83031709.867 7  19942738.799    19942738.679    19942741.789
        52.000          47.000
 20  5  5  0 48  0.0000000  0 11G 3G 4G22R 5G 7G16R 4G26G27G 9R 3
 117407052.82347  91486017.64647  22341816.040    22341816.792    22341822.324
        44.000          43.000
 106885590.28248  83287492.88647  20339649.121    20339649.089    20339653.110
        49.000          43.000
 127134836.65246  99066107.95043  24192948.675    24192947.740    24192949.637
        39.000          20.000
 124768225.892 6  97041959.509 5  23340482.641    23340479.652    23340485.954
        41.000          34.000
 128407255.42346 100057597.68945  24435087.571    24435086.504    24435091.231
        37.000          30.000
 107263346.91448  83581847.82646  20411536.683    20411536.331    20411539.394
        48.000          40.000
 105224876.391 8  81841567.219 7  19649998.579    19649999.215    19650001.466
        50.000          47.000
 114427104.76247  89163986.74147  21774752.731    21774752.723    21774759.692
        45.000          45.000
 128518267.99146 100144104.35445  24456209.827    24456209.861    24456216.834
        38.000          33.000
 115140477.73747  89719873.85447  21910502.893    21910502.890    21910508.169
        45.000          46.000
 106903812.878 8  83147416.830 7  19970529.382    19970529.369    19970532.568
        51.000          47.000
 20  5  5  0 48 30.0000000  0 11G 3G 4G22R 5G 7G16R 4G26G27G 9R 3
 117572475.08047  91614918.08447  22373295.195    22373295.667    22373301.314
        44.000          43.000
 106940380.47748  83330186.53047  20350075.382    20350075.355    20350079.401
        48.000          43.000
 127312377.81746  99204451.65943  24226734.387    24226732.569    24226733.842
        39.000          21.000
 124718931.592 6  97003619.507 5  23331260.814    23331258.377    23331264.417
        41.000          34.000
 128401940.53246 100053456.17845  24434075.302    24434075.181    24434079.416
        37.000          30.000
 107334197.19248  83637055.83546  20425019.143    20425018.583    20425021.855
        48.000          40.000
 105250237.306 8  81861292.365 8  19654734.316    19654735.016    19654737.513
        50.000          48.000
 114569752.86647  89275141.10147  21801897.810    21801897.648    21801904.522
        44.000          44.000
 128495281.49845 100126192.83944  24451835.147    24451835.694    24451842.985
        35.000          28.000
 115137728.39647  89717731.51047  21909979.775    21909980.038    21909985.106
        46.000          46.000
 107053187.647 8  83263597.178 7  19998434.020    19998433.653    19998437.088
        52.000          47.000
 20  5  5  0 49  0.0000000  0 11G 3G 4G22R 5G 7G16R 4G26G27G 9R 3
 117738199.87447  91744054.25647  22404831.472    22404832.078    22404837.735
        44.000          43.000
 106995555.12948  83373179.74947  20360574.811    20360574.764    20360578.844
        49.000          43.000
 127489971.64946  99342836.39543  24260529.133    24260528.262    24260529.456
        39.000          21.000
 124669742.594 7  96965361.387 5  23322056.940    23322057.582    23322063.420
        43.000          34.000
 128396703.10946 100049375.05945  24433079.798    24433078.755    24433082.693
        37.000          30.000
 107405702.38247  83692774.16246  20438625.944    20438625.524    20438628.874
        47.000          40.000
 105276236.014 8  81881513.567 8  19659589.220    19659589.992    19659592.686
        50.000          48.000
 114712815.83347  89386618.71947  21829122.216    21829121.922    21829128.570
        45.000          44.000
 128472365.17246 100108335.94345  24447475.094    24447474.804    24447481.968
        36.000          30.000
 115135194.59347  89715757.11347  21909497.855    21909497.887    21909502.979
        46.000          46.000
 107203166.760 8  83380247.577 7  20026450.992    20026451.048    20026454.422
        51.000          47.000
 20  5  5  0 49 30.0000000  0 11G 3G 4G22R 5G 7G16R 4G26G27G 9R 3
 117904227.67647  91873426.54347  22436425.475    22436425.984    22436431.680
        44.000          42.000
 107051118.84048  83416476.13047  20371148.039    20371148.269    20371152.350
        50.000          43.000
 127667618.68446  99481262.63543  24294334.312    24294332.679    24294335.778
        39.000          21.000
 124620665.642 7  96927190.421 5  23312876.237    23312876.535    23312881.748
        42.000          34.000
 128391547.49146 100045357.68245  24432098.472    24432097.810    24432101.507
        38.000          30.000
 107477865.24048  83749004.95946  20452358.242    20452357.736    20452361.042
        48.000          41.000
 105302878.763 8  81902235.691 8  19664564.575    19664565.266    19664567.866
        50.000          48.000
 114856294.52847  89498420.29147  21856425.395    21856425.283    21856431.714
        44.000          44.000
 128449525.74846 100090539.04745  24443128.927    24443128.408    24443135.485
        36.000          30.000
 115132881.57947  89713954.76847  21909057.636    21909057.545    21909062.849
        45.000          46.000
 107353752.041 8  83497369.435 8  20054582.143    20054581.861    20054585.047
        52.000          48.000
 20  5  5  0 50  0.0000000  0 11G 3G 4G22R 5G 7G16R 4G26G27G 9R 3
 118070556.55047  92003033.42547  22468076.774    22468077.109    22468083.016
        43.000          43.000
 107107073.72948  83460077.33147  20381796.154    20381796.150    20381800.166
        50.000          43.000
 127845317.15046  99619728.91043  24328149.402    24328148.854    24328149.632
        39.000          20.000
 124571705.044 6  96889109.953 5  23303716.635    23303717.009    23303723.544
        41.000          34.000
 128386474.24346 100041404.50245  24431132.938    24431132.994    24431136.336
        37.000          30.000
 107550686.22748  83805748.58346  20466215.585    20466215.199    20466218.402
        48.000          40.000
 105330169.219 8  81923461.590 8  19669660.905    19669661.722    19669664.271
        50.000          48.000
 115000187.39147  89610544.58647  21883806.754    21883806.836    21883813.556
        45.000          44.000
 128426767.37446 100072805.24845  24438796.775    24438797.358    24438804.793
        36.000          30.000
 115130792.17947  89712326.65747  21908659.767    21908659.809    21908665.189
        45.000          46.000
 107504942.180 8  83614961.747 7  20082825.208    20082825.516    20082828.555
        51.000          47.000
 20  5  5  0 50 30.0000000  0 11G 3G 4G22R 5G 7G16R 4G26G27G 9R 3
 118237174.71047  92132865.74147  22499783.716    22499783.599    22499789.293
        44.000          42.000
 107163412.16148  83503977.39247  20392517.043    20392517.037    20392520.952
        49.000          43.000
 128023055.56746  99758226.32143  24361971.569    24361970.686    24361973.320
        40.000          21.000
 124522855.120 6  96851115.551 5  23294577.527    23294578.538    23294585.033
        41.000          34.000
 128381474.42946 100037508.52245  24430180.214    24430181.453    24430185.065
        38.000          31.000
 107624156.21947  83862997.91946  20480196.441    20480195.889    20480199.374
        47.000          41.000
 105358101.410 8  81945186.611 8  19674877.001    19674878.004    19674880.289
        50.000          48.000
 115144483.05747  89722982.75647  21911265.780    21911265.462    21911271.967
        45.000          44.000
 128404084.51145 100055130.28145  24434481.449    24434480.779    24434488.932
        35.000          30.000
 115128919.42247  89710867.35747  21908303.424    21908303.291    21908308.699
        45.000          46.000
 107656726.124 8  83733015.899 7  20111180.324    20111180.031    20111183.023
        51.000          47.000
 20  5  5  0 51  0.0000000  0 11G 3G 4G22R 5G 7G16R 4G26G27G 9R 3
 118404084.48647  92262925.26847  22531545.209    22531545.626    22531551.209
        43.000          42.000
 107220140.49548  83548181.27847  20403311.875    20403312.106    20403315.988
        49.000          43.000
 128200836.47446  99896756.84443  24395802.363    24395801.687    24395803.068
        39.000          21.000
 124474124.551 7  96813213.994 5  23285463.966    23285463.058    23285468.045
        42.000          34.000
 128376553.28046 100033673.85745  24429245.602    24429244.572    24429248.469
        38.000          31.000
 107698280.09348  83920756.78646  20494301.766    20494301.303    20494304.661
        48.000          40.000
 105386683.447 8  81967417.076 8  19680214.993    19680215.419    19680217.772
        50.000          48.000
 115289184.13147  89835736.82947  21938801.037    21938801.189    21938807.753
        44.000          44.000
 128381485.60845 100037520.76145  24430180.250    24430180.737    24430188.009
        35.000          30.000
 115127270.38847  89709582.38447  21907989.570    21907989.242    21907994.844
        45.000          46.000
 107809107.001 8  83851534.341 7  20139646.048    20139645.948    20139649.051
        52.000          47.000
 20  5  5  0 51 30.0000000  0 11G 3G 4G22R 5G 7G16R 4G26G27G 9R 3
 118571284.86547  92393211.25247  22563362.430    22563362.886    22563368.343
        43.000          42.000
 107277261.89148  83592691.44947  20414181.887    20414181.820    20414185.935
        49.000          44.000
 128378659.41546 100035320.11443  24429640.824    24429640.151    24429641.515
        39.000          21.000
 124425518.725 7  96775409.454 5  23276371.224    23276370.112    23276376.500
        42.000          33.000
 128371713.28846 100029902.42245  24428323.774    24428323.979    24428327.832
        38.000          32.000
 107773059.30148  83979026.29146  20508531.798    20508531.304    20508534.646
        48.000          41.000
 105415920.096 8  81990156.677 8  19685674.190    19685675.082    19685677.699
        50.000          48.000
 115434290.11347  89948806.40547  21966413.795    21966413.882    21966420.910
        44.000          44.000
 128358975.92145 100019980.78244  24425897.575    24425896.856    24425904.786
        35.000          29.000
 115125848.94147  89708474.75747  21907718.809    21907718.678    21907724.241
        45.000          46.000
 107962084.845 8  83970517.084 7  20168223.616    20168223.447    20168226.606
        51.000          47.000
 20  5  5  0 52  0.0000000  0 11G 3G 4G22R 5G 7G16R 4G26G27G 9R 3
 118738768.19747  92523717.71747  22595233.480    22595233.759    22595239.278
        44.000          42.000
 107334772.77848  83637505.11247  20425125.840    20425125.812    20425129.867
        49.000          44.000
 128556516.82446 100173910.25843  24463485.634    24463484.578    24463487.884
        39.000          20.000
 124377036.099 7  96737700.760 5  23267300.325    23267301.047    23267306.574
        43.000          35.000
 128366949.81446 100026190.61645  24427417.541    24427417.464    24427421.335
        37.000          31.000
 107848488.62348  84037802.38846  20522885.602    20522884.877    20522888.383
        48.000          41.000
 105445809.151 8  82013403.710 8  19691256.156    19691256.802    19691259.030
        51.000          48.000
 115579793.67547  90062185.78547  21994102.350    21994102.545    21994109.176
        44.000          44.000
 128336554.04945 100002509.18344  24421629.829    24421629.806    24421637.395
        33.000          28.000
 115124652.27647  89707542.27947  21907491.327    21907491.207    21907496.495
        46.000          46.000
 108115652.834 8  84089958.827 7  20196911.268    20196911.212    20196914.578
        51.000          47.000
 20  5  5  0 52 30.0000000  0 11G 3G 4G22R 5G 7G16R 4G26G27G 9R 3
 117331123.92447  91426852.02847  22327367.770    22327367.861    22327373.513
        43.000          42.000
 105817263.04948  82455029.98047  20136353.301    20136353.358    20136357.328
        49.000          43.000
 127158998.54946  99084934.90943  24197546.619    24197545.337    24197546.588
        39.000          20.000
 122726123.129 7  95453657.313 5  22958461.622    22958463.297    22958468.678
        43.000          35.000
 126786849.63846  98794943.73445  24126734.620    24126734.119    24126738.641
        37.000          31.000
 106349156.64748  82869491.75646  20237572.044    20237571.642    20237574.961
        48.000          41.000
 103870986.394 8  80788541.556 8  19397169.181    19397169.724    19397172.081
        51.000          48.000
 114150283.87347  88948282.02947  21722076.286    21722075.854    21722082.664
        44.000          44.000
 126738809.09345  98757513.15344  24117589.561    24117589.690    24117597.220
        35.000          28.000
 113548268.96647  88479191.63847  21607515.635    21607515.674    21607520.941
        46.000          47.000
 106665007.917 8  82961679.425 7  19925918.804    19925918.658    19925921.895
        51.000          47.000
 20  5  5  0 53  0.0000000  0 11G 3G 4G22R 5G 7G16R 4G26G27G 9R 3
 117499171.48547  91557798.15446  22359346.430    22359346.237    22359351.961
        43.000          41.000
 105875563.60548  82500458.96947  20147447.612    20147447.454    20147451.554
        49.000          43.000
 127336924.06446  99223578.13443  24231404.997    24231404.428    24231406.900
        39.000          19.000
 122677904.730 7  95416154.109 5  22949441.293    22949444.054    22949448.656
        43.000          35.000
 126782246.56746  98791356.91745  24125858.589    24125858.254    24125862.336
        38.000          31.000
 106425891.23548  82929284.94046  20252174.364    20252173.737    20252177.171
        49.000          40.000
 103902196.066 8  80812815.742 8  19402997.035    19402997.913    19403000.100
        50.000          48.000
 114296582.07847  89062280.60647  21749915.712    21749915.475    21749922.057
        44.000          43.000
 126716579.68845  98740191.54244  24113358.921    24113359.300    24113366.775
        35.000          29.000
 113547534.63847  88478619.41847  21607376.271    21607376.144    21607381.172
        46.000          46.000
 106819756.392 8  83082039.329 7  19954826.977    19954826.965    19954830.237
        51.000          47.000
 20  5  5  0 53 30.0000000  0 11G 3G 4G22R 5G 7G16R 4G26G27G 9R 3
 117667501.23047  91688964.16447  22391378.088    22391378.399    22391384.050
        43.000          42.000
 105934265.17448  82546200.43347  20158618.079    20158618.069    20158622.159
        49.000          43.000
 127514883.75546  99362247.94443  24265269.227    24265268.798    24265270.282
        38.000          19.000
 122629828.019 7  95378761.112 5  22940449.490    22940449.829    22940455.200
        43.000          35.000
 126777728.47346  98787836.30845  24124999.386    24124998.608    24125002.861
        38.000          31.000
 106503282.09148  82989589.50146  20266901.351    20266900.845    20266904.140
        48.000          41.000
 103934074.694 8  80837610.224 8  19408950.225    19408951.034    19408953.281
        50.000          48.000
 114443278.17647  89176589.24947  21777830.469    21777830.665    21777837.477
        44.000          43.000
 126694455.86445  98722952.23945  24109148.647    24109149.304    24109156.493
        35.000          30.000
 113547038.81347  88478233.05847  21607281.929    21607281.900    21607286.859
        46.000          47.000
 106975096.182 8  83202859.137 7  19983845.900    19983845.481    19983848.980
        51.000          47.000
 20  5  5  0 54  0.0000000  0 11G 3G 4G22R 5G 7G16R 4G26G27G 9R 3
 117836112.27047  91820349.35747  22423463.731    22423464.141    22423469.755
        44.000          42.000
 105993370.99048  82592256.88947  20169865.658    20169865.621    20169869.746
        49.000          44.000
 127692877.40546  99500944.27243  24299140.564    24299139.659    24299142.433
        38.000          18.000
 122581898.535 7  95341482.604 6  22931485.623    22931483.705    22931488.774
        42.000          36.000
 126773297.39046  98784383.51145  24124155.831    24124156.038    24124159.502
        38.000          32.000
 106581330.81247  83050406.68646  20281753.515    20281753.030    20281756.052
        47.000          41.000
 103966626.903 8  80862928.599 8  19415028.975    19415030.059    19415032.156
        51.000          48.000
 114590371.70947  89291207.56647  21805821.924    21805821.551    21805828.451
        44.000          43.000
 126672443.02246  98705799.42045  24104959.704    24104960.802    24104967.936
        37.000          31.000
 113546785.45947  88478035.62647  21607233.630    21607233.767    21607238.618
        46.000          47.000
 107131027.674 8  83324139.172 7  20012974.955    20012974.928    20012978.468
        51.000          47.000
 20  5  5  0 54 30.0000000  0 11G 3G 4G22R 5G 7G16R 4G26G27G 9R 3
 118004990.05247  91951942.41246  22455599.937    22455600.577    22455606.386
        43.000          41.000
 106052870.57648  82638620.18247  20181188.028    20181188.105    20181192.164
        50.000          43.000
 127870890.88646  99639656.01343  24333015.623    24333014.554    24333015.793
        38.000          19.000
 122534107.936 7  95304312.144 5  22922543.575    22922542.292    22922548.047
        42.000          35.000
 126768941.86446  98780989.57345  24123326.753    24123327.148    24123330.802
        39.000          32.000
 106660024.94848  83111726.78946  20296728.506    20296727.885    20296731.187
        49.000          41.000
 103999843.662 8  80888763.841 8  19421232.405    19421233.122    19421235.249
        51.000          48.000
 114737848.51747  89406124.53247  21833885.463    21833885.520    21833892.491
        44.000          43.000
 126650532.91146  98688726.64445  24100790.775    24100790.718    24100797.844
        36.000          30.000
 113546764.92747  88478019.61447  21607229.418    21607229.850    21607234.686
        47.000          46.000
 107287536.265 8  83445868.052 7  20042212.389    20042212.419    20042215.681
        51.000          47.000
 20  5  5  0 55  0.0000000  0 11G 3G 4G22R 5G 7G16R 4G26G27G 9R 3
 118174129.90947  92083739.67247  22487786.428    22487786.714    22487792.733
        43.000          42.000
 106112763.34848  82685289.84947  20192585.424    20192585.317    20192589.357
        50.000          43.000
 128048919.70246  99778379.71443  24366893.438    24366891.979    24366894.923
        38.000          19.000
 122486458.214 7  95267251.236 5  22913628.454    22913627.619    22913634.460
        42.000          35.000
 126764660.47046  98777653.42045  24122512.442    24122512.449    24122516.086
        38.000          32.000
 106739362.07048  83173547.92146  20311825.950    20311825.309    20311828.589
        48.000          40.000
 104033725.836 8  80915116.633 8  19427559.438    19427560.393    19427562.518
        51.000          48.000
 114885704.25647  89521336.78547  21862021.316    21862021.472    21862028.437
        43.000          42.000
 126628727.09346  98671735.12145  24096642.082    24096642.136    24096648.825
        37.000          31.000
 113546977.38647  88478185.15747  21607269.984    21607270.125    21607275.129
        46.000          46.000
 107444618.341 8  83568042.976 7  20071556.773    20071556.624    20071559.991
        51.000          47.000
 20  5  5  0 55 30.0000000  0 11G 3G 4G22R 5G 7G16R 4G26G27G 9R 3
 118343537.99447  92215745.93946  22520023.795    22520023.882    22520030.137
        43.000          41.000
 106173059.53448  82732273.87147  20204059.472    20204059.274    20204063.402
        50.000          44.000
 128226970.51646  99917120.57243  24400775.188    24400773.959    24400776.866
        37.000          18.000
 122438961.796 6  95230309.594 6  22904744.716    22904742.517    22904749.255
        41.000          36.000
 126760462.44246  98774382.22145  24121714.197    24121713.969    24121717.414
        39.000          33.000
 106819350.94248  83235876.90946  20327047.187    20327046.806    20327049.778
        48.000          41.000
 104068285.443 8  80941996.314 8  19434013.119    19434014.107    19434016.596
        51.000          48.000
 115033945.47847  89636849.40547  21890230.999    21890230.887    21890237.852
        43.000          43.000
 126607038.02046  98654834.57045  24092514.704    24092514.508    24092521.288
        37.000          31.000
 113547433.94947  88478540.91347  21607356.753    21607356.578    21607362.130
        46.000          46.000
 107602280.534 8  83690669.102 7  20101009.371    20101009.265    20101012.497
        51.000          47.000
 20  5  5  0 56  0.0000000  0 11G 3G 4G22R 5G 7G16R 4G26G27G 9R 3
 118513204.54847  92347953.62446  22552310.095    22552310.372    22552316.485
        42.000          41.000
 106233753.50948  82779567.85947  20215609.044    20215609.079    20215613.026
        50.000          44.000
 128405033.23946 100055870.69342  24434659.863    24434658.522    24434660.503
        37.000          17.000
 122391615.297 6  95193484.538 6  22895885.545    22895885.474    22895891.847
        41.000          36.000
 126756340.88146  98771170.61645  24120930.138    24120929.590    24120932.857
        39.000          33.000
 106899983.67948  83298707.61046  20342391.064    20342390.729    20342393.700
        48.000          41.000
 104103518.027 8  80969399.424 8  19440592.541    19440593.428    19440595.947
        51.000          48.000
 115182562.78347  89752655.07347  21918512.273    21918511.815    21918518.607
        44.000          42.000
 126585462.19946  98638022.27745  24088408.999    24088409.031    24088415.688
        38.000          32.000
 113548129.67247  88479083.02547  21607489.020    21607488.845    21607494.558
        45.000          46.000
 107760513.920 8  83813739.494 7  20130568.550    20130568.654    20130571.903
        51.000          47.000
 20  5  5  0 56 30.0000000  0 11G 3G 4G22R 5G 7G16R 4G26G27G 9R 3
 118683138.14347  92480369.38346  22584646.959    22584647.550    22584653.823
        42.000          41.000
 106294857.93548  82827181.67847  20227237.035    20227236.971    20227240.835
        50.000          44.000
 128583117.52646 100194637.62943  24468547.666    24468545.848    24468548.800
        38.000          18.000
 122344434.165 7  95156788.088 5  22887062.337    22887059.507    22887065.905
        42.000          35.000
 126752307.87046  98768028.00045  24120162.381    24120161.881    24120165.287
        38.000          33.000
 106981271.03248  83362048.40146  20357859.754    20357859.072    20357862.320
        48.000          40.000
 104139437.805 8  80997337.015 8  19447300.632    19447301.183    19447303.448
        51.000          48.000
 115331565.14647  89868760.79747  21946865.988    21946866.295    21946872.862
        44.000          43.000
 126564014.50146  98621309.81145  24084328.500    24084327.801    24084333.712
        38.000          31.000
 113549078.10847  88479822.06347  21607669.560    21607669.657    21607674.966
        46.000          47.000
 107919327.709 8  83937261.304 7  20160236.210    20160235.939    20160239.651
        51.000          47.000
 20  5  5  0 57  0.0000000  0 11G 3G 4G22R 5G 7G16R 4G26G27G 9R 3
 118853326.34147  92612983.53646  22617033.349    22617033.246    22617039.548
        42.000          41.000
 106356364.38848  82875108.76147  20238941.167    20238941.164    20238945.173
        50.000          44.000
 128761211.24646 100333411.89143  24502437.468    24502438.266    24502438.928
        37.000          18.000
 122297411.833 7  95120215.143 6  22878264.852    22878262.988    22878269.420
        42.000          36.000
 126748353.30346  98764946.51245  24119409.759    24119408.956    24119412.623
        39.000          33.000
 107063202.69048  83425891.24846  20373450.948    20373450.273    20373453.331
        48.000          41.000
 104176037.781 8  81025803.648 8  19454135.448    19454136.131    19454138.441
        51.000          48.000
 115480940.50347  89985157.15447  21975291.555    21975291.344    21975298.040
        44.000          42.000
 126542688.75646  98604692.38345  24080269.168    24080269.469    24080276.210
        38.000          33.000
 113550271.68047  88480752.10947  21607896.895    21607896.777    21607901.965
        46.000          47.000
 108078709.790 8  84061225.130 7  20190010.183    20190010.129    20190013.766
        51.000          47.000
 20  5  5  0 57 30.0000000  0 11G 3G 4G22R 5G 7G16R 4G26G27G 9R 3
 119023764.01147  92745792.07046  22649466.642    22649466.539    22649472.750
        42.000          40.000
 106418271.77748  82923348.26647  20250721.711    20250721.729    20250725.638
        50.000          44.000
 128939309.46546 100472189.70243  24536328.450    24536327.947    24536330.070
        38.000          18.000
 122250550.337 7  95083767.324 6  22869496.767    22869496.007    22869503.483
        42.000          36.000
 126744475.77446  98761925.05445  24118671.009    24118671.097    24118674.832
        39.000          32.000
 107145775.53748  83490233.72246  20389163.820    20389163.465    20389166.417
        49.000          41.000
 104213318.131 8  81054799.464 8  19461097.027    19461097.976    19461100.247
        51.000          48.000
 115630684.01847  90101840.39547  22003786.968    22003786.912    22003793.067
        44.000          43.000
 126521486.09446  98588170.87045  24076235.079    24076234.469    24076241.068
        37.000          32.000
 113551710.10747  88481872.95447  21608170.186    21608170.149    21608175.751
        45.000          47.000
 108238655.650 8  84185627.444 7  20219889.649    20219889.474    20219892.859
        51.000          46.000
 20  5  5  0 58  0.0000000  0 11G 3G 4G22R 5G 7G16R 4G26G27G 9R 3
 119194451.46047  92878795.25446  22681947.012    22681947.442    22681953.393
        42.000          40.000
 106480584.56548  82971903.66447  20262579.487    20262579.379    20262583.567
        49.000          43.000
 129117412.98046 100610971.60443  24570220.956    24570220.893    24570221.328
        38.000          18.000
 122203855.926 7  95047449.435 6  22860760.615    22860760.590    22860768.053
        42.000          36.000
 126740678.88546  98758966.42445  24117949.206    24117949.110    24117952.297
        40.000          33.000
 107228992.36448  83555077.99746  20404999.562    20404998.994    20405002.167
        48.000          41.000
 104251285.008 8  81084329.246 8  19468187.107    19468187.986    19468190.432
        51.000          48.000
 115780796.43047  90218811.09447  22032352.158    22032352.091    22032358.997
        44.000          42.000
 126500413.22946  98571750.47645  24072224.909    24072224.497    24072231.548
        38.000          32.000
 113553398.73547  88483188.77047  21608491.731    21608491.505    21608497.168
        46.000          46.000
 108399166.220 8  84310468.984 7  20249874.533    20249874.052    20249877.709
        50.000          47.000
 20  5  5  0 58 30.0000000  0 11G 3G 4G22R 5G 7G16R 4G26G27G 9R 3
 119365391.49947  93011995.25946  22714476.186    22714476.433    22714482.110
        42.000          40.000
 106543309.58748  83020780.28547  20274515.731    20274515.641    20274519.739
        50.000          44.000
 129295524.64946 100749759.86443  24604114.953    24604112.952    24604115.464
        38.000          18.000
 122157338.469 7  95011269.176 6  22852060.307    22852059.228    22852066.008
        43.000          36.000
 126736967.97146  98756074.80245  24117242.654    24117242.823    24117246.025
        39.000          33.000
 107312857.78248  83620427.67146  20420958.107    20420957.791    20420961.055
        48.000          40.000
 104289946.502 8  81114399.284 8  19475407.068    19475407.684    19475410.154
        51.000          48.000
 115931280.92347  90336071.71447  22060988.630    22060988.441    22060995.049
        44.000          42.000
 126479479.20846  98555438.26745  24068239.961    24068240.326    24068247.608
        36.000          31.000
 113555345.28847  88484705.55547  21608862.324    21608861.889    21608867.485
        46.000          47.000
 108560245.015 8  84435752.468 7  20279965.274    20279965.102    20279968.374
        50.000          46.000
 20  5  5  0 59  0.0000000  0 11G 3G 4G22R 5G 7G16R 4G26G27G 9R 3
 119536575.86147  93145385.64546  22747051.635    22747051.859    22747057.522
        42.000          40.000
 106606442.61348  83069974.83647  20286529.497    20286529.481    20286533.620
        50.000          44.000
 129473636.61346 100888548.37643  24638008.074    24638008.042    24638009.010
        37.000          18.000
 122110995.871 7  94975224.930 6  22843391.179    22843390.758    22843397.399
        43.000          37.000
 126733338.10046  98753246.33845  24116551.387    24116552.057    24116555.414
        40.000          33.000
 107397365.66748  83686277.97646  20437039.717    20437039.300    20437042.419
        48.000          40.000
 104329299.633 8  81145007.269 8  19482755.800    19482756.738    19482759.042
        51.000          48.000
 116082129.54447  90453616.07247  22089693.967    22089693.990    22089700.729
        44.000          42.000
 126458682.10546  98539232.74445  24064282.420    24064282.646    24064290.009
        37.000          31.000
 113557546.37247  88486420.67647  21609281.028    21609280.816    21609286.353
        45.000          47.000
 108721883.958 8  84561471.628 7  20310160.662    20310160.897    20310164.096
        51.000          47.000
 20  5  5  0 59 30.0000000  0 11G 3G 4G22R 5G 7G16R 4G26G27G 9R 3
 119708000.08147  93278962.93246  22779672.364    22779673.023    22779678.457
        42.000          40.000
 106669983.25548  83119487.00647  20298620.906    20298620.973    20298624.949
        50.000          44.000
 129651744.83446 101027333.93643  24671899.996    24671899.736    24671902.779
        38.000          19.000
 122064830.216 7  94939318.305 6  22834755.066    22834754.985    22834761.233
        43.000          37.000
 126729788.18246  98750480.16545  24115877.292    24115876.446    24115879.592
        39.000          33.000
 107482513.80448  83752627.16946  20453243.000    20453242.620    20453245.718
        49.000          40.000
 104369345.310 8  81176153.901 8  19490233.838    19490234.844    19490237.218
        51.000          48.000
 116233338.29147  90571441.05247  22118468.267    22118468.235    22118474.778
        43.000          43.000
 126438023.75746  98523135.34145  24060351.883    24060352.130    24060358.841
        37.000          31.000
 113560002.51147  88488334.53947  21609748.321    21609748.312    21609753.791
        46.000          47.000
 108884079.273 8  84687623.513 7  20340460.064    20340459.840    20340463.214
        51.000          46.000
 20  5  5  1  0  0.0000000  0 11G 3G 4G22R 5G 7G16R 4G26G27G 9R 3
 119879659.19747  93412723.24546  22812338.573    22812338.672    22812344.201
        42.000          40.000
 106733930.54848  83169316.04147  20310789.895    20310789.764    20310793.708
        50.000          44.000
 129829844.89546 101166113.18543  24705792.617    24705791.713    24705794.429
        38.000          18.000
 122018843.341 7  94903550.735 6  22826151.770    22826152.204    22826158.524
        44.000          37.000
 126726315.80546  98747774.40945  24115216.252    24115215.750    24115219.046
        39.000          33.000
 107568298.94948  83819472.73746  20469567.356    20469566.979    20469570.018
        48.000          40.000
 104410083.872 8  81207839.438 8  19497841.643    19497842.569    19497844.814
        51.000          48.000
 116384902.46147  90689542.97847  22147309.750    22147309.963    22147316.720
        43.000          43.000
 126417505.55046  98507147.13845  24056448.164    24056447.789    24056454.334
        37.000          31.000
 113562713.66547  88490447.11947  21610264.397    21610264.269    21610269.587
        46.000          47.000
 109046826.339 8  84814204.545 7  20370862.443    20370862.719    20370865.697
        51.000          46.000
 20  5  5  1  0 30.0000000  0 11G 3G 4G22R 5G 7G16R 4G26G27G 9R 3
 120051559.08747  93546671.17646  22845049.517    22845050.109    22845055.724
        42.000          40.000
 106798294.44048  83219469.70047  20323037.999    20323037.687    20323041.812
        50.000          44.000
 130007942.87046 101304890.72943  24739682.862    24739682.360    24739684.120
        38.000          18.000
 121973047.628 7  94867931.837 4  22817585.838    22817585.170    22817593.077
        45.000          25.000
 126722930.18346  98745136.25645  24114572.122    24114571.467    24114574.661
        40.000          33.000
 107654729.34148  83886821.09446  20486014.358    20486014.009    20486017.065
        48.000          41.000
 104451526.758 8  81240072.786    19505580.457    19505581.646    19505583.724
        51.000           1.000
 116536828.38147  90807926.79047  22176220.190    22176220.374    22176227.225
        43.000          42.000
 126397139.68346  98491277.66845  24052572.114    24052571.775    24052578.761
        37.000          32.000
 113565690.69447  88492766.87547  21610831.238    21610830.819    21610836.024
        46.000          47.000
 109210131.749 8  84941219.877    20401369.375    20401369.259    20401372.996
        51.000           1.000
 20  5  5  1  1  0.0000000  0 11G 3G 4G22R 5G 7G16R 4G26G27G 9R 3
 120223683.85147  93680794.33646  22877803.928    22877804.356    22877809.927
        42.000          40.000
 106863063.07948  83269938.74347  20335362.750    20335362.674    20335366.924
        50.000          44.000
 130186023.43946 101443654.80043  24773570.700    24773570.894    24773573.596
        37.000          18.000
 121927433.708 7                  22809053.003
        44.000
 126719618.51046  98742555.72345  24113940.768    24113941.425    24113944.718
        38.000          33.000
 107741790.87648  83954661.24946  20502581.854    20502581.170    20502584.405
        49.000          41.000
 104493663.220 8                  19513449.442
        50.000
 116689100.48147  90926580.35047  22205196.853    22205196.956    22205203.663
        43.000          42.000
 126376916.63946  98475519.45445  24048723.332    24048723.247    24048730.191
        37.000          31.000
 113568922.65447  88495285.28147  21611445.982    21611445.878    21611451.159
        46.000          47.000
 109373979.748 8                  20431977.538
        51.000
 20  5  5  1  1 30.0000000  0 11G 3G 4G22R 5G 7G16R 4G26G27G 9R 3
 120396042.09147  93815099.41946  22910602.539    22910602.918    22910608.512
        42.000          40.000
 106928249.04948  83320732.99047  20347767.267    20347767.265    20347771.456
        49.000          44.000
 130364095.56546 101582412.24642  24807456.623    24807457.901    24807459.229
        36.000          17.000
 121882016.981 7                  22800554.942
        44.000
 126716393.05446  98740042.37845  24113327.742    24113328.148    24113330.710
        40.000          33.000
 107829494.16748  84023001.47146  20519270.994    20519270.708    20519273.779
        48.000          40.000
 104536507.208 8                  19521450.402
        50.000
 116841727.72647  91045510.64747  22234240.732    22234240.718    22234247.354
        43.000          42.000
 126356851.27846  98459884.15145  24044904.700    24044905.649    24044911.897
        38.000          32.000
 113572423.07947  88498012.87348  21612112.126    21612111.996    21612117.360
        46.000          48.000
 109538379.488 8                  20462688.703
        51.000
 20  5  5  1  2  0.0000000  0 11G 3G 4G22R 5G 7G16R 4G26G27G 9R 3
 120568625.34047  93949579.85546  22943443.964    22943444.623    22943450.244
        43.000          40.000
 106993847.98848  83371849.02947  20360250.402    20360250.376    20360254.546
        49.000          44.000
 130542151.31746 101721156.93242  24841339.548    24841338.861    24841342.065
        36.000          16.000
 121836795.559 7                  22792097.734
        44.000
 126713247.97246  98737591.65745  24112729.096    24112729.724    24112732.181
        40.000          34.000
 107917832.62747  84091836.63746  20536081.360    20536080.784    20536084.065
        47.000          40.000
 104580055.436 8                  19529582.560
        50.000
 116994702.03647  91164711.39147  22263350.989    22263350.833    22263357.507
        43.000          42.000
 126336941.59046  98444370.12545  24041115.991    24041116.816    24041123.299
        38.000          32.000
 113576188.53147  88500946.98547  21612828.740    21612828.485    21612833.936
        47.000          47.000
 109703322.886 8                  20493501.693
        50.000
 20  5  5  1  2 30.0000000  0 11G 3G 4G22R 5G 7G16R 4G26G27G 9R 3
 120741425.44347  94084229.25246  22976326.823    22976327.452    22976332.883
        42.000          39.000
 107059855.65648  83423283.55847  20372811.292    20372811.229    20372815.299
        50.000          44.000
 130720182.80846 101859882.70842  24875217.734    24875216.429    24875218.751
        37.000          16.000
 121791767.702 7                  22783673.339
        44.000
 126710178.22246  98735199.64845  24112145.048    24112145.612    24112147.993
        39.000          34.000
 108006799.66148  84161161.59846  20553011.284    20553010.783    20553013.874
        48.000          40.000
 104624304.995 8                  19537845.774
        50.000
 117148015.54347  91284176.43546  22292525.110    22292525.334    22292532.026
        43.000          41.000
 126317185.68546  98428975.94445  24037357.121    24037357.009    24037363.694
        38.000          32.000
 113580215.77847  88504085.09348  21613595.064    21613594.802    21613600.373
        47.000          48.000
 109868801.959 8  85453526.817 7  20524414.778    20524414.826    20524413.357
        50.000          46.000
 20  5  5  1  3  0.0000000  0 11G 3G 4G22R 5G 7G16R 4G26G27G 9R 3
 119339033.24847  92991456.08046  22709460.696    22709461.136    22709466.642
        42.000          40.000
 105550863.41248  82247445.43147  20085659.817    20085659.593    20085663.722
        50.000          44.000
 129322781.29146 100770998.32442  24609302.096    24609301.372    24609301.936
        36.000          16.000
 120144381.292 7                  22475497.178
        44.000
 125131772.11946  97505272.82345  23811783.993    23811784.492    23811787.518
        40.000          34.000
 106520985.36748  83003384.21846  20270270.058    20270269.674    20270272.857
        48.000          40.000
 103063892.658 8                  19246449.828
        50.000
 115726258.92247  90176314.10446  22021973.891    22021974.131    22021980.873
        43.000          41.000
 124722174.40046  97186110.03945  23733837.055    23733836.483    23733843.593
        38.000          32.000
 112009095.05447  87279835.16948  21314620.687    21314620.539    21314625.956
        46.000          48.000
 108430015.373 8  84334470.554 7  20255637.250    20255637.433    20255640.566
        50.000          46.000
 20  5  5  1  3 30.0000000  0 11G 3G 4G22R 5G 7G16R 4G26G27G 9R 3
 119512267.16247  93126443.52046  22742425.968    22742426.539    22742431.818
        43.000          39.000
 105617700.72248  82299526.43547  20098378.340    20098378.244    20098382.416
        49.000          44.000
 129500765.54746 100909687.35142  24643170.739    24643170.421    24643172.170
        37.000          16.000
 120099760.930 7                  22467151.257
        44.000
 125128862.32046  97503005.43245  23811230.397    23811230.431    23811233.691
        39.000          34.000
 106611215.36947  83073693.30646  20287440.230    20287439.883    20287443.043
        47.000          40.000
 103109560.572 8  80196326.243 8  19254978.307    19254979.207    19254981.434
        51.000          48.000
 115880252.19447  90296308.83446  22051278.425    22051277.647    22051284.857
        42.000          41.000
 124702745.28846  97170970.49745  23730138.788    23730139.342    23730146.391
        38.000          33.000
 112013660.95348  87283393.00648  21315489.724    21315489.554    21315494.923
        48.000          48.000
 108596567.169 8  84464010.816 7  20286750.522    20286750.637    20286754.084
        51.000          46.000
 20  5  5  1  4  0.0000000  0 11G 3G 4G22R 5G 7G16R 4G26G27G 9R 3
 119685713.03847  93261596.11846  22775431.674    22775432.045    22775437.778
        42.000          39.000
 105684953.94848  82351931.52747  20111176.162    20111176.158    20111180.330
        50.000          44.000
 129678722.00146 101048354.64642  24677034.960    24677033.997    24677036.315
        36.000          16.000
 120055349.458 7                  22458841.331
        43.000
 125126032.25146  97500800.20545  23810692.138    23810691.791    23810695.160
        39.000          34.000
 106702075.12848  83144493.10646  20304730.421    20304730.075    20304733.023
        48.000          41.000
 103155940.315 8  80232399.363 8  19263639.415    19263640.471    19263642.547
        51.000          48.000
 116034580.92647  90416564.95846  22080645.841    22080645.666    22080652.532
        42.000          41.000
 124683484.24846  97155961.89645  23726474.198    23726474.016    23726480.570
        39.000          33.000
 112018498.77947  87287162.73748  21316410.309    21316410.287    21316415.635
        47.000          48.000
 108763650.955 8  84593964.850 7  20317963.396    20317963.400    20317966.557
        51.000          46.000
 20  5  5  1  4 30.0000000  0 11G 3G 4G22R 5G 7G16R 4G26G27G 9R 3
 119859365.22546  93396909.47446  22808476.322    22808476.903    22808482.731
        41.000          39.000
 105752621.38548  82404659.38247  20124052.862    20124052.777    20124057.006
        50.000          44.000
 129856645.30746 101186996.12842  24710892.691    24710891.137    24710894.536
        36.000          16.000
 120011147.730 7                  22450570.881
        42.000
 125123280.09646  97498655.65445  23810167.821    23810167.177    23810171.537
        38.000          33.000
 106793560.59048  83215780.48246  20322139.790    20322139.061    20322142.248
        48.000          40.000
 103203031.555 8  80269025.878 8  19272433.402    19272434.253    19272436.458
        50.000          48.000
 116189239.90847  90537078.40746  22110076.459    22110076.137    22110083.340
        42.000          41.000
 124664391.91546  97141084.78645  23722841.353    23722841.026    23722847.909
        39.000          33.000
 112023607.78247  87291143.78048  21317382.548    21317382.436    21317387.815
        46.000          49.000
 108931261.303 8  84724328.436 7  20349274.266    20349274.158    20349277.653
        50.000          46.000
 20  5  5  1  5  0.0000000  0 11G 3G 4G22R 5G 7G16R 4G26G27G 9R 3
 120033223.78047  93532383.64246  22841560.523    22841561.083    22841566.767
        42.000          39.000
 105820707.00448  82457713.10047  20137008.901    20137009.011    20137013.241
        50.000          44.000
 130034535.99446 101325612.20942  24744743.867    24744743.002    24744744.909
        36.000          15.000
 119967162.759 7                  22442343.623
        43.000
 125120608.47546  97496573.88245  23809659.866    23809658.769    23809663.493
        38.000          33.000
 106885673.60348  83287556.85046  20339668.170    20339667.726    20339670.709
        48.000          40.000
 103250839.318 8  80306209.683 8  19281360.758    19281361.872    19281364.079
        50.000          48.000
 116344229.37947  90657849.39946  22139570.114    22139570.024    22139576.556
        43.000          40.000
 124645474.74546  97126344.12645  23719241.659    23719240.970    23719248.261
        38.000          33.000
 112028993.07247  87295340.10348  21318407.290    21318407.105    21318412.566
        47.000          48.000
 109099398.665 8  84855101.916 7  20380684.125    20380683.965    20380687.087
        50.000          46.000
 20  5  5  1  5 30.0000000  0 11G 3G 4G22R 5G 7G16R 4G26G27G 9R 3
 120207280.41447  93668012.16046  22874683.045    22874683.011    22874688.700
        42.000          38.000
 105889206.56248  82511089.35747  20150043.941    20150044.070    20150048.293
        50.000          44.000
 130212386.56546 101464197.03442  24778587.677    24778586.924    24778589.418
        36.000          15.000
 119923392.716 7  93273751.808 6  22434155.257    22434154.688    22434159.835
        44.000          37.000
 125118012.16046  97494550.78045  23809164.810    23809164.668    23809169.331
        39.000          33.000
 106978407.39048  83359816.94146  20357314.863    20357314.299    20357317.334
        49.000          40.000
 103299360.256 8  80343948.179 8  19290421.879    19290422.881    19290425.035
        50.000          48.000
 116499541.55747  90778871.85846  22169125.129    22169124.949    22169131.807
        43.000          41.000
 124626730.74946  97111738.44345  23715674.016    23715673.677    23715681.435
        37.000          32.000
 112034651.29947  87299749.10848  21319484.239    21319483.881    21319489.264
        47.000          49.000
 109268054.741 8  84986278.848 7  20412190.021    20412190.183    20412193.687
        50.000          46.000
 20  5  5  1  6  0.0000000  0 11G 3G 4G22R 5G 7G16R 4G26G27G 9R 3
 120381538.18046  93803797.40146  22907842.686    22907843.196    22907849.158
        41.000          39.000
 105958127.05648  82564793.62147  20163159.380    20163159.185    20163163.417
        50.000          44.000
 130390200.12946 101602752.99242  24812425.258    24812424.327    24812427.601
        36.000          15.000
 119879847.596 7  93239883.367 6  22426009.808    22426008.531    22426013.850
        45.000          37.000
 125115497.27546  97492591.13245  23808686.906    23808686.265    23808691.051
        39.000          34.000
 107071766.86248  83432564.57546  20375080.761    20375080.022    20375083.157
        49.000          40.000
 103348602.558 8  80382247.735 8  19299617.679    19299618.566    19299620.678
        50.000          48.000
 116655179.85847  90900148.42846  22198742.254    22198742.091    22198748.646
        43.000          41.000
 124608169.49646  97097275.13045  23712141.744    23712141.631    23712149.073
        38.000          32.000
 112040590.59747  87304377.13048  21320614.346    21320614.138    21320619.341
        47.000          48.000
 109437233.092 8  85117861.989 7  20443794.148    20443793.817    20443797.406
        49.000          46.000
 20  5  5  1  6 30.0000000  0 10G 3G 4R 5G 7G16R 4G26G27G 9R 3
 120555991.39746  93939734.93246  22941040.379    22941040.431    22941046.514
        41.000          39.000
 106027466.72048  82618824.51447  20176353.889    20176354.099    20176358.387
        50.000          44.000
 119836528.379 7  93206190.647 6  22417905.652    22417905.499    22417909.992
        45.000          37.000
 125113060.91946  97490692.66345  23808223.393    23808222.907    23808227.166
        40.000          34.000
 107165747.92748  83505796.56846  20392964.293    20392963.980    20392967.180
        48.000          40.000
 103398565.440 8  80421107.741 8  19308947.646    19308948.574    19308950.945
        50.000          48.000
 116811138.85647  91021674.89146  22228420.159    22228420.123    22228426.803
        43.000          41.000
 124589791.55346  97082954.68145  23708644.851    23708644.210    23708651.724
        37.000          32.000
 112046810.19847  87309223.56648  21321797.948    21321797.638    21321802.846
        47.000          48.000
 109606928.184 8  85249847.040 7  20475494.546    20475494.352    20475498.254
        50.000          45.000
 20  5  5  1  7  0.0000000  0 10G 3G 4R 5G 7G16R 4G26G27G 9R 3
 120730641.02146  94075825.51246  22974274.562    22974275.195    22974281.117
        41.000          39.000
 106097230.48848  82673185.87847  20189629.920    20189629.781    20189634.055
        50.000          44.000
 119793442.783 7  93172679.632 4  22409844.265    22409845.337    22409849.715
        45.000          29.000
 125110707.99646  97488859.21245  23807775.832    23807775.233    23807779.736
        39.000          34.000
 107260353.17748  83579514.94246  20410967.082    20410966.719    20410970.046
        48.000          40.000
 103449255.068 8  80460532.992 8  19318413.836    19318414.782    19318417.055
        51.000          48.000
 116967420.01947  91143452.40446  22258159.549    22258159.594    22258166.147
        42.000          40.000
 124571604.28246  97068782.81445  23705183.016    23705183.491    23705190.638
        37.000          32.000
 112053316.17648  87314293.15248  21323035.775    21323035.697    21323040.861
        48.000          48.000
 109777141.166 8  85382234.892 7  20507291.775    20507291.351    20507295.060
        50.000          46.000
 20  5  5  1  7 30.0000000  0 10G 3G 4R 5G 7G16R 4G26G27G 9R 3
 120905479.36446  94212063.14846  23007545.397    23007545.853    23007551.875
        41.000          39.000
 106167414.57948  82727874.76747  20202985.585    20202985.389    20202989.719
        50.000          44.000
 119750589.996 7  93139349.684 6  22401828.216    22401828.688    22401833.329
        45.000          38.000
 125108433.66246  97487086.99845  23807343.154    23807342.551    23807346.760
        39.000          34.000
 107355576.55948  83653714.97446  20429087.584    20429087.001    20429090.310
        48.000          40.000
 103500668.394 8  80500521.121 8  19328014.855    19328015.808    19328018.110
        50.000          48.000
 117124015.88447  91265475.13946  22287958.874    22287958.782    22287965.404
        43.000          41.000
 124553606.44346  97054758.56045  23701758.622    23701758.747    23701766.297
        37.000          33.000
 112060105.75648  87319583.72748  21324327.755    21324327.689    21324332.917
        48.000          49.000
 109947864.503 8  85515019.682 7  20539184.806    20539184.319    20539187.996
        50.000          45.000
 20  5  5  1  8  0.0000000  0 10G 3G 4R 5G 7G16R 4G26G27G 9R 3
 121080507.67646  94348448.80546  23040852.401    23040852.814    23040858.778
        41.000          38.000
 106238024.16448  82782895.21447  20216422.067    20216421.981    20216426.275
        50.000          44.000
 119707977.872 7  93106206.914 6  22393858.552    22393857.183    22393862.535
        45.000          37.000
 125106242.07246  97485379.27545  23806926.548    23806925.579    23806929.636
        39.000          35.000
 107451421.38948  83728399.25746  20447326.179    20447325.702    20447328.947
        48.000          40.000
 103552811.756 8  80541077.052 8  19337752.548    19337753.218    19337755.492
        51.000          48.000
 117280928.03847  91387744.31846  22317817.999    22317818.314    22317824.803
        42.000          41.000
 124535805.57246  97040887.75645  23698372.317    23698371.409    23698378.602
        37.000          33.000
 112067185.23248  87325100.19848  21325675.027    21325674.984    21325680.144
        48.000          49.000
 110119099.876 8  85648202.729 7  20571172.581    20571172.648    20571175.897
        50.000          45.000
 20  5  5  1  8 30.0000000  0 10G 3G 4R 5G 7G16R 4G26G27G 9R 3
 121255716.54246  94484975.15346  23074194.008    23074194.066    23074199.942
        41.000          38.000
 106309053.77848  82838242.95947  20229938.623    20229938.390    20229942.735
        50.000          44.000
 119665603.734 7  93073249.244 6  22385931.565    22385930.249    22385935.893
        45.000          38.000
 125104127.19246  97483731.30945  23806523.895    23806523.142    23806527.426
        39.000          35.000
 107547879.68447  83803561.56046  20465681.367    20465681.208    20465684.337
        47.000          40.000
 103605680.426 8  80582197.123 8  19347625.281    19347625.994    19347628.307
        50.000          48.000
 117438147.65947  91510253.10046  22347735.851    22347735.796    22347743.082
        42.000          40.000
 124518198.70146  97027168.14145  23695021.624    23695021.484    23695027.847
        38.000          33.000
 112074550.23847  87330839.15448  21327076.422    21327076.497    21327081.684
        47.000          49.000
 110290837.431 8  85781776.362 7  20603254.788    20603254.493    20603258.181
        50.000          45.000
 20  5  5  1  9  0.0000000  0 10G 3G 4R 5G 7G16R 4G26G27G 9R 3
 121431098.79946  94621636.61846  23107568.165    23107568.285    23107574.015
        41.000          38.000
 106380500.09848  82893915.40047  20243534.189    20243534.301    20243538.472
        50.000          44.000
 119623467.259 7  93040476.426 6  22378048.075    22378047.474    22378053.105
        45.000          38.000
 125102084.83946  97482139.85645  23806134.745    23806134.458    23806138.602
        39.000          35.000
 107644945.63948  83879197.36546  20484152.709    20484152.332    20484155.333
        48.000          40.000
 103659272.074 8  80623879.502 8  19357632.679    19357633.874    19357636.277
        50.000          48.000
 117595667.80347  91632996.04446  22377711.037    22377711.245    22377718.207
        43.000          41.000
 124500785.03946  97013599.06645  23691707.641    23691707.191    23691714.294
        38.000          34.000
 112082198.57247  87336798.89048  21328532.019    21328531.943    21328537.235
        47.000          49.000
 110463070.610 8  85915735.463 7  20635429.575    20635429.542    20635432.575
        51.000          45.000
 20  5  5  1  9 30.0000000  0 10G 3G 4R 5G 7G16R 4G26G27G 9R 3
 121606671.58746  94758446.55046  23140977.871    23140978.913    23140984.286
        41.000          38.000
 106452384.22648  82949928.99447  20257213.374    20257213.436    20257217.595
        50.000          45.000
 119581592.670 7  93007907.302 6  22370215.082    22370213.749    22370219.887
        45.000          38.000
 125100135.63346  97480620.98945  23805763.737    23805763.265    23805767.581
        40.000          35.000
 107742637.73148  83955321.07346  20502742.824    20502742.369    20502745.586
        48.000          40.000
 103713609.037 8  80666141.572 8  19367779.719    19367780.823    19367783.292
        50.000          48.000
 117753506.04447  91755986.84546  22407747.005    22407746.737    22407753.560
        42.000          40.000
 124483588.17546  97000198.92745  23688435.361    23688435.351    23688442.350
        39.000          35.000
 112090152.46848  87342996.71948  21330045.461    21330045.470    21330050.825
        48.000          48.000
 110635816.629 8  86050093.461 7  20667700.071    20667699.902    20667702.920
        50.000          45.000
 20  5  5  1 10  0.0000000  0 10G 3G 4R 5G 7G16R 4G26G27G 9R 3
 121782416.12446  94895390.30646  23174421.692    23174422.035    23174427.752
        41.000          38.000
 106524691.18148  83006272.06447  20270972.890    20270973.019    20270977.145
        50.000          44.000
 119539967.602 7  92975532.244 6  22362427.104    22362427.018    22362433.652
        45.000          38.000
 125098263.53446  97479162.19545  23805407.648    23805407.157    23805411.447
        40.000          35.000
 107840939.21848  84031919.63446  20521449.124    20521448.462    20521451.565
        48.000          40.000
 103768677.003 8  80708972.194 8  19378063.556    19378064.699    19378066.983
        50.000          48.000
 117911643.82546  91879211.07246  22437839.105    22437839.299    22437846.254
        41.000          40.000
 124466595.56046  96986957.93445  23685200.648    23685201.271    23685208.046
        39.000          34.000
 112098398.04447  87349421.83948  21331614.529    21331614.441    21331619.880
        47.000          49.000
 110809056.750 8  86184835.748 7  20700062.422    20700062.679    20700065.789
        50.000          45.000
 20  5  5  1 10 30.0000000  0 10G 3G 4R 5G 7G16R 4G26G27G 9R 3
 121958330.18446  95032466.16146  23207896.764    23207897.149    23207903.018
        41.000          37.000
 106597422.66148  83062945.93447  20284813.411    20284813.383    20284817.569
        51.000          44.000
 119498596.913 7  92943355.039 6  22354687.505    22354688.149    22354693.896
        45.000          38.000
 125096469.03246  97477763.88445  23805066.135    23805065.355    23805070.013
        40.000          35.000
 107939849.08548  84108992.25246  20540271.256    20540270.476    20540273.580
        48.000          40.000
 103824478.410 8  80752373.278 8  19388484.067    19388485.008    19388487.448
        50.000          48.000
 118070079.39747  92002667.33446  22467988.820    22467988.734    22467995.622
        42.000          40.000
 124449811.45246  96973879.41845  23682007.864    23682007.732    23682014.186
        39.000          34.000
 112106938.17947  87356076.47748  21333239.532    21333239.491    21333245.114
        47.000          48.000
 110982788.776 8  86319960.631 7  20732517.227    20732517.266    20732520.463
        50.000          45.000
 20  5  5  1 11  0.0000000  0 10G 3G 4R 5G 7G16R 4G26G27G 9R 3
 122134420.47146  95169679.33746  23241405.788    23241406.154    23241411.718
        41.000          37.000
 106670589.27648  83119958.85947  20298736.368    20298736.601    20298740.737
        50.000          44.000
 119457494.255 7  92911386.313 6  22346998.079    22346999.268    22347004.286
        45.000          38.000
 125094763.02446  97476434.52345  23804740.639    23804740.822    23804745.439
        40.000          35.000
 108039375.71348  84186545.46646  20559210.298    20559209.923    20559212.982
        48.000          40.000
 103881024.907 8  80796353.872 8  19399044.087    19399044.583    19399047.212
        50.000          48.000
 118228819.83747  92126361.15046  22498195.997    22498196.189    22498203.058
        42.000          40.000
 124433248.97546  96960973.58345  23678855.656    23678856.003    23678862.931
        39.000          34.000
 112115784.62748  87362969.81448  21334923.041    21334922.866    21334928.522
        48.000          49.000
 111157019.672 8  86455473.527 7  20765064.554    20765064.693    20765068.295
        50.000          45.000
 20  5  5  1 11 30.0000000  0 10G 3G 4R 5G 7G16R 4G26G27G 9R 3
 122310672.72346  95307018.72046  23274945.677    23274945.804    23274951.486
        40.000          37.000
 106744180.52148  83177302.67347  20312740.599    20312740.504    20312744.741
        51.000          44.000
 119416651.716 7  92879619.885 6  22339358.616    22339358.639    22339363.891
        45.000          38.000
 125093133.49346  97475164.76145  23804431.574    23804430.996    23804435.224
        40.000          35.000
 108139505.95048  84264569.02146  20578264.698    20578264.023    20578267.075
        49.000          40.000
 103938306.588 8  80840906.280 8  19409740.661    19409741.713    19409744.237
        50.000          48.000
 118387851.18147  92250281.65846  22528459.121    22528458.712    22528465.437
        42.000          40.000
 124416900.17446  96948234.25445  23675744.556    23675745.049    23675751.747
        39.000          34.000
 112124928.08947  87370094.58248  21336663.051    21336662.838    21336668.447
        47.000          48.000
 111331735.022 8  86591363.222 7  20797703.192    20797703.169    20797706.522
        50.000          45.000
 20  5  5  1 12  0.0000000  0 10G 3G 4R 5G 7G16R 4G26G27G 9R 3
 122487093.05846  95444489.06346  23308517.057    23308517.412    23308523.329
        41.000          37.000
 106818206.41848  83234985.18147  20326827.254    20326827.164    20326831.348
        50.000          44.000
 119376082.613 7  92848066.144 6  22331770.832    22331769.332    22331773.994
        45.000          38.000
 125091590.09546  97473962.11645  23804137.819    23804137.410    23804141.268
        40.000          35.000
 108240247.73748  84343069.11346  20597435.061    20597434.415    20597437.815
        48.000          40.000
 103996334.334 8  80886038.951 8  19420577.161    19420578.142    19420580.375
        51.000          49.000
 118547179.96146  92374433.92646  22558778.251    22558777.875    22558785.077
        41.000          40.000
 124400777.61446  96935671.21845  23672676.822    23672676.729    23672683.258
        38.000          34.000
 112134379.72447  87377459.48248  21338461.428    21338461.504    21338467.074
        47.000          48.000
 111506941.099 8  86727634.586 7  20830433.103    20830433.000    20830436.852
        49.000          45.000
 20  5  5  1 12 30.0000000  0 10G 3G 4R 5G 7G16R 4G26G27G 9R 3
 122663676.80146  95582086.75346  23342119.806    23342120.139    23342126.004
        40.000          37.000
 106892666.09448  83293005.69047  20340996.393    20340996.351    20341000.540
        50.000          44.000
 119335789.267 7  92816726.887 5  22324232.743    22324230.758    22324236.788
        45.000          35.000
 125090131.35846  97472825.44545  23803860.312    23803860.045    23803863.434
        41.000          35.000
 108341597.69148  84422043.09946  20616721.368    20616720.564    20616723.964
        48.000          39.000
 104055108.226 8  80931751.964 8  19431552.817    19431553.593    19431556.039
        51.000          49.000
 118706801.85646  92498814.59346  22589153.164    22589153.059    22589159.978
        41.000          40.000
 124384882.94946  96923285.75545  23669652.672    23669652.340    23669658.484
        39.000          34.000
 112144139.86948  87385064.79048  21340319.184    21340318.840    21340324.296
        48.000          49.000
 111682633.342 8  86864284.091 7  20863254.095    20863254.329    20863257.577
        49.000          45.000
 20  5  5  1 13  0.0000000  0 10G 3G 4R 5G 7G16R 4G26G27G 9R 3
 122840426.34146  95719813.64246  23375754.509    23375754.529    23375760.494
        41.000          37.000
 106967565.79448  83351369.08247  20355249.142    20355249.162    20355253.495
        50.000          44.000
 119295780.787 7  92785609.177 6  22316747.730    22316747.408    22316752.187
        46.000          39.000
 125088762.48246  97471758.78046  23803599.141    23803599.653    23803602.946
        41.000          36.000
 108443559.35848  84501493.74446  20636123.941    20636123.323    20636126.546
        48.000          40.000
 104114635.256 8  80978050.746 8  19442668.915    19442669.889    19442672.391
        51.000          48.000
 118866719.60647  92623425.80846  22619584.614    22619584.209    22619591.445
        42.000          39.000
 124369224.96246  96911084.72145  23666672.853    23666672.951    23666678.810
        39.000          34.000
 112154215.97148  87392916.29348  21342236.513    21342236.368    21342241.642
        48.000          49.000
 111858814.095 8  87001313.534 7  20896166.042    20896165.665    20896169.596
        50.000          45.000
 20  5  5  1 13 30.0000000  0 10G 3G 4R 5G 7G16R 4G26G27G 9R 3
 123017328.35846  95857659.31446  23409417.636    23409417.695    23409423.942
        40.000          37.000
 107042895.97048  83410067.90747  20369584.052    20369584.116    20369588.365
        50.000          44.000
 119256050.775 7  92754708.076 6  22309315.383    22309315.201    22309320.155
        46.000          39.000
 125087473.26646  97470754.19945  23803354.624    23803354.406    23803357.466
        40.000          35.000
 108546120.95848  84581411.86946  20655640.681    20655640.246    20655643.415
        48.000          40.000
 104174906.343 8  81024928.249 8  19453924.324    19453925.125    19453927.578
        50.000          48.000
 119026920.26246  92748257.45146  22650069.146    22650069.126    22650076.716
        41.000          39.000
 124353796.69846  96899062.72345  23663736.733    23663736.492    23663743.191
        39.000          34.000
 112164599.69148  87401007.50348  21344212.670    21344212.370    21344217.634
        48.000          49.000
 112035469.812 8  87138712.403 7  20929167.214    20929166.825    20929170.578
        49.000          45.000
 20  5  5  1 14  0.0000000  0 10G 3G 4R 5G 7G16R 4G26G27G 9R 3
 121618970.32246  94768029.63446  23143319.439    23143319.158    23143325.115
        40.000          37.000
 105543244.48548  82241508.29647  20084210.005    20084209.951    20084214.144
        49.000          44.000
 117614043.657 7  91477591.422 6  22002144.467    22002144.395    22002148.817
        46.000          39.000
 123510848.70146  96242215.57346  23503332.809    23503332.846    23503336.056
        41.000          36.000
 107073868.85048  83434202.43046  20375480.605    20375479.993    20375483.088
        48.000          40.000
 102630554.609 8  79823765.769 8  19165526.976    19165528.127    19165530.750
        51.000          48.000
 117611991.15447  91645715.26146  22380817.877    22380817.715    22380824.223
        42.000          39.000
 122763185.59246  95659625.48645  23361053.072    23361052.982    23361060.094
        39.000          34.000
 110599877.98748  86181743.82748  21046455.626    21046455.762    21046460.960
        48.000          49.000
 110607795.508 8  86028299.029 7  20662465.332    20662465.450    20662468.752
        49.000          45.000
 20  5  5  1 14 30.0000000  0 10G 3G 4R 5G 7G16R 4G26G27G 9R 3
 121796171.94946  94906108.79346  23177039.468    23177039.563    23177045.593
        40.000          36.000
 105619441.67948  82300882.72347  20098709.967    20098709.705    20098714.044
        50.000          44.000
 117574885.496 7  91447135.080 6  21994819.007    21994818.295    21994823.895
        46.000          39.000
 123509723.67246  96241338.93446  23503118.675    23503118.275    23503121.963
        40.000          36.000
 107177628.81148  83515054.34346  20395225.414    20395224.894    20395228.037
        48.000          40.000
 102692322.149 8  79871807.172 8  19177062.076    19177062.999    19177065.355
        51.000          49.000
 117772753.43246  91770984.54846  22411410.054    22411409.703    22411416.575
        41.000          39.000
 122748230.64846  95647972.29745  23358208.207    23358207.383    23358214.193
        39.000          35.000
 110610886.73648  86190322.06848  21048550.545    21048550.649    21048555.853
        48.000          50.000
 110785395.970 8  86166432.694 7  20695642.558    20695642.183    20695646.081
        49.000          44.000
 20  5  5  1 15  0.0000000  0 10G 3G 4R 5G 7G16R 4G26G27G 9R 3
 121973519.51746  95044301.65746  23210787.254    23210787.663    23210794.049
        41.000          37.000
 105696074.11348  82360596.29347  20113292.495    20113292.539    20113296.650
        51.000          44.000
 117536019.785 7  91416906.200 6  21987547.416    21987547.891    21987553.367
        46.000          39.000
 123508681.19046  96240526.61446  23502920.234    23502919.825    23502923.493
        40.000          36.000
 107281986.16248  83596371.75546  20415083.996    20415083.494    20415086.682
        48.000          40.000
 102754840.451 8  79920432.505 8  19188736.729    19188737.734    19188740.219
        51.000          48.000
 117933793.23846  91896470.08346  22442054.588    22442054.712    22442061.514
        41.000          39.000
 122733518.01646  95636507.91045  23355407.809    23355407.647    23355414.781
        39.000          35.000
 110622211.59548  86199146.62948  21050705.745    21050705.728    21050710.872
        48.000          49.000
 110963465.067 8  86304930.858 7  20728907.953    20728907.489    20728910.755
        49.000          44.000
 20  5  5  1 15 30.0000000  0 10G 3G 4R 5G 7G16R 4G26G27G 9R 3
 122151018.66646  95182612.62946  23244564.183    23244564.917    23244570.990
        40.000          36.000
 105773151.21648  82420656.36447  20127959.674    20127959.766    20127963.915
        51.000          44.000
 117497459.310 7  91386914.715 6  21980335.593    21980334.675    21980339.553
        47.000          39.000
 123507730.00146  96239785.42746  23502739.106    23502738.781    23502742.605
        41.000          36.000
 107386947.81048  83678160.04946  20435057.539    20435057.035    20435060.067
        48.000          40.000
 102818119.958 8  79969649.881 8  19200553.991    19200554.828    19200557.351
        51.000          48.000
 118095116.47947  92022176.47946  22472753.284    22472753.368    22472760.138
        42.000          39.000
 122719059.65846  95625241.68445  23352656.388    23352656.017    23352663.018
        38.000          35.000
 110633863.26148  86208225.84448  21052923.119    21052922.949    21052928.178
        48.000          50.000
 111142008.089 8  86443797.627 7  20762260.874    20762260.676    20762264.137
        49.000          44.000
 20  5  5  1 16  0.0000000  0 10G 3G 4R 5G 7G16R 4G26G27G 9R 3
 122328652.40546  95321028.49546  23278367.047    23278367.431    23278373.229
        40.000          36.000
 105850659.79848  82481052.65347  20142709.194    20142709.066    20142713.315
        50.000          44.000
 117459193.728 7  91357152.600 6  21973176.557    21973176.595    21973180.510
        47.000          39.000
 123506856.27546  96239104.59745  23502572.682    23502572.329    23502576.444
        40.000          35.000
 107492497.80348  83760406.79446  20455143.079    20455142.692    20455145.694
        49.000          40.000
 102882147.527 8  80019449.084 8  19212510.644    19212511.485    19212514.069
        51.000          49.000
 118256706.63247  92148090.85446  22503503.003    22503503.029    22503510.037
        42.000          39.000
 122704845.12346  95614165.44245  23349951.801    23349951.235    23349957.733
        40.000          34.000
 110645829.81948  86217550.42748  21055200.268    21055200.107    21055205.269
        48.000          49.000
 111321007.886 8  86583019.664 7  20795699.883    20795699.472    20795703.008
        49.000          44.000
 20  5  5  1 16 30.0000000  0 10G 3G 4R 5G 7G16R 4G26G27G 9R 3
 122506423.42946  95459551.33145  23312195.516    23312196.269    23312201.758
        40.000          35.000
 105928606.20448  82541790.10247  20157541.824    20157541.673    20157546.062
        50.000          44.000
 117421232.627 7  91327627.313 6  21966074.636    21966074.272    21966079.313
        47.000          39.000
 123506066.47446  96238489.16646  23502422.404    23502422.259    23502426.242
        40.000          36.000
 107598640.47348  83843115.36546  20475341.213    20475340.665    20475343.838
        49.000          40.000
 102946930.446 8  80069835.782 8  19224608.608    19224609.351    19224611.757
        51.000          48.000
 118418566.69947  92274215.55846  22534303.867    22534303.825    22534310.595
        42.000          39.000
 122690883.29346  95603286.11745  23347294.649    23347294.914    23347300.836
        39.000          35.000
 110658118.88848  86227126.31748  21057538.725    21057538.609    21057543.804
        49.000          50.000
 111500467.011 8  86722598.954 7  20829224.283    20829224.003    20829227.423
        49.000          44.000
 20  5  5  1 17  0.0000000  0 10G 3G 4R 5G 7G16R 4G26G27G 9R 3
 122684330.93246  95598180.51646  23346051.024    23346051.146    23346056.636
        40.000          36.000
 106006993.38948  82602871.01047  20172458.394    20172458.255    20172462.688
        49.000          44.000
 117383582.221 7  91298343.643 6  21959031.334    21959030.685    21959035.554
        46.000          39.000
 123505362.40646  96237940.54046  23502288.304    23502288.421    23502292.155
        40.000          36.000
 107705375.57048  83926285.56846  20495652.102    20495651.892    20495654.798
        48.000          40.000
 103012472.204 8  80120812.692 8  19236847.615    19236848.607    19236851.234
        51.000          48.000
 118580696.27846  92400550.27446  22565156.323    22565156.211    22565163.017
        41.000          39.000
 122677179.79946  95592608.09445  23344687.119    23344687.226    23344693.441
        40.000          34.000
 110670734.74248  86236956.84448  21059939.527    21059939.363    21059944.540
        48.000          50.000
 111680384.802 8  86862534.987 7  20862834.210    20862834.212    20862837.622
        49.000          44.000
 20  5  5  1 17 30.0000000  0 10G 3G 4R 5G 7G16R 4G26G27G 9R 3
 122862367.13546  95736909.98446  23379929.827    23379930.477    23379935.909
        41.000          36.000
 106085817.27848  82664292.20847  20187458.077    20187457.994    20187462.432
        49.000          44.000
 117346241.509 7  91269300.859 6  21952045.106    21952044.504    21952049.936
        46.000          39.000
 123504739.53546  96237455.18946  23502170.063    23502169.905    23502173.842
        40.000          36.000
 107812696.92248  84009912.58946  20516074.797    20516074.301    20516077.411
        48.000          40.000
 103078769.199 8  80172377.008 8  19249228.577    19249229.257    19249231.738
        51.000          49.000
 118743087.97146  92527089.22446  22596057.964    22596058.287    22596064.854
        41.000          38.000
 122663733.21546  95582130.24945  23342127.826    23342127.634    23342134.935
        38.000          35.000
 110683674.60148  86247039.83948  21062401.851    21062401.711    21062406.964
        48.000          50.000
 111860753.060 8  87002821.386 7  20896528.657    20896528.603    20896531.803
        49.000          44.000
 20  5  5  1 18  0.0000000  0 10G 3G 4R 5G 7G16R 4G26G27G 9R 3
 123040528.71746  95875737.15045  23413832.890    23413833.412    23413839.004
        40.000          35.000
 106165078.23448  82726053.98147  20202540.810    20202541.004    20202545.317
        49.000          44.000
 117309214.177 7  91240501.817 6  21945119.337    21945118.293    21945123.485
        46.000          39.000
 123504196.83546  96237032.31046  23502066.838    23502066.709    23502070.797
        41.000          36.000
 107920602.19348  84093994.61646  20536608.478    20536607.922    20536611.035
        48.000          39.000
 103145822.086 8  80224529.243 8  19261749.637    19261750.846    19261753.415
        50.000          48.000
 118905738.80446  92653830.10446  22627009.892    22627009.817    22627015.994
        41.000          38.000
 122650546.55646  95571854.95045  23339618.327    23339618.398    23339625.729
        38.000          35.000
 110696940.16448  86257376.62948  21064926.341    21064926.106    21064931.320
        48.000          50.000
 112041568.361 8  87143455.473 7  20930306.578    20930306.310    20930309.765
        50.000          44.000
 20  5  5  1 18 30.0000000  0 10G 3G 4R 5G 7G16R 4G26G27G 9R 3
 123218816.21746  96014662.44345  23447759.728    23447760.573    23447765.972
        39.000          35.000
 106244780.48548  82788159.62047  20217707.838    20217707.928    20217712.161
        50.000          44.000
 117272507.545 7  91211952.227 6  21938251.772    21938250.192    21938257.064
        45.000          39.000
 123503738.88346  96236675.45946  23501979.351    23501979.547    23501983.305
        40.000          36.000
 108029093.16848  84178533.03246  20557253.675    20557253.151    20557256.321
        48.000          39.000
 103213635.810 8  80277273.230 8  19274413.715    19274414.489    19274417.093
        51.000          48.000
 119068649.71147  92780773.65146  22658011.101    22658010.899    22658017.510
        42.000          38.000
 122637626.74346  95561787.58745  23337159.330    23337159.452    23337167.202
        39.000          35.000
 110710536.93948  86267971.51448  21067513.314    21067513.431    21067518.696
        49.000          50.000
 112222830.942 8  87284437.453 7  20964167.854    20964167.839    20964171.174
        49.000          44.000
 20  5  5  1 19  0.0000000  0 10G 3G 4R 5G 7G16R 4G26G27G 9R 3
 123397221.60346  96153679.58946  23481709.476    23481709.998    23481715.380
        40.000          36.000
 106324919.66648  82850605.72647  20232957.671    20232957.880    20232962.191
        50.000          44.000
 117236120.518 7  91183651.209 6  21931444.970    21931443.924    21931450.241
        46.000          39.000
 123503361.02246  96236381.03546  23501907.759    23501907.874    23501911.615
        41.000          36.000
 108138162.89748  84263522.42146  20578008.815    20578008.468    20578011.527
        48.000          39.000
 103282206.224 8  80330605.755 8  19287218.993    19287219.717    19287222.309
        51.000          49.000
 119231813.04746  92907913.86746  22689059.500    22689059.705    22689066.584
        40.000          38.000
 122624972.00846  95551926.77146  23334752.210    23334752.440    23334759.066
        39.000          36.000
 110724461.93448  86278822.14548  21070163.320    21070163.122    21070168.505
        48.000          50.000
 112404532.853 8  87425761.135 7  20998111.092    20998111.428    20998114.406
        49.000          44.000
 20  5  5  1 19 30.0000000  0 10G 3G 4R 5G 7G16R 4G26G27G 9R 3
 123575749.08446  96292791.87546  23515681.808    23515682.704    23515688.245
        40.000          36.000
 106405503.59248  82913398.38647  20248292.421    20248292.445    20248296.690
        51.000          44.000
 117200064.368 7  91155607.527 6  21924701.248    21924699.119    21924705.190
        46.000          39.000
 123503070.32846  96236154.52646  23501852.141    23501852.501    23501856.028
        41.000          37.000
 108247816.64748  84348966.89546  20598875.275    20598874.616    20598878.026
        48.000          39.000
 103351541.668 8  80384533.312 8  19300167.233    19300167.717    19300170.232
        51.000          48.000
 119395233.37946  93035254.34246  22720157.697    22720157.584    22720164.314
        41.000          38.000
 122612593.00446  95542280.82046  23332396.415    23332396.843    23332403.164
        40.000          37.000
 110738724.35448  86289935.71048  21072877.257    21072877.135    21072882.561
        48.000          50.000
 112586677.925 8  87567429.495 7  21032138.199    21032137.820    21032140.962
        49.000          44.000
 20  5  5  1 20  0.0000000  0 10G 3G 4R 5G 7G16R 4G26G27G 9R 3
 123754392.54846  96431994.53245  23549676.387    23549677.359    23549683.252
        39.000          35.000
 106486529.82848  82976535.70147  20263711.227    20263711.214    20263715.592
        49.000          44.000
 117164339.847 7  91127821.792 6  21918017.419    21918015.661    21918022.528
        46.000          39.000
 123502863.46646  96235993.33646  23501813.452    23501813.366    23501816.716
        40.000          37.000
 108358049.37048  84434862.51646  20619852.281    20619851.675    20619854.680
        48.000          40.000
 103421640.144 8  80439054.327 8  19313257.288    19313258.299    19313260.563
        51.000          49.000
 119558904.94346  93162790.59646  22751303.080    22751303.502    22751310.090
        41.000          38.000
 122600489.82446  95532849.79846  23330093.230    23330093.409    23330100.344
        40.000          36.000
 110753323.05648  86301311.31748  21075655.117    21075655.046    21075660.649
        48.000          49.000
 112769259.680 8  87709437.490 7  21066245.191    21066245.169    21066248.658
        49.000          44.000
 20  5  5  1 20 30.0000000  0 10G 3G 4R 5G 7G16R 4G26G27G 9R 3
 123933154.78446  96571289.75345  23583694.251    23583694.662    23583700.671
        39.000          35.000
 106568004.78848  83040022.66847  20279215.351    20279215.296    20279219.763
        50.000          44.000
 117128956.822 7  91100301.669 6  21911398.046    21911397.249    21911402.704
        46.000          40.000
 123502746.38047  96235902.10946  23501791.456    23501791.149    23501794.634
        42.000          38.000
 108468864.76548  84521212.17246  20640939.501    20640938.872    20640942.169
        48.000          40.000
 103492508.511 8  80494174.155 8  19326491.368    19326492.519    19326494.735
        51.000          48.000
 119722830.94646  93290525.11046  22782497.510    22782497.594    22782504.193
        41.000          39.000
 122588671.67646  95523640.87846  23327844.103    23327844.590    23327851.162
        40.000          36.000
 110768265.82748  86312955.02748  21078498.537    21078498.585    21078504.163
        48.000          50.000
 112952281.093 8  87851787.458 7  21100435.119    21100435.116    21100438.848
        49.000          44.000
 20  5  5  1 21  0.0000000  0 10G 3G 4R 5G 7G16R 4G26G27G 9R 3
 124112025.03346  96710669.11945  23617731.482    23617732.340    23617738.811
        39.000          35.000
 106649921.28848  83103853.69347  20294803.539    20294803.623    20294808.041
        50.000          44.000
 117093911.270 7  91073044.024 6  21904843.080    21904841.336    21904847.605
        46.000          40.000
 123502711.85946  96235875.21446  23501784.505    23501784.505    23501788.107
        41.000          38.000
 108580253.39048  84608008.49246  20662135.999    20662135.598    20662138.578
        48.000          40.000
 103564139.800 8  80549887.360 8  19339868.212    19339869.032    19339871.376
        51.000          49.000
 119887000.98247  93418449.78746  22813738.176    22813737.841    22813744.863
        42.000          38.000
 122577134.12946  95514650.61046  23325647.640    23325647.851    23325655.676
        38.000          36.000
 110783546.94748  86324862.38448  21081406.766    21081406.615    21081412.123
        49.000          50.000
 113135730.731 8  87994470.473 7  21134705.515    21134705.223    21134708.784
        49.000          44.000
 20  5  5  1 21 30.0000000  0 10G 3G 4R 5G 7G16R 4G26G27G 9R 3
 124290998.53246  96850128.94945  23651790.315    23651789.978    23651796.253
        39.000          35.000
 106732278.17348  83168027.88547  20310475.482    20310475.551    20310479.905
        50.000          44.000
 117059205.465 7  91046050.622 6  21898349.938    21898349.019    21898354.506
        47.000          40.000
 123502757.57846  96235910.84246  23501793.213    23501792.995    23501796.742
        41.000          38.000
 108692211.35448  84695248.45846  20683440.900    20683440.349    20683443.532
        48.000          39.000
 103636533.203 8  80606193.315 8  19353386.676    19353387.978    19353390.365
        51.000          48.000
 120051410.67046  93546561.19146  22845024.366    22845023.912    22845030.697
        41.000          38.000
 122565878.67446  95505880.14346  23323506.868    23323506.993    23323513.574
        40.000          36.000
 110799166.60348  86337033.53648  21084379.181    21084379.067    21084384.443
        48.000          50.000
 113319603.800 8  88137482.835 7  21169054.290    21169054.020    21169058.688
        48.000          43.000
 20  5  5  1 22  0.0000000  0 10G 3G 4R 5G 7G16R 4G26G27G 9R 3
 124470073.40746  96989667.76745  23685866.293    23685866.704    23685873.321
        39.000          35.000
 106815077.13048  83232546.54447  20326231.449    20326231.651    20326236.061
        50.000          43.000
 117024844.435 7  91019325.374 6  21891922.139    21891921.000    21891926.731
        47.000          40.000
 123502885.34747  96236010.39646  23501817.372    23501817.109    23501821.177
        42.000          37.000
 108804737.90248  84782931.48046  20704854.192    20704853.592    20704856.684
        48.000          39.000
 103709690.502 8  80663093.423 8  19367048.558    19367049.573    19367052.097
        51.000          48.000
 120216058.52647  93674858.19446  22876355.560    22876355.662    22876362.367
        42.000          38.000
 122554909.77046  95497332.96446  23321418.697    23321419.545    23321426.493
        39.000          36.000
 110815127.89648  86349470.90148  21087416.397    21087416.545    21087421.863
        48.000          50.000
 113503897.995 8  88280822.749 7  21203481.929    21203482.076    21203485.481
        49.000          43.000
 20  5  5  1 22 30.0000000  0 10G 3G 4R 5G 7G16R 4G26G27G 9R 3
 124649251.83246  97129287.27145  23719962.415    23719963.032    23719969.971
        39.000          35.000
 106898323.94348  83297414.18147  20342072.999    20342073.065    20342077.384
        50.000          44.000
 116990837.421 7  90992875.477 6  21885560.523    21885559.695    21885565.523
        47.000          40.000
 123503100.45746  96236178.01546  23501857.708    23501857.677    23501861.835
        41.000          37.000
 108917835.70747  84871059.62646  20726375.733    20726375.293    20726378.502
        47.000          39.000
 103783617.939 8  80720592.526 8  19380853.762    19380854.964    19380857.444
        51.000          49.000
 120380947.11246  93803342.78146  22907732.612    22907732.896    22907739.755
        41.000          38.000
 122544235.88646  95489015.66745  23319388.446    23319388.336    23319395.402
        39.000          35.000
 110831437.98848  86362180.06048  21090520.337    21090520.390    21090525.613
        49.000          50.000
 113688615.378 8  88424491.793 7  21237989.338    21237988.375    21237992.585
        48.000          43.000
 20  5  5  1 23  0.0000000  0 10G 3G 4R 5G 7G16R 4G26G27G 9R 3
 124828526.82546  97268982.03445  23754078.015    23754077.838    23754084.395
        39.000          34.000
 106982015.12148  83362628.07847  20357999.019    20357999.136    20358003.315
        50.000          44.000
 116957184.195 7  90966700.742 6  21879265.059    21879264.359    21879269.739
        47.000          40.000
 123503398.96646  96236410.62146  23501914.942    23501914.685    23501918.758
        41.000          37.000
 109031498.92648  84959628.36646  20748005.228    20748004.529    20748007.669
        48.000          39.000
 103858312.087 8  80778687.963 8  19394802.380    19394803.528    19394805.919
        51.000          49.000
 120546069.80246  93932009.77346  22939154.653    22939154.783    22939161.799
        41.000          39.000
 122533856.32346  95480927.72846  23317413.301    23317412.693    23317419.902
        38.000          36.000
 110848094.87548  86375159.43848  21093690.103    21093690.135    21093695.319
        49.000          51.000
 113873748.387 8  88568484.114 7  21272573.129    21272573.221    21272576.971
        48.000          43.000
 20  5  5  1 23 30.0000000  0 10G 3G 4R 5G 7G16R 4G26G27G 9R 3
 125007892.69046  97408747.59845  23788210.071    23788210.073    23788216.862
        38.000          34.000
 107066148.54448  83428186.57547  20374009.159    20374009.164    20374013.401
        50.000          44.000
 116923885.912 7  90940802.079 6  21873035.143    21873035.279    21873040.778
        47.000          40.000
 123503778.27847  96236706.18946  23501986.646    23501987.051    23501990.649
        42.000          38.000
 109145722.81848  85048633.98446  20769741.186    20769740.691    20769743.885
        48.000          38.000
 103933771.135 8  80837378.311 8  19408893.804    19408895.073    19408897.616
        51.000          48.000
 120711421.33346  94060855.08846  22970619.801    22970619.931    22970626.973
        40.000          37.000
 122523771.71046  95473069.59946  23315494.569    23315494.060    23315501.009
        38.000          36.000
 110865097.85748  86388408.50748  21096925.716    21096925.620    21096930.956
        49.000          51.000
 114059291.055 8  88712795.048 7  21307234.058    21307233.802    21307238.068
        48.000          44.000
 20  5  5  1 24  0.0000000  0 10G 3G 4R 5G 7G16R 4G26G27G 9R 3
 125187354.06646  97548587.58945  23822359.381    23822360.475    23822367.093
        38.000          33.000
 107150732.31448  83494095.99447  20390104.727    20390104.996    20390109.079
        50.000          43.000
 116890954.467 7  90915188.725 6  21866874.776    21866874.137    21866880.097
        47.000          40.000
 123504246.17946  96237070.77946  23502076.310    23502076.361    23502079.532
        41.000          37.000
 109260513.00148  85138080.87546  20791585.011    20791584.611    20791587.939
        48.000          38.000
 104010003.401 8  80896670.057 8  19423130.193    19423130.903    19423133.516
        51.000          48.000
 120877006.65846  94189882.58546  23002129.883    23002129.746    23002136.876
        40.000          37.000
 122513992.90046  95465449.75646  23313633.200    23313633.344    23313639.851
        38.000          36.000
 110882456.48648  86401934.70348  21100228.854    21100228.717    21100234.156
        48.000          51.000
 114245247.868 8  88857428.098 7  21341972.246    21341972.482    21341976.144
        48.000          44.000
 20  5  5  1 24 30.0000000  0 10G 3G 4R 5G 7G16R 4G26G27G 9R 3
 123791492.60946  96460903.31145  23556736.332    23556736.525    23556743.108
        38.000          33.000
 105660348.48148  82332757.93047  20106494.327    20106494.375    20106498.522
        49.000          44.000
 115255828.935 7  89643424.420 6  21560990.465    21560989.893    21560996.047
        47.000          40.000
 121929381.17147  95009903.24446  23202389.556    23202389.445    23202392.535
        42.000          38.000
 107800449.77248  84000369.25746  20513744.131    20513743.746    20513746.966
        48.000          39.000
 102481635.865 8  79707939.732 8  19137718.341    19137719.117    19137721.498
        51.000          48.000
 119467407.44046  93091493.55745  22733892.534    22733892.250    22733898.808
        41.000          31.000
 120929101.62446  94230469.57146  23012038.785    23012037.974    23012045.296
        39.000          37.000
 109324752.01648  85188139.00348  20803807.601    20803807.475    20803812.806
        48.000          50.000
 112826807.795 8  87754196.900 7  21076996.325    21076995.850    21076999.512
        48.000          43.000
 20  5  5  1 25  0.0000000  0 11G 8G 3G 4R 5G 7G16R 4G26G27G 9R 3
 126852528.04845                  24139229.641
        34.000
 123971135.02246  96600884.36945  23590921.092    23590921.263    23590928.296
        38.000          33.000
 105745833.51548  82399369.63247  20122761.611    20122761.507    20122765.865
        49.000          43.000
 115223641.974 7  89618390.127 6  21554967.810    21554968.712    21554974.780
        47.000          40.000
 121930025.13747  95010405.04046  23202512.144    23202512.278    23202515.037
        42.000          37.000
 107916364.81047  84090692.66046  20535802.278    20535801.493    20535805.025
        47.000          39.000
 102559415.667 8  79768435.121 8  19152243.235    19152243.660    19152246.423
        51.000          48.000
 119633451.63046  93220878.61145  22765489.779    22765489.466    22765496.307
        41.000          31.000
 120919943.35346  94223333.27546  23010295.770    23010296.066    23010302.773
        41.000          37.000
 109342826.90548  85202223.32448  20807246.894    20807247.082    20807252.269
        48.000          51.000
 113013581.517 8  87899465.326 7  21111887.068    21111886.556    21111891.074
        48.000          43.000
 20  5  5  1 25 30.0000000  0 11G 8G 3G 4R 5G 7G16R 4G26G27G 9R 3
 126822279.76245  98822559.20144  24133472.762    24133473.211    24133481.056
        35.000          28.000
 124150864.58946  96740933.33545  23625123.208    23625122.635    23625129.312
        37.000          33.000
 105831770.96648  82466333.87047  20139114.877    20139114.891    20139119.241
        50.000          43.000
 115191834.110 7  89593650.664 6  21549019.365    21549018.376    21549025.040
        47.000          40.000
 121930758.27247  95010976.33046  23202651.335    23202651.718    23202654.716
        42.000          38.000
 108032840.26748  84181452.75046  20557966.611    20557966.317    20557969.605
        48.000          39.000
 102637971.173 8  79829533.833 8  19166912.222    19166913.398    19166916.030
        50.000          49.000
 119799722.40546  93350440.19444  22797129.109    22797128.956    22797137.340
        40.000          26.000
 120911101.33546  94216443.41146  23008612.574    23008613.031    23008619.901
        41.000          38.000
 109361263.86748  85216589.78248  20810755.453    20810755.448    20810760.629
        48.000          51.000
 113200760.087 8  88045048.630 7  21146853.426    21146853.564    21146857.166
        48.000          43.000
 20  5  5  1 26  0.0000000  0 11G 8G 3G 4R 5G 7G16R 4G26G27G 9R 3
 126792049.80045  98799003.40444  24127720.704    24127721.184    24127728.844
        34.000          26.000
 124330677.07246  96881046.92445  23659339.161    23659339.853    23659346.852
        37.000          32.000
 105918160.17148  82533650.11647  20155554.155    20155554.122    20155558.603
        49.000          44.000
 115160408.286 8  89569208.350 6  21543142.044    21543139.866    21543145.864
        48.000          40.000
 121931580.02646  95011616.65846  23202808.210    23202808.048    23202810.794
        41.000          38.000
 108149872.85448  84272646.96646  20580237.383    20580237.027    20580240.067
        48.000          39.000
 102717301.735 8  79891235.358 8  19181726.861    19181728.046    19181730.427
        50.000          49.000
 119966216.00246  93480175.43344  22828811.998    22828811.769    22828819.326
        40.000          26.000
 120902577.65046  94209801.60546  23006990.874    23006990.867    23006997.878
        41.000          38.000
 109380063.80548  85231239.08448  20814332.940    20814332.852    20814338.147
        48.000          51.000
 113388338.543 8  88190942.953 7  21181894.992    21181895.123    21181898.230
        48.000          43.000
 20  5  5  1 26 30.0000000  0 11G 8G 3G 4R 5G 7G16R 4G26G27G 9R 3
 126761835.12045  98775459.46344  24121971.777    24121970.915    24121978.511
        35.000          27.000
 124510563.73046  97021218.30045  23693570.718    23693570.988    23693578.322
        36.000          32.000
 106004995.72248  82601314.17447  20172078.615    20172078.478    20172082.881
        50.000          44.000
 115129362.501 7  89545061.633 6  21537331.968    21537332.249    21537337.820
        47.000          41.000
 121932484.55947  95012321.48946  23202980.375    23202979.951    23202982.984
        42.000          37.000
 108267454.39448  84364268.94346  20602612.535    20602612.111    20602615.076
        48.000          39.000
 102797401.944 8  79953535.506 8  19196684.989    19196686.092    19196688.601
        50.000          48.000
 120132923.98146  93610077.72644  22860535.863    22860535.403    22860542.415
        40.000          25.000
 120894369.69747  94203405.81646  23005429.590    23005429.480    23005436.177
        42.000          39.000
 109399222.72948  85246168.11148  20817978.791    20817978.583    20817984.025
        48.000          51.000
 113576307.642 8  88337141.119 7  21217008.887    21217009.511    21217012.429
        48.000          43.000
 20  5  5  1 27  0.0000000  0 11G 8G 3G 4R 5G 7G16R 4G26G27G 9R 3
 126731651.16745  98751939.55844  24116227.963    24116227.641    24116234.649
        34.000          25.000
 124690533.94946  97161454.79945  23727818.852    23727818.243    23727825.612
        37.000          32.000
 106092290.48848  82669336.05547  20188689.972    20188690.117    20188694.531
        50.000          44.000
 115098713.449 7  89521223.482 6  21531599.202    21531598.978    21531604.506
        47.000          41.000
 121933484.45846  95013100.63846  23203170.337    23203169.891    23203173.518
        41.000          37.000
 108385595.12848  84456326.65046  20625093.851    20625093.363    20625096.502
        48.000          39.000
 102878284.975 8  80016444.510 8  19211789.735    19211790.257    19211792.989
        50.000          49.000
 120299856.23446  93740154.78244  22892302.173    22892301.731    22892308.700
        40.000          25.000
 120886493.20146  94197268.31446  23003930.609    23003930.810    23003937.026
        41.000          38.000
 109418755.09548  85261388.12448  20821695.554    20821695.489    20821700.871
        48.000          50.000
 113764676.771 7  88483650.407 7  21252198.047    21252197.547    21252201.674
        47.000          42.000
 20  5  5  1 27 30.0000000  0 11G 8G 3G 4R 5G 7G16R 4G26G27G 9R 3
 126701485.48945  98728433.79444  24110488.346    24110487.360    24110493.509
        34.000          25.000
 124870569.01246  97301741.81145  23762077.972    23762077.680    23762085.379
        37.000          32.000
 106180029.05848  82737703.76447  20205386.209    20205386.241    20205390.569
        49.000          43.000
 115068448.882 7  89497684.370 6  21525937.516    21525936.947    21525943.071
        47.000          41.000
 121934563.90246  95013941.76646  23203375.651    23203374.487    23203378.932
        41.000          37.000
 108504276.81748  84548805.88046  20647678.232    20647677.752    20647680.930
        48.000          39.000
 102959934.990 8  80079950.057 8  19227037.136    19227038.044    19227040.569
        50.000          48.000
 120466994.33046  93870392.21644  22924106.934    22924107.239    22924114.707
        40.000          25.000
 120878935.60246  94191379.30446  23002492.005    23002492.120    23002499.006
        41.000          39.000
 109438647.01448  85276888.30948  20825480.922    20825480.844    20825486.152
        49.000          51.000
 113953426.204 8  88630455.500 7  21287457.560    21287457.220    21287461.079
        48.000          42.000
 20  5  5  1 28  0.0000000  0 11G 8G 3G 4R 5G 7G16R 4G26G27G 9R 3
 126671349.69745  98704951.41744  24104751.853    24104752.489    24104759.127
        34.000          24.000
 125050674.87846  97442083.99945  23796350.616    23796351.019    23796358.057
        37.000          32.000
 106268220.87048  82806424.64347  20222168.449    20222168.606    20222172.879
        49.000          43.000
 115038581.835 7  89474454.442 6  21520349.699    21520349.371    21520355.965
        47.000          41.000
 121935731.99346  95014851.96646  23203597.633    23203596.709    23203601.268
        39.000          37.000
 108623506.32248  84641711.97746  20670366.607    20670366.345    20670369.384
        48.000          39.000
 103042361.639 8  80144059.658 8  19242429.832    19242430.600    19242433.293
        50.000          48.000
 120634344.68046  94000795.05144  22955952.496    22955953.298    22955959.345
        40.000          25.000
 120871709.04146  94185748.25046  23001117.611    23001117.558    23001123.606
        41.000          38.000
 109458909.27548  85292677.06948  20829336.711    20829336.563    20829341.933
        48.000          51.000
 114142561.641 7  88777560.816 7  21322788.875    21322789.559    21322793.120
        47.000          42.000
 20  5  5  1 28 30.0000000  0 11G 8G 3G 4R 5G 7G16R 4G26G27G 9R 3
 126641242.86045  98681491.56944  24099023.269    24099023.890    24099030.576
        33.000          24.000
 125230844.46246  97582475.82245  23830635.745    23830635.843    23830643.653
        37.000          32.000
 106356862.18748  82875495.79047  20239036.528    20239036.462    20239040.779
        50.000          44.000
 115009112.153 8  89451533.585 6  21514836.612    21514836.517    21514842.961
        48.000          41.000
 121936984.65346  95015828.06746  23203835.346    23203835.248    23203839.764
        41.000          37.000
 108743277.19548  84735039.91846  20693158.689    20693158.235    20693161.201
        48.000          39.000
 103125561.044 8  80208770.289 8  19257966.697    19257967.633    19257970.117
        50.000          48.000
 120801900.58246  94131358.05444  22987837.891    22987838.053    22987844.990
        40.000          26.000
 120864812.62446  94180374.45546  22999804.146    22999804.109    22999810.993
        41.000          37.000
 109479539.93948  85308752.90248  20833262.600    20833262.507    20833267.801
        49.000          51.000
 114332075.642 7  88924960.559 7  21358192.902    21358192.493    21358196.064
        47.000          42.000
 20  5  5  1 29  0.0000000  0 11G 8G 3G 4R 5G 7G16R 4G26G27G 9R 3
 126611182.53545  98658067.95144  24093303.422    24093303.439    24093310.367
        33.000          24.000
 125411089.33746  97722926.33545  23864935.875    23864935.916    23864942.583
        37.000          33.000
 106445967.84348  82944928.76047  20255992.755    20255992.811    20255997.003
        49.000          43.000
 114980058.594 7  89428936.366 6  21509400.990    21509401.814    21509408.196
        47.000          41.000
 121938336.49947  95016881.45546  23204093.358    23204093.123    23204096.823
        42.000          37.000
 108863602.11148  84828799.58246  20716055.387    20716054.958    20716058.414
        48.000          39.000
 103209548.051 8  80274093.498 8  19273650.515    19273651.364    19273654.146
        50.000          48.000
 120969673.94946  94262090.50844  23019764.396    23019764.303    23019771.537
        41.000          26.000
 120858264.17546  94175271.79546  22998558.241    22998558.509    22998564.919
        40.000          38.000
 109500555.30748  85325128.50348  20837261.494    20837261.605    20837266.833
        49.000          51.000
 114521979.375 7  89072663.434 6  21393668.045    21393667.858    21393671.501
        47.000          41.000
 20  5  5  1 29 30.0000000  0 11G 8G 3G 4R 5G 7G16R 4G26G27G 9R 3
 126581161.69245  98634675.11844  24087590.379    24087590.663    24087596.438
        34.000          25.000
 125591395.98546  97863424.97645  23899247.213    23899247.072    23899254.187
        37.000          32.000
 106535527.80448  83014715.73147  20273035.562    20273035.565    20273039.742
        50.000          43.000
 114951414.390 7  89406657.542 6  21504042.900    21504043.268    21504049.220
        47.000          41.000
 121939777.44447  95018004.27246  23204367.654    23204367.479    23204371.034
        42.000          38.000
 108984467.63348  84922980.49946  20739055.384    20739054.927    20739058.301
        49.000          39.000
 103294312.635 8  80340021.492 8  19289480.206    19289480.916    19289483.496
        50.000          48.000
 121137651.80146  94392982.30144  23051729.948    23051729.749    23051736.467
        40.000          26.000
 120852056.39546  94170434.57546  22997376.955    22997377.084    22997383.681
        40.000          37.000
 109521946.90048  85341797.27648  20841332.317    20841332.332    20841337.521
        49.000          51.000
 114712258.822 7  89220658.535 7  21429213.846    21429213.696    21429217.678
        47.000          42.000
 20  5  5  1 30  0.0000000  0 11G 8G 3G 4R 5G 7G16R 4G26G27G 9R 3
 126551176.38645  98611309.95844  24081884.680    24081884.253    24081891.536
        33.000          25.000
 125771754.85746  98003964.30945  23933568.643    23933568.369    23933575.556
        37.000          32.000
 106625535.74148  83084851.76947  20290163.380    20290163.577    20290167.800
        49.000          44.000
 114923176.768 8  89384694.942 6  21498761.821    21498760.754    21498766.819
        48.000          41.000
 121941300.89646  95019191.38846  23204657.948    23204657.341    23204660.768
        41.000          38.000
 109105865.13748  85017575.94646  20762156.763    20762156.124    20762159.455
        48.000          39.000
 103379847.961 8  80406548.949 8  19305453.266    19305454.081    19305456.471
        50.000          49.000
 121305824.82746  94524026.19244  23083731.878    23083731.989    23083738.361
        40.000          26.000
 120846185.81146  94165860.13046  22996259.551    22996259.821    22996266.443
        40.000          37.000
 109543709.91348  85358755.46748  20845473.833    20845473.647    20845479.064
        49.000          51.000
 114902903.512 7  89368937.709 7  21464828.050    21464828.422    21464831.820
        47.000          42.000
 20  5  5  1 30 30.0000000  0 11G 8G 3G 4R 5G 7G16R 4G26G27G 9R 3
 126521234.49545  98587978.62544  24076186.368    24076187.382    24076193.608
        35.000          26.000
 125952167.72446  98144545.71345  23967900.331    23967899.671    23967906.577
        38.000          32.000
 106715996.73348  83155340.84347  20307377.456    20307377.661    20307382.001
        49.000          43.000
 114895354.400 8  89363055.328 6  21493556.089    21493556.027    21493562.063
        48.000          41.000
 121942911.51447  95020446.41846  23204964.186    23204963.792    23204967.380
        42.000          38.000
 109227796.91747  85112587.71746  20785359.735    20785359.020    20785362.281
        47.000          39.000
 103466158.978 8  80473679.725 8  19321571.207    19321571.982    19321574.567
        49.000          48.000
 121474195.30146  94655223.91044  23115771.902    23115771.485    23115778.970
        40.000          26.000
 120840660.38346  94161554.59746  22995208.099    22995208.402    22995215.018
        40.000          37.000
 109565851.06248  85376008.31048  20849687.003    20849687.008    20849692.406
        49.000          51.000
 115093915.171 8  89517502.303 7  21500510.717    21500510.660    21500514.691
        48.000          42.000
 20  5  5  1 31  0.0000000  0 11G 8G 3G 4R 5G 7G16R 4G26G27G 9R 3
 126491339.63745  98564683.96344  24070497.744    24070498.021    24070505.814
        34.000          26.000
 126132632.32146  98285167.42345  24002240.789    24002241.119    24002248.185
        38.000          32.000
 106806911.77248  83226183.71847  20324677.986    20324678.080    20324682.528
        49.000          43.000
 114867952.105 8  89341742.427 6  21488430.427    21488430.044    21488435.827
        48.000          41.000
 121944610.50147  95021770.30446  23205287.782    23205287.576    23205290.806
        43.000          39.000
 109350261.41848  85208014.58746  20808663.749    20808663.194    20808666.602
        48.000          39.000
 103553246.616 8  80541414.536 8  19337834.089    19337835.102    19337837.451
        50.000          48.000
 121642761.28846  94786573.99644  23147848.958    23147849.114    23147855.695
        41.000          26.000
 120835483.94846  94157521.03846  22994222.821    22994223.263    22994230.015
        40.000          37.000
 109588372.86648  85393557.76148  20853972.882    20853972.833    20853978.204
        48.000          51.000
 115285290.714 8  89666349.919 7  21536261.857    21536262.244    21536265.128
        48.000          42.000
 20  5  5  1 31 30.0000000  0 11G 8G 3G 4R 5G 7G16R 4G26G27G 9R 3
 126461508.81545  98541439.20144  24064821.285    24064821.517    24064828.793
        34.000          26.000
 126313159.57446  98425837.96845  24036593.675    24036594.403    24036601.291
        38.000          32.000
 106898295.05348  83297391.44947  20342067.682    20342067.708    20342072.183
        49.000          43.000
 114840987.929 8  89320770.292 6  21483386.929    21483385.937    21483391.582
        48.000          41.000
 121946411.57847  95023173.74046  23205630.100    23205630.270    23205633.414
        42.000          38.000
 109473270.09847  85303865.49946  20832071.497    20832071.011    20832074.459
        47.000          39.000
 103641125.138 8  80609764.483 8  19354244.964    19354245.853    19354248.335
        49.000          48.000
 121811534.12046  94918085.25544  23179965.719    23179964.852    23179972.428
        40.000          26.000
 120830673.59046  94153772.70646  22993308.128    22993308.042    22993314.703
        41.000          37.000
 109611291.15748  85411416.16448  20858334.035    20858334.026    20858339.553
        49.000          51.000
 115477040.883 8  89815488.906 7  21572082.349    21572083.134    21572086.349
        48.000          42.000
 20  5  5  1 32  0.0000000  0 11G 8G 3G 4R 5G 7G16R 4G26G27G 9R 3
 126431726.07945  98518231.90144  24059153.452    24059152.396    24059160.895
        33.000          25.000
 126493727.49946  98566540.20945  24070955.000    24070955.522    24070962.043
        38.000          32.000
 106990127.90148  83368949.49547  20359542.855    20359543.115    20359547.410
        49.000          43.000
 114814446.484 8  89300126.941 7  21478421.643    21478421.269    21478426.763
        49.000          42.000
 121948295.71947  95024641.90146  23205988.539    23205988.771    23205992.222
        43.000          38.000
 109596801.45848  85400123.68846  20855578.815    20855578.330    20855581.516
        48.000          39.000
 103729775.146 8  80678714.474 8  19370799.622    19370800.407    19370803.007
        50.000          48.000
 121980492.27946  95049740.91144  23212116.969    23212116.554    23212124.189
        40.000          25.000
 120826213.48846  94150297.30946  22992459.061    22992458.544    22992465.977
        39.000          37.000
 109634588.87048  85429570.21748  20862767.691    20862767.524    20862773.009
        50.000          52.000
 115669142.747 7  89964901.420 7  21607968.031    21607968.457    21607971.858
        47.000          42.000
 20  5  5  1 32 30.0000000  0 11G 8G 3G 4R 5G 7G16R 4G26G27G 9R 3
 126401994.74045  98495064.65944  24053495.472    24053496.304    24053503.269
        34.000          25.000
 126674333.02246  98707271.73945  24105322.953    24105323.502    24105330.443
        37.000          31.000
 107082410.42548  83440857.93947  20377103.625    20377103.837    20377108.153
        49.000          43.000
 114788331.528 8  89279815.311 7  21473535.942    21473535.142    21473541.096
        49.000          42.000
 121950263.34947  95026175.13346  23206363.681    23206363.203    23206366.605
        42.000          39.000
 109720853.05847  85496787.26546  20879184.952    20879184.449    20879187.896
        47.000          38.000
 103819196.592 8  80748264.470 8  19387498.570    19387499.386    19387501.700
        50.000          49.000
 122149633.06546  95181538.86844  23244303.606    23244302.952    23244309.484
        38.000          24.000
 120822106.64446  94147097.18346  22991677.576    22991677.900    22991684.153
        41.000          38.000
 109658267.66048  85448021.21348  20867273.605    20867273.513    20867278.789
        48.000          51.000
 115861592.726 7  90114584.698 7  21643919.571    21643919.028    21643923.416
        46.000          42.000
 20  5  5  1 33  0.0000000  0 11G 8G 3G 4R 5G 7G16R 4G26G27G 9R 3
 126372328.89845  98471948.46344  24047850.330    24047849.619    24047858.053
        34.000          26.000
 126854984.35846  98848038.96245  24139700.636    24139699.827    24139707.757
        37.000          31.000
 107175153.99048  83513125.63747  20394752.395    20394752.270    20394756.701
        49.000          43.000
 114762658.404 8  89259847.318 7  21468733.488    21468732.721    21468738.318
        49.000          42.000
 121952325.58847  95027782.07546  23206755.545    23206755.558    23206759.164
        42.000          39.000
 109845433.81548  85593863.17346  20902891.753    20902891.349    20902894.818
        48.000          38.000
 103909400.630 8  80818423.148 8  19404343.376    19404344.314    19404346.855
        50.000          48.000
 122318965.06746  95313485.85744  23276525.981    23276526.357    23276533.373
        39.000          24.000
 120818367.33746  94144183.44746  22990965.626    22990965.788    22990972.751
        40.000          38.000
 109682340.62648  85466779.35348  20871854.310    20871854.445    20871859.627
        49.000          52.000
 116054398.648 7  90264544.829 7  21679937.126    21679937.441    21679941.102
        46.000          42.000
 20  5  5  1 33 30.0000000  0 11G 8G 3G 4R 5G 7G16R 4G26G27G 9R 3
 126342727.33045  98448882.30144  24042217.138    24042216.943    24042225.522
        34.000          27.000
 127035674.27746  98988836.25545  24174083.866    24174084.480    24174091.988
        37.000          31.000
 107268354.62348  83585749.48647  20412487.538    20412487.798    20412492.174
        49.000          43.000
 114737426.622 8  89240222.602 7  21464012.851    21464012.591    21464018.155
        49.000          42.000
 121954478.14647  95029459.40046  23207165.089    23207165.117    23207168.564
        43.000          39.000
 109970536.81347  85691346.01946  20926698.404    20926697.714    20926701.048
        47.000          38.000
 104000382.964 8  80889187.169 8  19421333.361    19421334.570    19421337.149
        50.000          49.000
 122488481.46046  95445576.51843  23308784.056    23308784.127    23308791.529
        40.000          23.000
 120814994.46846  94141555.24146  22990324.536    22990324.190    22990330.749
        40.000          38.000
 109706805.32248  85485842.75148  20876509.880    20876509.931    20876515.063
        48.000          51.000
 116247552.331 8  90414775.427 7  21716020.434    21716019.968    21716024.072
        48.000          42.000
 20  5  5  1 34  0.0000000  0 11G 8G 3G 4R 5G 7G16R 4G26G27G 9R 3
 126313185.25245  98425862.54444  24036596.108    24036595.849    24036603.421
        35.000          27.000
 127216392.12946  99129655.31745  24208474.735    24208474.236    24208481.009
        37.000          31.000
 107362004.87448  83658723.69847  20430308.697    20430308.952    20430313.299
        50.000          43.000
 114712632.286 8  89220938.117 6  21459373.762    21459374.546    21459379.509
        49.000          41.000
 121956713.71147  95031201.39346  23207590.274    23207590.550    23207594.087
        42.000          39.000
 110096152.08148  85789228.03446  20950601.998    20950601.480    20950604.809
        48.000          38.000
 104092135.612 8  80960550.324 8  19438467.840    19438468.746    19438471.309
        49.000          49.000
 122658172.11946  95577802.97343  23341075.085    23341075.361    23341082.081
        38.000          23.000
 120811983.49946  94139209.04446  22989750.861    22989750.971    22989757.846
        41.000          38.000
 109731656.05248  85505206.94548  20881238.785    20881238.737    20881243.874
        48.000          51.000
 116441042.786 7  90565267.977 7  21752165.783    21752166.636    21752170.253
        47.000          42.000
 20  5  5  1 34 30.0000000  0 11G 8G 3G 4R 5G 7G16R 4G26G27G 9R 3
 126283723.88445  98402905.67544  24030989.420    24030989.348    24030997.433
        35.000          28.000
 127397153.01246  99270507.90745  24242871.700    24242872.281    24242878.788
        38.000          31.000
 107456122.93348  83732062.43347  20448218.782    20448219.006    20448223.301
        49.000          43.000
 114688297.908 8  89202011.380 6  21454822.330    21454822.278    21454827.801
        49.000          41.000
 121959050.22747  95033022.07246  23208035.321    23208035.229    23208038.651
        42.000          39.000
 110222295.12748  85887521.30746  20974606.400    20974605.921    20974609.152
        48.000          38.000
 104184676.642 8  81032526.670 8  19455749.221    19455750.199    19455752.792
        50.000          49.000
 122828052.43246  95710177.20043  23373401.365    23373401.519    23373409.430
        39.000          22.000
 120809355.47546  94137161.25046  22989251.218    22989251.200    22989258.120
        41.000          38.000
 109756912.58048  85524887.35148  20886044.963    20886044.762    20886050.043
        48.000          51.000
 116634884.698 7  90716033.861 7  21788377.384    21788377.575    21788381.451
        47.000          42.000
 20  5  5  1 35  0.0000000  0 11G 8G 3G 4R 5G 7G16R 4G26G27G 9R 3
 126254338.60046  98380008.08044  24025397.782    24025397.959    24025405.183
        36.000          29.000
 127577946.04346  99411385.54745  24277275.741    24277276.120    24277282.852
        38.000          32.000
 107550701.02748  83805759.63347  20466216.497    20466216.667    20466220.955
        49.000          43.000
 114664419.111 8  89183438.983 6  21450355.402    21450354.980    21450360.669
        48.000          41.000
 121961479.64647  95034915.16746  23208497.871    23208497.776    23208500.717
        43.000          39.000
 110348955.04548  85986217.34146  20998709.110    20998708.356    20998711.549
        48.000          38.000
 104277997.814 8  81105109.781 8  19473176.394    19473177.137    19473179.894
        50.000          48.000
 122998111.97746  95842691.10743  23405763.382    23405763.202    23405770.999
        39.000          22.000
 120807105.60746  94135408.12246  22988822.870    22988823.166    22988829.808
        41.000          39.000
 109782568.81548  85544879.21848  20890927.109    20890926.993    20890932.363
        48.000          52.000
 116829066.321 7  90867063.984 6  21824652.236    21824652.099    21824655.391
        47.000          41.000
 20  5  5  1 35 30.0000000  0 11G 8G 3G 4R 5G 7G16R 4G26G27G 9R 3
 124649590.24646  97129554.88545  23720024.815    23720023.965    23720031.824
        38.000          30.000
 126183333.04046  98324674.07445  24011889.965    24011890.225    24011896.585
        37.000          32.000
 106070301.25748  82652201.36247  20184506.092    20184506.026    20184510.239
        49.000          44.000
 113038414.823 8  87918768.983 7  21146177.454    21146177.312    21146182.510
        49.000          42.000
 120388561.33747  93809264.54246  22909180.758    22909181.155    22909184.299
        43.000          39.000
 108900692.62248  84857701.15846  20723113.632    20723113.361    20723116.409
        48.000          38.000
 102766705.479 8  79929660.177 8  19190953.262    19190954.080    19190956.624
        50.000          48.000
 121592912.60546  94747730.50043  23138362.775    23138363.341    23138370.022
        38.000          22.000
 119229795.65946  92906335.44346  22688670.623    22688670.718    22688677.527
        40.000          38.000
 108233186.26548  84337568.13248  20596089.442    20596089.430    20596094.715
        49.000          52.000
 115418756.394 7  89770156.223 6  21561195.261    21561194.596    21561197.146
        47.000          41.000
 20  5  5  1 36  0.0000000  0 11G 8G 3G 4R 5G 7G16R 4G26G27G 9R 3
 124620341.53746  97106763.70145  23714459.473    23714458.103    23714466.060
        37.000          30.000
 126364157.07646  98465575.86645  24046299.717    24046299.760    24046306.442
        38.000          32.000
 106165775.50248  82726596.86247  20202673.877    20202674.102    20202678.322
        49.000          43.000
 113015434.118 8  87900895.101 7  21141877.840    21141877.459    21141883.566
        48.000          42.000
 120391153.20947  93811284.19246  22909674.460    22909674.437    22909677.422
        43.000          40.000
 109028355.08047  84957178.39346  20747407.177    20747406.542    20747410.006
        47.000          38.000
 102861561.292 8  80003436.907 8  19208666.790    19208667.535    19208670.333
        49.000          48.000
 121763298.52346  94880498.70643  23170786.209    23170786.264    23170792.704
        38.000          22.000
 119228286.91646  92905159.82046  22688384.200    22688383.648    22688390.004
        41.000          38.000
 108259623.03848  84358168.21048  20601120.471    20601120.323    20601125.506
        50.000          52.000
 115613581.758 7  89921687.031 6  21597589.471    21597589.137    21597592.380
        47.000          41.000
 20  5  5  1 36 30.0000000  0 11G 8G 3G 4R 5G 7G16R 4G26G27G 9R 3
 124591173.79246  97084035.61245  23708907.812    23708908.040    23708915.715
        38.000          31.000
 126544999.91346  98606492.30545  24080713.037    24080713.171    24080719.829
        37.000          32.000
 106261705.76248  82801347.69647  20220928.916    20220928.848    20220933.436
        49.000          42.000
 112992916.144 8  87883381.120 7  21137665.479    21137665.881    21137671.496
        49.000          42.000
 120393834.26747  93813373.33246  22910184.248    22910184.731    22910187.762
        43.000          39.000
 109156522.70147  85057049.25946  20771796.521    20771796.188    20771799.489
        47.000          38.000
 102957191.690 8  80077816.096 8  19226524.762    19226525.958    19226528.658
        49.000          48.000
 121933851.56246  95013397.12543  23203241.394    23203241.318    23203247.802
        39.000          23.000
 119227161.02946  92904282.50846  22688169.518    22688169.411    22688176.119
        41.000          38.000
 108286460.53448  84379080.53448  20606227.510    20606227.280    20606232.564
        50.000          52.000
 115808731.477 7  90073470.105 6  21634045.262    21634044.703    21634048.705
        47.000          41.000
 20  5  5  1 37  0.0000000  0 11G 8G 3G 4R 5G 7G16R 4G26G27G 9R 3
 124562091.58546  97061374.17645  23703373.802    23703373.673    23703381.065
        38.000          31.000
 126725860.65346  98747422.70445  24115130.018    24115130.075    24115136.527
        38.000          31.000
 106358094.19648  82876455.55047  20239271.129    20239270.920    20239275.605
        48.000          43.000
 112970866.884 8  87866231.687 7  21133540.909    21133540.811    21133546.671
        48.000          42.000
 120396606.48047  93815533.51246  22910712.149    22910712.005    22910715.220
        43.000          40.000
 109285194.92447  85157313.32346  20796281.922    20796281.679    20796284.987
        47.000          38.000
 103053598.490 8  80152799.142 8  19244528.551    19244529.185    19244532.116
        50.000          49.000
 122104571.18346  95146425.36843  23235727.986    23235729.111    23235735.598
        39.000          23.000
 119226423.07547  92903707.49446  22688028.947    22688028.830    22688036.083
        42.000          38.000
 108313702.60148  84400308.11448  20611411.361    20611411.174    20611416.562
        50.000          52.000
 116004203.927 7  90225504.202 6  21670561.132    21670560.729    21670564.229
        47.000          41.000
 20  5  5  1 37 30.0000000  0 11G 8G 3G 4R 5G 7G16R 4G26G27G 9R 3
 124533101.48446  97038784.52845  23697857.627    23697857.415    23697864.143
        38.000          31.000
 126906739.78146  98888367.43745  24149550.377    24149550.584    24149556.538
        38.000          31.000
 106454944.35748  82951923.19947  20257700.932    20257701.039    20257705.524
        49.000          42.000
 112949293.766 8  87849452.606 7  21129505.860    21129504.958    21129510.938
        49.000          42.000
 120399472.98746  93817767.17246  22911257.181    22911257.149    22911260.925
        41.000          39.000
 109414372.44048  85257971.12246  20820863.804    20820863.388    20820866.493
        48.000          38.000
 103150784.658 8  80228388.373 8  19262677.380    19262678.249    19262681.010
        50.000          49.000
 122275458.43646  95279584.22443  23268246.862    23268247.539    23268254.089
        38.000          22.000
 119226079.55946  92903439.82846  22687963.992    22687963.998    22687970.551
        41.000          39.000
 108341354.48148  84421855.02948  20616673.208    20616673.181    20616678.507
        49.000          52.000
 116199999.197 7  90377789.377 6  21707137.383    21707137.800    21707140.623
        47.000          41.000
 20  5  5  1 38  0.0000000  0 11G 8G 3G 4R 5G 7G16R 4G26G27G 9R 3
 124504214.51946  97016275.23845  23692360.092    23692360.308    23692367.780
        38.000          31.000
 127087641.81146  99029330.00145  24183974.566    24183974.637    24183981.131
        37.000          31.000
 106552263.65348  83027756.39847  20276220.254    20276220.304    20276224.761
        49.000          42.000
 112928208.203 8  87833052.718 7  21125562.038    21125560.652    21125566.856
        48.000          42.000
 120402442.33847  93820080.95946  22911822.463    22911822.219    22911826.177
        43.000          40.000
 109544060.59847  85359026.81146  20845542.499    20845542.028    20845545.369
        47.000          37.000
 103248757.160 8  80304589.192 8  19280973.015    19280974.047    19280976.630
        50.000          48.000
 122446518.06946  95412877.42943  23300798.962    23300798.064    23300805.944
        38.000          22.000
 119226140.87146  92903487.61246  22687975.374    22687975.170    22687982.186
        41.000          39.000
 108369425.32348  84443728.40748  20622014.966    20622014.810    20622020.149
        50.000          52.000
 116396120.916 7  90530328.439 6  21743774.828    21743774.123    21743778.554
        46.000          41.000
 20  5  5  1 38 30.0000000  0 11G 8G 3G 4R 5G 7G16R 4G26G27G 9R 3
 124475412.21046  96993831.88745  23686877.976    23686878.518    23686886.718
        37.000          31.000
 127268542.59046  99170291.59845  24218398.338    24218399.031    24218405.419
        37.000          31.000
 106650031.01448  83103938.74347  20294824.810    20294824.858    20294829.299
        49.000          42.000
 112907592.517 8  87817018.296 7  21121705.202    21121703.878    21121710.314
        49.000          42.000
 120405493.07547  93822458.16346  22912402.847    22912402.416    22912406.802
        42.000          40.000
 109674235.37548  85460461.69146  20870313.782    20870313.469    20870316.968
        48.000          38.000
 103347494.033 8  80381384.523 8  19299411.613    19299412.454    19299415.022
        50.000          49.000
 122617726.45546  95546286.50443  23333378.235    23333379.339    23333385.690
        38.000          22.000
 119226588.85246  92903836.69946  22688060.949    22688060.898    22688067.319
        40.000          38.000
 108397895.74648  84465913.14748  20627432.604    20627432.557    20627437.906
        50.000          52.000
 116592544.018 7  90683101.920 6  21780468.465    21780468.602    21780472.333
        45.000          41.000
 20  5  5  1 39  0.0000000  0 11G 8G 3G 4R 5G 7G16R 4G26G27G 9R 3
 124446703.40446  96971461.39245  23681415.351    23681415.453    23681423.994
        37.000          31.000
 127449444.62946  99311254.17745  24252822.889    24252823.926    24252830.218
        37.000          31.000
 106748251.85748  83180474.44947  20313515.599    20313515.661    20313520.020
        48.000          42.000
 112887455.792 8  87801356.411 7  21117938.333    21117937.178    21117942.987
        49.000          42.000
 120408630.49147  93824902.91446  22912999.594    22912999.412    22913003.796
        42.000          40.000
 109804899.12548  85562277.59046  20895178.609    20895178.163    20895181.490
        48.000          37.000
 103447000.071 8  80458778.091 8  19317993.313    19317994.556    19317997.020
        50.000          48.000
 122789086.49746  95679813.78443  23365987.716    23365987.972    23365994.879
        39.000          23.000
 119227431.87846  92904493.61146  22688221.269    22688221.235    22688227.981
        41.000          39.000
 108426772.96548  84488414.87048  20632927.583    20632927.693    20632933.114
        50.000          52.000
 116789270.340 7  90836111.247 6  21817218.050    21817217.560    21817221.544
        45.000          41.000
 20  5  5  1 39 30.0000000  0 11G 8G 3G 4R 5G 7G16R 4G26G27G 9R 3
 124418098.19146  96949171.61745  23675971.576    23675971.908    23675980.059
        36.000          30.000
 127630352.06146  99452220.94945  24287248.939    24287249.447    24287255.670
        37.000          30.000
 106846933.46948  83257369.20147  20332294.159    20332294.107    20332298.667
        48.000          42.000
 112867809.424 8  87786075.905 7  21114262.867    21114261.965    21114267.387
        49.000          42.000
 120411862.07547  93827421.03546  22913614.262    22913614.384    22913618.494
        42.000          40.000
 109936056.98047  85664478.50546  20920137.105    20920136.634    20920139.994
        47.000          37.000
 103547282.183 8  80536775.274 8  19336720.400    19336721.457    19336724.077
        49.000          48.000
 122960602.74146  95813462.74843  23398626.463    23398625.621    23398634.480
        39.000          23.000
 119228680.15846  92905466.30546  22688458.625    22688458.678    22688465.264
        41.000          39.000
 108456065.90448  84511240.52848  20638501.952    20638502.010    20638507.400
        50.000          52.000
 116986303.564 7  90989359.260 6  21854025.287    21854025.154    21854029.384
        46.000          40.000
 20  5  5  1 40  0.0000000  0 11G 8G 3G 4R 5G 7G16R 4G26G27G 9R 3
 124389607.04046  96926970.72045  23670551.030    23670550.756    23670557.568
        37.000          31.000
 127811269.35646  99593195.40145  24321676.269    24321677.021    24321683.265
        37.000          30.000
 106946083.01748  83334628.56947  20351161.510    20351161.762    20351166.148
        48.000          42.000
 112848664.722 8  87771185.588 7  21110681.514    21110680.604    21110685.953
        49.000          42.000
 120415194.78547  93830017.95546  22914249.172    22914248.624    22914252.583
        43.000          40.000
 110067713.31048  85767067.84546  20945190.499    20945190.052    20945193.335
        48.000          38.000
 103648346.765 8  80615381.041 8  19355593.595    19355594.636    19355597.115
        50.000          48.000
 123132280.15046  95947237.29743  23431295.408    23431294.614    23431302.678
        38.000          22.000
 119230343.87546  92906762.72246  22688775.242    22688774.818    22688781.703
        41.000          38.000
 108485783.53948  84534397.11648  20644157.227    20644157.182    20644162.498
        50.000          52.000
 117183647.405 7  91142848.868 6  21890890.645    21890891.145    21890895.347
        46.000          40.000
 20  5  5  1 40 30.0000000  0 11G 8G 3G 4R 5G 7G16R 4G26G27G 9R 3
 124361214.44646  96904846.62445  23665147.752    23665148.292    23665155.242
        37.000          32.000
 127992175.19546  99734160.93644  24356101.467    24356102.036    24356108.471
        37.000          29.000
 107045682.14548  83412238.26347  20370114.633    20370114.821    20370119.197
        48.000          42.000
 112830006.762 8  87756673.855 7  21107191.130    21107190.187    21107195.585
        50.000          42.000
 120418610.92847  93832679.89346  22914899.022    22914898.881    22914902.554
        43.000          40.000
 110199846.97747  85870029.13346  20970334.556    20970334.233    20970337.597
        47.000          38.000
 103750174.595 8  80694580.450 8  19374609.295    19374610.052    19374612.707
        50.000          49.000
 123304097.78546  96081121.12743  23463991.084    23463991.060    23463998.540
        38.000          22.000
 119232407.59346  92908370.82046  22689168.055    22689168.111    22689174.508
        41.000          39.000
 108515909.26148  84557871.69448  20649889.904    20649890.039    20649895.265
        50.000          52.000
 117381279.428 7  91296562.619 6  21927810.716    21927810.070    21927814.048
        46.000          40.000
 20  5  5  1 41  0.0000000  0 11G 8G 3G 4R 5G 7G16R 4G26G27G 9R 3
 124332947.57746  96882820.50545  23659769.547    23659769.325    23659776.243
        39.000          33.000
 128173090.44246  99875133.82444  24390528.408    24390529.219    24390535.383
        37.000          29.000
 107145754.75248  83490216.89747  20389158.055    20389158.052    20389162.380
        48.000          42.000
 112811863.551 8  87742562.478 7  21103796.112    21103796.286    21103801.817
        49.000          42.000
 120422134.30647  93835425.38446  22915569.385    22915569.641    22915573.027
        43.000          40.000
 110332479.36647  85973379.03046  20995573.951    20995573.175    20995576.848
        47.000          38.000
 103852789.195 8  80774391.790 8  19393771.774    19393772.538    19393775.378
        50.000          49.000
 123476077.04746  96215130.89543  23496717.718    23496717.326    23496725.175
        37.000          21.000
 119234898.15946  92910311.53146  22689642.170    22689642.178    22689648.591
        41.000          39.000
 108546468.69048  84581684.22848  20655705.424    20655705.316    20655710.522
        50.000          52.000
 117579220.316 7  91450516.611 6  21964787.563    21964787.059    21964791.392
        45.000          41.000
 20  5  5  1 41 30.0000000  0 11G 8G 3G 4R 5G 7G16R 4G26G27G 9R 3
 124304798.68346  96860886.33445  23654412.529    23654412.171    23654419.856
        37.000          32.000
 128354001.76446 100016103.63044  24424955.014    24424954.971    24424961.853
        36.000          29.000
 107246290.24348  83568556.23147  20408289.238    20408289.409    20408293.754
        49.000          42.000
 112794228.370 8  87728846.226 7  21100497.100    21100497.105    21100502.766
        49.000          43.000
 120425754.36147  93838246.22546  22916258.400    22916258.783    22916262.060
        43.000          40.000
 110465597.22347  86077107.21046  21020905.303    21020904.838    21020908.320
        47.000          38.000
 103956179.055 8  80854806.118 8  19413078.898    19413080.065    19413082.702
        50.000          48.000
 123648204.87646  96349256.40843  23529472.216    23529473.181    23529479.216
        37.000          21.000
 119237807.93346  92912578.89546  22690195.598    22690195.596    22690202.070
        41.000          39.000
 108577453.02348  84605827.86748  20661601.298    20661601.357    20661606.690
        49.000          52.000
 117777455.679 7  91604699.633 6  22001819.572    22001818.703    22001823.796
        46.000          41.000
 20  5  5  1 42  0.0000000  0 11G 8G 3G 4R 5G 7G16R 4G26G27G 9R 3
 124276767.71146  96839044.02645  23649078.304    23649078.200    23649085.554
        38.000          33.000
 128534902.73446 100157065.36644  24459379.626    24459379.497    24459386.070
        36.000          29.000
 107347285.09048  83647253.49747  20427507.912    20427507.981    20427512.388
        49.000          42.000
 112777101.307 8  87715525.184 7  21097294.058    21097293.008    21097298.767
        49.000          43.000
 120429467.95747  93841139.94246  22916964.961    22916965.474    22916968.512
        44.000          40.000
 110599194.35847  86181208.87246  21046327.969    21046327.448    21046330.756
        47.000          37.000
 104060339.801 8  80935820.009 8  19432530.376    19432531.169    19432533.900
        50.000          49.000
 123820475.34846  96483493.10843  23562254.408    23562254.077    23562262.192
        37.000          21.000
 119241136.41046  92915172.51846  22690829.043    22690828.998    22690835.862
        41.000          39.000
 108608860.52048  84630301.24148  20667577.993    20667577.945    20667583.339
        49.000          52.000
 117975978.287 7  91759106.053 6  22038904.492    22038905.897    22038909.366
        46.000          40.000
 20  5  5  1 42 30.0000000  0 11G 8G 3G 4R 5G 7G16R 4G26G27G 9R 3
 124248854.41846  96817293.43645  23643766.346    23643766.323    23643773.813
        37.000          33.000
 128715786.87046 100298014.00044  24493800.400    24493800.702    24493807.128
        37.000          29.000
 107448735.71348  83726305.92047  20446813.408    20446813.362    20446817.880
        49.000          42.000
 112760482.798 8  87702599.683 7  21094184.597    21094184.032    21094190.014
        49.000          43.000
 120433271.79547  93844103.98246  22917689.061    22917689.264    22917692.305
        44.000          40.000
 110733264.63147  86285679.19746  21071840.757    21071840.089    21071843.608
        47.000          37.000
 104165267.000 8  81017430.038 8  19452124.861    19452125.728    19452128.387
        50.000          48.000
 123992882.46446  96617836.24243  23595062.370    23595062.323    23595068.866
        38.000          20.000
 119244882.91246  92918091.89046  22691541.508    22691541.578    22691548.532
        40.000          39.000
 108640689.33748  84655102.90948  20673634.828    20673634.693    20673640.143
        50.000          52.000
 118174780.793 7  91913730.194 6  22076043.741    22076043.403    22076047.591
        46.000          40.000
 20  5  5  1 43  0.0000000  0 11G 8G 3G 4R 5G 7G16R 4G26G27G 9R 3
 124221060.46046  96795635.82045  23638477.707    23638477.481    23638484.912
        38.000          33.000
 128896650.07346 100438946.30944  24528216.362    24528217.843    24528224.252
        37.000          28.000
 107550640.66148  83805712.36147  20466205.063    20466205.265    20466209.865
        48.000          42.000
 112744375.135 8  87690071.501 7  21091171.394    21091170.566    21091177.021
        49.000          43.000
 120437164.56947  93847137.32946  22918430.068    22918429.987    22918432.960
        43.000          40.000
 110867804.09547  86390515.13546  21097442.911    21097442.459    21097445.601
        47.000          38.000
 104270958.475 8  81099634.500 8  19471861.898    19471862.776    19471865.652
        50.000          48.000
 124165422.42346  96752282.94343  23627894.839    23627895.348    23627903.310
        37.000          19.000
 119249049.04346  92921338.23246  22692334.789    22692334.670    22692341.398
        41.000          39.000
 108672939.82248  84680233.15048  20679771.756    20679771.691    20679777.190
        49.000          52.000
 118373858.018 7  92068568.008 6  22113232.557    22113232.219    22113236.969
        45.000          40.000
 20  5  5  1 43 30.0000000  0 11G 8G 3G 4R 5G 7G16R 4G26G27G 9R 3
 124193393.19846  96774076.93445  23633212.993    23633213.091    23633220.842
        38.000          33.000
 129077493.57446 100579863.27144  24562630.092    24562631.222    24562637.774
        38.000          29.000
 107653004.15448  83885476.10647  20485684.328    20485684.371    20485688.812
        49.000          42.000
 112728786.531 8  87677947.035 7  21088254.519    21088254.806    21088260.436
        50.000          43.000
 120441150.42547  93850243.20046  22919188.335    22919188.075    22919191.461
        43.000          40.000
 111002814.18747  86495717.78646  21123134.502    21123133.838    21123137.249
        47.000          37.000
 104377417.518 8  81182435.963 8  19491742.713    19491743.437    19491746.112
        51.000          48.000
 124338097.03146  96886834.55343  23660754.725    23660755.167    23660761.857
        37.000          19.000
 119253641.94846  92924917.13046  22693208.885    22693208.703    22693215.337
        41.000          39.000
 108705617.98448  84705696.64848  20685990.256    20685990.150    20685995.571
        49.000          52.000
 118573210.880 7  92223620.184 6  22150473.689    22150472.963    22150478.018
        45.000          40.000
 20  5  5  1 44  0.0000000  0 11G 8G 3G 4R 5G 7G16R 4G26G27G 9R 3
 124165849.74746  96752614.52445  23627971.772    23627971.340    23627978.694
        37.000          33.000
 129258308.27046 100720757.80344  24597038.108    24597039.180    24597045.453
        38.000          29.000
 107755819.71148  83965592.11247  20505249.718    20505249.617    20505254.021
        49.000          42.000
 112713714.208 8  87666224.127 7  21085435.259    21085435.168    21085440.827
        50.000          43.000
 120445223.03647  93853416.67646  22919963.783    22919963.000    22919966.372
        44.000          40.000
 111138285.71947  86601280.01246  21148913.961    21148913.153    21148916.363
        47.000          37.000
 104484636.617 8  81265828.578 8  19511764.840    19511765.767    19511768.432
        50.000          48.000
 124510897.55746  97021484.26643  23693637.599    23693637.747    23693644.752
        37.000          20.000
 119258658.11546  92928825.83446  22694162.684    22694162.944    22694169.415
        41.000          39.000
 108738719.16648  84731489.77448  20692289.246    20692289.205    20692294.480
        50.000          52.000
 118772828.994 7  92378878.690 4  22187763.416    22187763.742    22187768.115
        45.000          28.000
 20  5  5  1 44 30.0000000  0 11G 8G 3G 4R 5G 7G16R 4G26G27G 9R 3
 124138437.82746  96731254.61945  23622754.779    23622754.857    23622761.375
        37.000          32.000
 129439096.46846 100861631.66644  24631442.974    24631442.428    24631448.071
        37.000          28.000
 107859092.45948  84046064.36447  20524901.700    20524901.782    20524906.249
        49.000          42.000
 112699167.489 8  87654910.016 7  21082714.005    21082713.804    21082719.126
        50.000          43.000
 120449388.51647  93856662.50946  22920756.128    22920755.637    22920759.066
        44.000          40.000
 111274221.13947  86707203.70546  21174781.263    21174780.958    21174784.304
        47.000          37.000
 104592620.204 8  81349815.798 8  19531930.177    19531930.871    19531933.565
        50.000          49.000
 124683826.73346  97156234.25343  23726544.593    23726544.168    23726552.599
        37.000          20.000
 119264105.65246  92933070.69846  22695200.038    22695199.805    22695206.484
        41.000          39.000
 108772250.30948  84757617.93648  20698669.990    20698669.992    20698675.284
        50.000          52.000
 118972714.279 7  92534344.973 6  22225103.615    22225103.700    22225108.209
        45.000          40.000
 20  5  5  1 45  0.0000000  0 11G 8G 3G 4R 5G 7G16R 4G26G27G 9R 3
 124111159.22746  96709998.59445  23617563.307    23617563.144    23617570.931
        36.000          32.000
 129619853.56146 101002481.31944  24665838.619    24665839.279    24665845.363
        36.000          28.000
 107962820.44648  84126891.34747  20544640.379    20544640.532    20544645.013
        49.000          42.000
 112685147.986 8  87644005.966 7  21080091.140    21080091.102    21080096.404
        49.000          43.000
 120453644.78047  93859979.08046  22921565.409    22921565.506    22921569.119
        42.000          40.000
 111410616.12547  86813485.49846  21200736.811    21200735.975    21200739.457
        47.000          37.000
 104701365.394 8  81434395.372 8  19552237.291    19552238.173    19552240.968
        50.000          48.000
 124856880.41246  97291081.21243  23759475.973    23759475.420    23759484.632
        38.000          21.000
 119269985.65546  92937652.53246  22696318.799    22696318.803    22696325.553
        41.000          40.000
 108806211.27048  84784081.02148  20705132.511    20705132.545    20705137.888
        50.000          52.000
 119172860.833 7  92690014.468 6  22262492.645    22262492.760    22262496.707
        44.000          40.000
 20  5  5  1 45 30.0000000  0 11G 8G 3G 4R 5G 7G16R 4G26G27G 9R 3
 124084015.84346  96688847.93845  23612398.353    23612398.057    23612406.117
        37.000          32.000
 129800575.30146 101143303.40544  24700229.773    24700229.481    24700235.693
        36.000          28.000
 108067002.15848  84208071.88247  20564465.725    20564465.774    20564470.174
        48.000          42.000
 112671658.483 8  87633514.139 7  21077568.178    21077567.612    21077573.099
        50.000          43.000
 120457990.62647  93863365.47246  22922392.322    22922392.469    22922395.976
        42.000          40.000
 111547466.69347  86920122.29046  21226778.517    21226778.121    21226781.009
        47.000          37.000
 104810869.619 8  81519565.304 8  19572686.429    19572687.639    19572689.973
        51.000          48.000
 125030054.79446  97426022.24143  23792431.204    23792430.868    23792437.923
        38.000          21.000
 119276299.56746  92942572.47546  22697519.911    22697519.922    22697526.769
        41.000          39.000
 108840602.36348  84810879.27848  20711676.986    20711676.880    20711682.316
        50.000          52.000
 119373263.576 7  92845883.231 6  22299929.450    22299930.003    22299933.909
        45.000          40.000
 20  5  5  1 46  0.0000000  0 11G 8G 3G 4R 5G 7G16R 4G26G27G 9R 3
 124057000.20546  96667796.80045  23607257.718    23607257.468    23607264.405
        37.000          32.000
 129981248.28946 101284087.48844  24734608.619    24734610.664    24734616.347
        36.000          28.000
 108171626.94448  84289597.67347  20584375.135    20584375.077    20584379.527
        48.000          42.000
 112658691.674 8  87623428.834 7  21075142.327    21075141.883    21075147.150
        49.000          43.000
 120462415.38547  93866813.34946  22923234.167    22923234.504    22923238.037
        43.000          40.000
 111684759.48448  87027103.66746  21252904.222    21252903.818    21252907.121
        48.000          37.000
 104921121.030 8  81605316.386 8  19593275.375    19593276.111    19593278.622
        50.000          48.000
 125203336.95346  97561047.25543  23825404.476    23825405.340    23825412.786
        38.000          22.000
 119283039.63247  92947824.48746  22698802.432    22698802.729    22698809.499
        42.000          40.000
 108875414.68548  84838005.76548  20718301.710    20718301.397    20718306.913
        50.000          52.000
 119573908.530 7  93001940.368 6  22337412.555    22337412.874    22337416.350
        45.000          40.000
 20  5  5  1 46 30.0000000  0 11G 8G 3G 4R 5G 7G16R 4G26G27G 9R 3
 122454701.85246  95419252.64345  23302351.185    23302350.086    23302357.990
        36.000          32.000
 128586463.58446 100197242.22044  24469190.960    24469191.483    24469197.815
        36.000          28.000
 106701286.00348  83143877.44747  20304578.565    20304578.693    20304582.986
        49.000          42.000
 111043696.533 8  86367321.503 7  20773024.974    20773023.690    20773029.049
        49.000          43.000
 118891507.84647  92642729.56246  22624301.107    22624300.567    22624304.242
        43.000          41.000
 110247084.00947  85906837.05346  20979323.572    20979323.191    20979326.697
        47.000          37.000
 103426755.292 8  80443031.907 8  19314213.164    19314213.949    19314216.608
        51.000          48.000
 123801318.13246  96468565.01943  23558609.809    23558609.720    23558617.002
        38.000          21.000
 117714796.85146  91725817.15046  22400376.070    22400376.003    22400382.725
        41.000          40.000
 107335239.03748  83637868.89248  20425215.805    20425215.690    20425221.232
        50.000          53.000
 118169993.737 7  91910006.589 6  22075149.281    22075148.518    22075153.423
        44.000          40.000
 20  5  5  1 47  0.0000000  0 11G 8G 3G 4R 5G 7G16R 4G26G27G 9R 3
 122427972.29946  95398424.43945  23297263.841    23297264.013    23297272.033
        37.000          32.000
 128767052.05746 100337960.46944  24503556.106    24503556.430    24503562.847
        36.000          28.000
 106806817.87648  83226110.06547  20324660.768    20324660.700    20324665.165
        49.000          42.000
 111031808.559 8  86358075.297 7  20770801.166    20770799.568    20770805.409
        50.000          43.000
 118896113.49647  92646318.39246  22625177.278    22625177.140    22625180.907
        44.000          41.000
 110385273.87948  86014517.45246  21005620.450    21005620.092    21005623.354
        48.000          37.000
 103538519.373 8  80529959.507 8  19335084.134    19335085.226    19335087.909
        51.000          48.000
 123974830.10246  96603769.10043  23591627.929    23591628.437    23591634.895
        37.000          21.000
 117722419.29147  91731756.72746  22401826.854    22401826.647    22401833.212
        43.000          40.000
 107370920.34548  83665672.50748  20432005.805    20432005.757    20432011.142
        50.000          53.000
 118371133.043 7  92066448.227 6  22112724.033    22112724.023    22112727.633
        45.000          39.000
 20  5  5  1 47 30.0000000  0 11G 8G 3G 4R 5G 7G16R 4G26G27G 9R 3
 122401389.51646  95377710.59445  23292205.108    23292205.300    23292213.553
        38.000          33.000
 128947592.75445 100478641.46944  24537911.363    24537912.121    24537919.162
        34.000          27.000
 106912801.65648  83308694.81346  20344828.705    20344828.639    20344833.257
        48.000          41.000
 111020464.092 8  86349251.829 7  20768677.986    20768677.402    20768683.674
        49.000          43.000
 118900808.47647  92649976.83246  22626070.863    22626070.752    22626074.199
        43.000          41.000
 110523907.14747  86122543.36146  21032001.441    21032000.975    21032004.080
        47.000          36.000
 103651036.735 8  80617472.997 8  19356095.963    19356096.939    19356099.524
        51.000          48.000
 124148452.15546  96739058.97343  23624667.084    23624667.142    23624674.904
        37.000          21.000
 117730485.72747  91738042.27746  22403361.538    22403361.671    22403368.036
        42.000          40.000
 107407037.30048  83693815.58048  20438878.722    20438878.739    20438883.996
        51.000          53.000
 118572512.878 7  92223076.942 6  22150343.112    22150342.849    22150347.383
        45.000          39.000
 20  5  5  1 48  0.0000000  0 11G 8G 3G 4R 5G 7G16R 4G26G27G 9R 3
 122374965.42146  95357120.39645  23287177.555    23287177.592    23287184.852
        38.000          34.000
 129128091.87545 100619290.08144  24572259.335    24572260.160    24572266.347
        35.000          28.000
 107019246.22448  83391638.61746  20365084.249    20365084.513    20365089.062
        49.000          41.000
 111009676.214 8  86340861.253 7  20766659.691    20766659.897    20766665.329
        50.000          43.000
 118905601.86447  92653711.95346  22626982.874    22626982.959    22626986.475
        43.000          41.000
 110662989.84247  86230919.47246  21058468.105    21058467.741    21058470.923
        47.000          36.000
 103764315.121 8  80705578.387 8  19377250.194    19377250.871    19377253.424
        51.000          48.000
 124322190.92946  96874439.78343  23657728.286    23657727.949    23657736.564
        37.000          21.000
 117739008.00247  91744683.02346  22404983.443    22404983.214    22404989.617
        42.000          40.000
 107443600.60448  83722306.46148  20445836.537    20445836.515    20445841.697
        51.000          53.000
 118774138.575 7  92379896.889 6  22188009.077    22188008.420    22188012.249
        45.000          39.000
 20  5  5  1 48 30.0000000  0 11G 8G 3G 4R 5G 7G16R 4G26G27G 9R 3
 122348688.29546  95336644.73445  23282177.140    23282176.798    23282184.282
        38.000          33.000
 129308531.74145 100759892.52944  24606595.911    24606596.042    24606603.797
        35.000          28.000
 107126136.44548  83474929.67946  20385424.936    20385425.003    20385429.406
        49.000          41.000
 110999433.548 8  86332894.746 7  20764743.800    20764743.704    20764749.064
        50.000          43.000
 118910479.04247  92657512.36646  22627911.069    22627910.966    22627914.329
        44.000          41.000
 110802504.31647  86339632.04146  21085016.583    21085016.316    21085019.383
        47.000          36.000
 103878338.135 8  80794262.938 8  19398543.287    19398544.009    19398546.615
        51.000          48.000
 124496029.20546  97009898.11143  23690809.128    23690808.645    23690816.514
        37.000          22.000
 117747974.06147  91751669.57946  22406689.465    22406689.663    22406696.169
        42.000          40.000
 107480596.97048  83751134.79648  20452876.720    20452876.633    20452881.799
        49.000          52.000
 118975991.371 7  92536893.472 6  22225716.779    22225716.418    22225719.932
        44.000          38.000
 20  5  5  1 49  0.0000000  0 11G 8G 3G 4R 5G 7G16R 4G26G27G 9R 3
 122322575.65646  95316297.23245  23277208.118    23277207.631    23277214.832
        39.000          33.000
 129488923.97045 100900457.84844  24640922.740    24640923.737    24640930.531
        35.000          27.000
 107233486.48547  83558579.05047  20405852.966    20405853.128    20405857.566
        47.000          42.000
 110989754.426 8  86325366.539 7  20762934.049    20762932.835    20762938.193
        50.000          43.000
 118915454.60447  92661389.44046  22628857.996    22628857.775    22628861.117
        44.000          41.000
 110942462.62247  86448690.44946  21111650.108    21111649.586    21111652.775
        46.000          36.000
 103993119.122 8  80883537.024 8  19419977.578    19419978.601    19419981.284
        51.000          48.000
 124669979.11346  97145443.42943  23723909.686    23723909.894    23723919.121
        36.000          21.000
 117757401.02947  91759015.27846  22408483.313    22408483.252    22408489.714
        43.000          40.000
 107518042.47748  83780313.11148  20460002.347    20460002.247    20460007.409
        50.000          52.000
 119178082.207 7  92694075.177 6  22263468.537    22263468.106    22263472.553
        44.000          38.000
 20  5  5  1 49 30.0000000  0 11G 8G 3G 4R 5G 7G16R 4G26G27G 9R 3
 122296632.05246  95296081.46045  23272270.318    23272269.947    23272278.009
        38.000          33.000
 129669266.89645 101040984.76244  24675241.306    24675242.015    24675248.611
        34.000          27.000
 107341297.19448  83642587.37546  20426368.532    20426368.635    20426373.328
        48.000          41.000
 110980643.631 8  86318280.364 7  20761229.471    20761228.319    20761233.691
        50.000          43.000
 118920529.85147  92665344.19246  22629823.761    22629823.559    22629826.807
        42.000          41.000
 111082862.89247  86558093.24546  21138367.051    21138366.839    21138369.996
        47.000          36.000
 104108657.717 8  80973400.361 8  19441553.339    19441554.560    19441557.221
        51.000          48.000
 124844039.32346  97281074.69243  23757032.859    23757032.812    23757040.918
        37.000          20.000
 117767292.70247  91766723.09646  22410365.641    22410365.596    22410371.795
        43.000          40.000
 107555939.77048  83809843.46548  20467213.898    20467213.960    20467219.038
        50.000          52.000
 119380408.362 7  92851439.934 6  22301265.108    22301265.441    22301268.929
        45.000          38.000
 20  5  5  1 50  0.0000000  0 11G 8G 3G 4R 5G 7G16R 4G26G27G 9R 3
 122270863.26546  95276001.89645  23267366.817    23267366.613    23267374.614
        38.000          33.000
 129849560.01445 101181472.86244  24709550.531    24709550.827    24709558.181
        35.000          27.000
 107449570.64748  83726956.28146  20446972.282    20446972.540    20446977.034
        48.000          41.000
 110972107.086 8  86311640.833 7  20759632.365    20759631.524    20759636.953
        50.000          43.000
 118925707.28247  92669378.56646  22630809.091    22630808.767    22630812.160
        44.000          41.000
 111223704.46347  86667839.91046  21165168.554    21165168.161    21165171.395
        47.000          36.000
 104224954.987 8  81063853.770 8  19463271.428    19463272.249    19463274.945
        51.000          48.000
 125018209.89646  97416791.97143  23790176.207    23790177.286    23790184.337
        37.000          20.000
 117777654.17747  91774796.98446  22412337.168    22412337.399    22412343.878
        43.000          40.000
 107594292.85548  83839728.98748  20474512.282    20474512.221    20474517.412
        49.000          52.000
 119582968.734 7  93008986.844 6  22339105.753    22339105.213    22339108.446
        45.000          38.000
 20  5  5  1 50 30.0000000  0 11G 8G 3G 4R 5G 7G16R 4G26G27G 9R 3
 122245250.35746  95256043.80745  23262492.495    23262492.378    23262500.360
        38.000          33.000
 130029778.87445 101321903.09644  24743844.996    24743845.269    24743852.465
        35.000          27.000
 107558284.76648  83811668.57046  20467660.022    20467660.045    20467664.510
        48.000          41.000
 110964126.401 8  86305433.641 7  20758138.827    20758138.994    20758143.891
        51.000          43.000
 118930965.48447  92673475.87947  22631809.286    22631809.467    22631812.646
        44.000          42.000
 111364962.88747  86777911.40446  21192048.962    21192048.807    21192051.842
        46.000          36.000
 104341987.024 8  81154878.669 8  19485126.280    19485127.217    19485129.785
        51.000          48.000
 125192466.69446  97552576.45543  23823336.187    23823336.034    23823345.603
        37.000          19.000
 117788466.36946  91783222.09246  22414394.608    22414394.665    22414401.190
        41.000          40.000
 107633081.48348  83869953.88548  20481893.461    20481893.328    20481898.686
        49.000          53.000
 119785737.141 7  93166695.555 6  22376984.339    22376984.269    22376987.418
        45.000          38.000
 20  5  5  1 51  0.0000000  0 11G 8G 3G 4R 5G 7G16R 4G26G27G 9R 3
 122219794.52946  95236208.12445  23257648.675    23257648.935    23257656.622
        39.000          33.000
 130209919.03846 101462272.01844  24778124.581    24778124.709    24778132.774
        36.000          27.000
 107667437.70848  83896722.79746  20488430.970    20488431.198    20488435.788
        48.000          41.000
 110956703.788 8  86299660.493 7  20756751.153    20756750.541    20756755.200
        51.000          43.000
 118936302.93347  92677634.94047  22632825.560    22632825.164    22632828.290
        44.000          42.000
 111506633.66247  86888304.19646  21219008.143    21219007.653    21219011.268
        47.000          36.000
 104459750.916 8  81246472.791 8  19507117.772    19507118.737    19507121.371
        51.000          48.000
 125366805.87246  97688425.09743  23856511.839    23856511.777    23856520.010
        38.000          20.000
 117799730.40047  91791999.27646  22416537.866    22416538.315    22416544.862
        43.000          41.000
 107672305.69648  83900518.20348  20489357.699    20489357.481    20489362.901
        51.000          53.000
 119988708.308 7  93324561.970 6  22414901.136    22414900.512    22414904.628
        44.000          38.000
 20  5  5  1 51 30.0000000  0 10G 8G 4R 5G 7G16R 4G26G27G 9R 3
 122194496.81846  95216495.66045  23252834.902    23252835.252    23252842.543
        39.000          34.000
 107777026.35848  83982116.53346  20509284.995    20509285.130    20509289.729
        48.000          41.000
 110949839.970 8  86294321.971 7  20755466.295    20755466.268    20755471.217
        51.000          43.000
 118941717.20347  92681853.86647  22633855.536    22633855.402    22633858.681
        44.000          42.000
 111648711.19347  86999013.94246  21246044.693    21246043.939    21246047.040
        47.000          36.000
 104578242.299 8  81338632.738 8  19529245.454    19529246.178    19529248.892
        51.000          48.000
 125541222.35746  97824334.03243  23889703.163    23889702.295    23889710.361
        39.000          20.000
 117811446.16547  91801128.46346  22418767.741    22418767.834    22418774.279
        43.000          40.000
 107711964.29948  83931421.00648  20496904.422    20496904.290    20496909.769
        51.000          53.000
 120191875.920 7  93482581.175 6  22452854.920    22452854.138    22452858.227
        45.000          38.000
 20  5  5  1 52  0.0000000  0 10G 8G 4R 5G 7G16R 4G26G27G 9R 3
 122169376.16646  95196921.14945  23248055.444    23248054.604    23248062.016
        39.000          34.000
 107887066.53447  84067862.10746  20530225.193    20530225.053    20530229.645
        46.000          40.000
 110943554.893 8  86289433.579 7  20754290.548    20754290.565    20754295.642
        50.000          43.000
 118947224.68447  92686145.41247  22634903.685    22634903.441    22634906.777
        44.000          42.000
 111791208.94647  87110051.14646  21273161.045    21273160.611    21273164.010
        46.000          36.000
 104697475.770 8  81431369.863 8  19551511.443    19551512.187    19551514.956
        51.000          48.000
 125715729.99946  97960313.95143  23922910.849    23922910.167    23922916.799
        38.000          20.000
 117823632.44047  91810624.27946  22421087.040    22421086.663    22421093.127
        43.000          41.000
 107752074.92648  83962676.03548  20504537.095    20504537.098    20504542.550
        50.000          53.000
 120395252.542 7  93640762.931 6  22490847.379    22490845.868    22490850.363
        44.000          38.000
 20  5  5  1 52 30.0000000  0 10G 8G 4R 5G 7G16R 4G26G27G 9R 3
 122144426.58546  95177479.94945  23243306.786    23243306.903    23243314.087
        40.000          34.000
 107997548.55947  84153951.98446  20551248.911    20551249.152    20551253.768
        47.000          41.000
 110937842.563 8  86284990.655 7  20753221.033    20753221.985    20753226.804
        50.000          44.000
 118952815.70947  92690502.06247  22635967.736    22635967.355    22635970.750
        44.000          42.000
 111934114.77247  87221406.31946  21300354.952    21300354.572    21300358.154
        47.000          36.000
 104817440.551 8  81524675.784 8  19573914.102    19573914.650    19573917.659
        51.000          48.000
 125890317.14346  98096355.82343  23956133.084    23956134.031    23956141.157
        38.000          20.000
 117836282.55847  91820481.53646  22423494.120    22423494.181    22423500.429
        43.000          41.000
 107792629.85148  83994277.26448  20512254.791    20512254.632    20512259.910
        50.000          53.000
 120598825.177 7  93799097.172 5  22528875.383    22528875.563    22528879.844
        44.000          34.000
 20  5  5  1 53  0.0000000  0 10G 8G 4R 5G 7G16R 4G26G27G 9R 3
 122119663.10546  95158183.76945  23238594.733    23238594.897    23238601.698
        39.000          35.000
 108108483.59848  84240394.85646  20572359.451    20572359.331    20572364.047
        48.000          40.000
 110932718.603 8  86281005.346 7  20752263.797    20752263.169    20752268.788
        51.000          44.000
 118958502.82847  92694933.58747  22637049.867    22637049.659    22637053.009
        44.000          42.000
 112077437.59147  87333086.41846  21327628.679    21327628.259    21327631.829
        47.000          36.000
 104938146.387 8  81618558.077 8  19596454.791    19596455.735    19596458.492
        51.000          48.000
 126064993.12846  98232466.94343  23989372.812    23989373.055    23989381.669
        37.000          20.000
 117849410.67047  91830711.24946  22425992.263    22425992.231    22425998.596
        43.000          41.000
 107833642.14748  84026234.89048  20520058.899    20520058.994    20520064.250
        50.000          53.000
 120802601.541 7  93957589.857 6  22566941.778    22566943.110    22566947.120
        44.000          39.000
 20  5  5  1 53 30.0000000  0 10G 8G 4R 5G 7G16R 4G26G27G 9R 3
 122095082.47446  95139030.04945  23233917.383    23233917.010    23233923.940
        39.000          35.000
 108219865.38947  84327185.84646  20593554.757    20593554.831    20593559.429
        47.000          40.000
 110928180.228 8  86277475.500 7  20751414.508    20751413.988    20751419.553
        50.000          44.000
 118964279.84247  92699435.16247  22638149.459    22638148.907    22638152.299
        44.000          42.000
 112221167.97347  87445084.10645  21354979.519    21354978.868    21354982.582
        47.000          35.000
 105059585.886 8  81713011.003 8  19619132.603    19619133.866    19619136.552
        51.000          48.000
 126239749.72946  98368640.86443  24022628.522    24022627.902    24022636.585
        37.000          20.000
 117863013.51547  91841310.88546  22428580.513    22428580.741    22428587.002
        42.000          41.000
 107875107.40648  84058545.48048  20527949.441    20527949.521    20527954.850
        51.000          53.000
 121006572.066 7  94116233.543 6  22605046.836    22605045.548    22605051.019
        44.000          39.000
 20  5  5  1 54  0.0000000  0 10G 8G 4R 5G 7G16R 4G26G27G 9R 3
 122070679.41646  95120014.71045  23229273.528    23229273.243    23229279.945
        39.000          35.000
 108331684.87147  84414317.89046  20614833.152    20614833.193    20614837.898
        47.000          40.000
 110924222.720 8  86274397.439 4  20750673.994    20750673.217    20750678.935
        50.000          29.000
 118970139.03647  92704000.76747  22639264.208    22639263.978    22639267.061
        45.000          42.000
 112365294.93047  87557390.80846  21382406.123    21382405.628    21382408.919
        46.000          36.000
 105181748.299 8  81808026.186 8  19641946.089    19641946.749    19641949.376
        52.000          49.000
 126414576.04846  98504869.08543  24055896.261    24055896.618    24055904.716
        36.000          19.000
 117877084.98647  91852275.68146  22431258.309    22431258.532    22431264.723
        43.000          41.000
 107917018.53848  84091203.50348  20535925.131    20535924.959    20535930.241
        51.000          53.000
 121210724.230 7  94275018.506 6  22643184.829    22643183.662    22643188.562
        44.000          39.000
 20  5  5  1 54 30.0000000  0 10G 8G 4R 5G 7G16R 4G26G27G 9R 3
 122046457.90146  95101140.82646  23224664.347    23224664.529    23224671.556
        40.000          36.000
 108443942.16048  84501791.08646  20636194.977    20636195.062    20636199.904
        48.000          40.000
 110920849.704 8  86271773.972 7  20750042.613    20750042.516    20750048.235
        50.000          43.000
 118976080.53547  92708630.52547  22640394.590    22640394.490    22640397.737
        44.000          42.000
 112509816.20248  87670004.77046  21409907.688    21409907.134    21409910.166
        48.000          36.000
 105304632.434 8  81903602.716 8  19664893.754    19664894.797    19664897.325
        51.000          48.000
 126589470.33045  98641150.29643  24089178.172    24089177.470    24089184.095
        35.000          18.000
 117891628.19247  91863608.06946  22434025.892    22434025.904    22434032.339
        43.000          41.000
 107959377.50648  84124210.48748  20543985.493    20543985.603    20543990.944
        50.000          53.000
 121415054.880 7  94433942.304 6  22681354.729    22681354.672    22681358.776
        44.000          39.000
 20  5  5  1 55  0.0000000  0 10G 8G 4R 5G 7G16R 4G26G27G 9R 3
 122022423.79246  95082412.98346  23220090.788    23220090.587    23220097.890
        39.000          36.000
 108556639.89347  84589607.47646  20657640.657    20657640.836    20657645.618
        47.000          40.000
 110918068.028 8  86269610.458 4  20749522.032    20749522.499    20749527.722
        50.000          28.000
 118982107.68147  92713327.01147  22641541.429    22641541.447    22641544.562
        44.000          42.000
 112654731.78447  87782925.98945  21437484.090    21437483.883    21437486.759
        47.000          35.000
 105428239.657 8  81999741.647 8  19687976.750    19687977.430    19687980.018
        51.000          48.000
 126764433.44445  98777485.10643  24122472.168    24122471.174    24122480.262
        34.000          18.000
 117906648.70647  91875312.37646  22436884.160    22436884.163    22436890.400
        43.000          41.000
 108002188.85748  84157569.97448  20552132.371    20552132.368    20552137.701
        51.000          53.000
 121619563.252 7  94593004.331 6  22719558.418    22719558.652    22719562.687
        44.000          38.000
 20  5  5  1 55 30.0000000  0 10G 8G 4R 5G 7G16R 4G26G27G 9R 3
 121998577.21946  95063831.25845  23215552.125    23215552.596    23215560.252
        39.000          35.000
 108669774.21148  84677764.07446  20679169.273    20679169.578    20679174.430
        48.000          40.000
 110915877.623 8  86267906.812 7  20749113.574    20749112.440    20749118.076
        50.000          44.000
 118988216.93547  92718087.47547  22642703.969    22642704.036    22642707.077
        45.000          42.000
 112800035.50247  87896149.65245  21465134.669    21465134.260    21465137.452
        46.000          35.000
 105552564.358 8  82096438.620 7  19711193.371    19711194.398    19711196.745
        51.000          47.000
 126939459.66445  98913869.09843  24155778.356    24155778.165    24155787.018
        35.000          18.000
 117922145.68447  91887387.95946  22439832.954    22439833.024    22439839.319
        43.000          41.000
 108045450.66748  84191280.46748  20560364.873    20560364.863    20560370.119
        51.000          53.000
 121824242.226 7  94752199.032 6  22757793.731    22757794.070    22757797.871
        44.000          38.000
 20  5  5  1 56  0.0000000  0 10G 8G 4R 5G 7G16R 4G26G27G 9R 3
 121974920.70146  95045397.61946  23211051.162    23211050.813    23211058.289
        39.000          36.000
 108783344.32648  84766260.25046  20700781.247    20700781.233    20700786.064
        48.000          40.000
 110914281.829 8  86266665.651 7  20748815.143    20748814.158    20748819.649
        50.000          44.000
 118994409.34647  92722912.73947  22643882.387    22643882.465    22643885.687
        44.000          42.000
 112945724.12147  88009673.23845  21492858.267    21492857.740    21492860.834
        47.000          35.000
 105677604.524 8  82193692.055 8  19734543.776    19734544.701    19734547.019
        51.000          48.000
 127114546.53745  99050300.36043  24189096.081    24189096.470    24189103.252
        34.000          18.000
 117938121.30047  91899836.50846  22442872.977    22442873.237    22442879.549
        42.000          41.000
 108089164.07148  84225342.84848  20568683.171    20568683.201    20568688.464
        50.000          53.000
 122029087.640 7  94911523.192 6  22796062.487    22796061.714    22796065.586
        44.000          38.000
 20  5  5  1 56 30.0000000  0 11G 8G 4R 5G 7G16R 4G26G27G 9R 3R23
 121951462.56346  95027118.58245  23206587.314    23206586.894    23206594.305
        39.000          35.000
 108897355.11048  84855099.80846  20722476.769    20722476.875    20722481.362
        48.000          40.000
 110913289.388 8  86265893.758 7  20748629.578    20748628.822    20748634.038
        50.000          44.000
 119000689.92347  92727806.70547  22645077.723    22645077.583    22645081.169
        45.000          43.000
 113091800.32647  88123498.83845  21520655.373    21520654.821    21520658.080
        47.000          34.000
 105803363.683 8  82291504.719 8  19758028.291    19758029.122    19758031.758
        51.000          48.000
 127289697.10746  99186781.23243  24222427.021    24222427.012    24222435.189
        36.000          19.000
 117954583.43447  91912664.15946  22446005.917    22446005.661    22446012.148
        43.000          41.000
 108133335.89748  84259762.45148  20577088.741    20577088.735    20577094.026
        51.000          53.000
 122234101.483 7  95070978.360 6  22834358.967    22834359.382    22834364.070
        43.000          38.000
 123675683.168 5  96192207.671    23119864.339    23119863.745    23119874.035
        35.000           1.000
 20  5  5  1 57  0.0000000  0 11G 8G 4R 5G 7G16R 4G26G27G 9R 3R23
 121928201.58946  95008993.16845  23202161.118    23202160.206    23202167.867
        39.000          35.000
 109011800.94247  84944278.36446  20744255.164    20744255.206    20744259.813
        47.000          40.000
 110912898.510 8  86265589.743 7  20748556.278    20748555.306    20748561.004
        50.000          44.000
 119007053.60847  92732765.42847  22646288.416    22646288.633    22646292.119
        45.000          42.000
 113238255.85047  88237620.00945  21548524.953    21548524.382    21548528.069
        46.000          34.000
 105929834.492 8  82389870.883 8  19781645.860    19781646.790    19781649.473
        51.000          48.000
 127464904.02846  99323306.01843  24255767.329    24255767.419    24255775.696
        37.000          20.000
 117971529.41347  91925868.81746  22449230.391    22449230.325    22449236.780
        43.000          41.000
 108177962.40848  84294536.34348  20585580.904    20585580.886    20585586.180
        51.000          53.000
 122439274.543 7  95230557.342 6  22872687.654    22872688.004    22872692.162
        44.000          38.000
 123686261.236 6  96200435.119 4  23121842.530    23121842.547    23121850.170
        37.000          25.000
 20  5  5  1 57 30.0000000  0 11G 8G 4R 5G 7G16R 4G26G27G 9R 3R23
 120329714.48846  93763418.82045  22897977.961    22897978.239    22897986.330
        38.000          35.000
 107551259.78048  83806194.33646  20466323.525    20466323.582    20466328.028
        48.000          40.000
 109310544.728 8  85019314.584 7  20448801.859    20448801.799    20448807.223
        50.000          44.000
 117438075.71647  91510185.26747  22347722.289    22347722.066    22347725.583
        45.000          43.000
 111809667.77247  87124434.47445  21276673.678    21276673.078    21276676.648
        47.000          34.000
 104451638.778 8  81240163.083 8  19505603.294    19505604.087    19505606.890
        50.000          48.000
 126064745.58546  98232273.41143  23989326.538    23989325.990    23989333.746
        37.000          20.000
 116413536.85347  90711848.65346  22152754.242    22152754.280    22152760.508
        42.000          41.000
 106647621.17248  83102062.64448  20294366.526    20294366.594    20294371.990
        49.000          53.000
 121039792.046 7  94142070.898 6  22611253.619    22611253.070    22611256.371
        43.000          38.000
 122093713.591 6  94961786.930 4  22824132.005    22824131.935    22824139.742
        37.000          26.000
 20  5  5  1 58  0.0000000  0 11G 8G 4R 5G 7G16R 4G26G27G 9R 3R23
 120306852.72046  93745604.46645  22893628.316    22893627.610    22893635.591
        39.000          35.000
 107666570.35147  83896046.70646  20488266.198    20488266.383    20488270.932
        47.000          40.000
 109311363.483 8  85019951.389 7  20448955.592    20448955.289    20448960.755
        51.000          44.000
 117444602.83447  91515271.33547  22348964.067    22348963.992    22348967.663
        45.000          43.000
 111956869.59347  87239137.17645  21304685.606    21304684.926    21304688.212
        46.000          34.000
 104579523.137 8  81339628.682 8  19529484.693    19529485.616    19529488.401
        50.000          48.000
 126240054.80146  98368877.95443  24022686.299    24022686.298    24022694.919
        37.000          19.000
 116431454.00147  90725810.08046  22156163.820    22156163.908    22156170.118
        43.000          41.000
 106693157.47948  83137545.47048  20303031.978    20303031.856    20303037.279
        51.000          53.000
 121245268.554 7  94301885.901 6  22649637.480    22649636.508    22649642.181
        44.000          38.000
 122105424.409 6  94970895.369 4  22826322.753    22826321.483    22826329.649
        38.000          27.000
 20  5  5  1 58 30.0000000  0 11G 8G 4R 5G 7G16R 4G26G27G 9R 3R23
 120284205.10546  93727956.98945  22889318.775    22889318.047    22889325.417
        39.000          35.000
 107782322.26947  83986242.99146  20510293.237    20510293.174    20510297.909
        47.000          40.000
 109312801.991 8  85021070.233 7  20449224.894    20449224.436    20449229.565
        51.000          44.000
 117451221.38447  91520428.64747  22350223.599    22350223.470    22350227.080
        45.000          43.000
 112104450.02647  87354134.90045  21332769.341    21332768.546    21332771.767
        47.000          34.000
 104708121.010 8  81439649.221 8  19553499.506    19553500.537    19553503.124
        51.000          48.000
 126415421.73646  98505527.42343  24056057.929    24056056.939    24056066.660
        38.000          20.000
 116449870.15847  90740160.34346  22159668.211    22159668.187    22159674.684
        43.000          41.000
 106739160.61048  83173392.05448  20311786.056    20311785.955    20311791.402
        51.000          53.000
 121450901.214 7  94461822.361 6  22688051.232    22688051.591    22688056.353
        43.000          38.000
 122117716.960 6  94980456.272 4  22828620.221    22828618.878    22828627.832
        36.000          27.000
 20  5  5  1 59  0.0000000  0 11G 8G 4R 5G 7G16R 4G26G27G 9R 3R23
 120261773.69146  93710477.98246  22885049.977    22885049.540    22885057.050
        40.000          36.000
 107898513.83348  84076781.85346  20532403.357    20532403.845    20532408.406
        48.000          40.000
 109314862.649 8  85022672.960 7  20449610.998    20449610.171    20449615.000
        51.000          44.000
 117457931.30647  91525657.16347  22351500.121    22351500.132    22351503.975
        44.000          43.000
 112252405.24247  87469424.65445  21360924.002    21360923.535    21360926.981
        46.000          34.000
 104837429.263 8  81540222.284 8  19577647.125    19577647.934    19577650.566
        51.000          48.000
 126590843.00246  98642219.26443  24089439.740    24089439.605    24089446.082
        36.000          18.000
 116468786.58447  90754900.42446  22163268.291    22163268.215    22163274.213
        43.000          41.000
 106785630.71548  83209602.51748  20320629.058    20320628.989    20320634.360
        49.000          53.000
 121656685.402 7  94621876.662 6  22726492.589    22726492.201    22726497.508
        42.000          38.000
 122130593.349 6  94990471.289 4  22831026.505    22831025.590    22831035.323
        37.000          28.000
 20  5  5  1 59 30.0000000  0 12G 8G 4R 5G 7G16R 4G26G27G 9G30R 3R23
 120239558.31246  93693167.31246  22880822.741    22880822.350    22880829.019
        40.000          36.000
 108015141.09248  84167660.22646  20554596.904    20554597.199    20554601.830
        48.000          40.000
 109317545.253 8  85024759.426 7  20450113.032    20450112.070    20450117.112
        52.000          44.000
 117464729.14947  91530954.18147  22352794.008    22352793.961    22352797.409
        43.000          43.000
 112400728.84647  87585001.46945  21389148.921    21389148.521    21389152.079
        45.000          34.000
 104967442.290 8  81641343.509 7  19601925.959    19601926.898    19601929.522
        51.000          47.000
 126766312.98546  98778949.05243  24122830.346    24122831.589    24122837.732
        36.000          18.000
 116488202.28447  90770029.54346  22166962.540    22166962.673    22166968.993
        44.000          41.000
 106832565.84748  83246175.33648  20329560.517    20329560.533    20329565.814
        51.000          53.000
 130312769.13645 101542415.80144  24797694.131    24797692.784    24797700.213
        35.000          25.000
 121862613.473 7  94782042.876 6  22764962.228    22764961.624    22764966.315
        43.000          38.000
 122144053.536 6  95000940.332 4  22833543.845    22833542.043    22833549.505
        37.000          28.000
 20  5  5  2  0  0.0000000  0 12G 8G 4R 5G 7G16R 4G26G27G 9G30R 3R23
 120217554.08946  93676021.18846  22876635.059    22876634.759    22876641.735
        40.000          36.000
 108132195.49148  84258871.42846  20576872.004    20576871.839    20576876.688
        48.000          39.000
 109320845.133 8  85027326.000 7  20450729.797    20450729.226    20450734.497
        51.000          44.000
 117471607.32647  91536313.79747  22354103.035    22354102.880    22354106.119
        45.000          43.000
 112549410.04047  87700856.92245  21417442.087    21417441.563    21417445.276
        47.000          34.000
 105098149.763 8  81743004.852 7  19626334.481    19626335.532    19626338.196
        51.000          47.000
 126941821.73646  98915709.04543  24156228.504    24156228.879    24156237.217
        36.000          18.000
 116508111.64347  90785543.34046  22170751.293    22170751.271    22170757.590
        44.000          41.000
 106879959.36948  83283105.33548  20338579.252    20338579.213    20338584.457
        51.000          53.000
 130296660.50445 101529863.62844  24794628.725    24794627.578    24794634.567
        34.000          25.000
 122068673.795 7  94942311.953 6  22803456.785    22803456.627    22803461.088
        43.000          38.000
 122158092.574 6  95011859.651 4  22836168.009    22836166.783    22836175.410
        39.000          27.000
 20  5  5  2  0 30.0000000  0 12G 8G 4R 5G 7G16R 4G26G27G 9G30R 3R23
 120195776.88946  93659051.95046  22872491.084    22872491.196    22872498.225
        40.000          37.000
 108249689.36348  84350425.07946  20599230.226    20599230.208    20599234.962
        48.000          40.000
 109324778.675 8  85030385.424    20451465.780    20451464.876    20451468.815
        51.000           4.000
 117478578.73147  91541746.06347  22355429.451    22355429.519    22355432.714
        45.000          43.000
 112698458.81247  87816998.79745  21445805.339    21445804.853    21445808.248
        46.000          34.000
 105229562.722 8  81845214.903    19650875.331    19650876.122    19650878.366
        51.000           1.000
 127117379.89746  99052507.53142  24189636.296    24189636.736    24189642.825
        36.000          17.000
 116528529.93047  90801453.70846  22174637.043    22174636.742    22174643.159
        44.000          41.000
 106927825.57048  83320403.66148  20347687.886    20347687.788    20347693.124
        51.000          53.000
 130280553.31845 101517312.56944  24791563.615    24791561.734    24791569.799
        34.000          25.000
 122274875.785 7  95102691.269 6  22841976.841    22841976.971    22841980.986
        42.000          37.000
 122172727.179 6  95023242.043 4  22838903.264    22838902.153    22838916.018
        38.000          27.000
 20  5  5  2  1  0.0000000  0 12G 8G 4R 5G 7G16R 4G26G27G 9G30R 3R23
 120174216.96746  93642252.01946  22868388.338    22868387.933    22868395.173
        40.000          37.000
 108367608.64548  84442310.21246  20621669.448    20621669.625    20621674.113
        48.000          40.000
 109329335.457 8                  20452317.219
        51.000
 117485630.46947  91547240.92747  22356771.172    22356771.004    22356774.379
        44.000          43.000
 112847858.73747  87933414.30745  21474235.160    21474234.665    21474237.900
        46.000          34.000
 105361664.890 8                  19675544.384
        51.000
 127292971.85446  99189332.36342  24223049.919    24223051.476    24223057.470
        36.000          17.000
 116549446.01347  90817751.95947  22178617.060    22178616.759    22178623.501
        43.000          42.000
 106976152.30948  83358060.84649  20356884.104    20356884.037    20356889.470
        50.000          54.000
 130264434.34645 101504752.31244  24788494.912    24788494.760    24788502.428
        34.000          25.000
 122481202.246 7                  22880520.343
        43.000
 122187946.835 6                  22841747.857
        39.000
 20  5  5  2  1 30.0000000  0 12G 8G 4R 5G 7G16R 4G26G27G 9G30R 3R23
 120152880.22246  93625626.00246  22864327.881    22864327.712    22864335.231
        40.000          36.000
 108485955.73747  84534528.70246  20644190.210    20644190.243    20644194.831
        47.000          40.000
 109334521.916 8                  20453287.764
        50.000
 117492765.41747  91552800.62647  22358128.713    22358128.688    22358132.276
        44.000          43.000
 112997610.01847  88050103.59545  21502731.708    21502731.424    21502734.997
        45.000          34.000
 105494457.344 8                  19700342.243
        51.000
 127468598.60346  99326184.35842  24256470.852    24256470.887    24256479.365
        37.000          17.000
 116570865.22447  90834442.27147  22182692.789    22182692.833    22182699.163
        44.000          42.000
 107024943.97348  83396080.32048  20366168.776    20366168.783    20366174.251
        51.000          53.000
 130248306.96845 101492185.51844  24785425.884    24785425.661    24785434.095
        35.000          25.000
 122687652.240 7                  22919087.599
        42.000
 122203758.223 6                  22844704.843
        37.000
 20  5  5  2  2  0.0000000  0 12G 8G 4R 5G 7G16R 4G26G27G 9G30R 3R23
 120131773.83346  93609179.47046  22860311.311    22860311.343    22860319.073
        40.000          37.000
 108604733.96147  84627083.13746  20666792.740    20666793.068    20666797.688
        47.000          39.000
 109340345.406 8                  20454376.311
        50.000
 117499988.21547  91558428.77347  22359503.084    22359502.959    22359506.813
        44.000          43.000
 113147713.59847  88167067.40345  21531295.136    21531294.920    21531298.935
        47.000          34.000
 105627941.794 8                  19725269.833
        51.000
 127644262.00345  99463064.82342  24289899.495    24289897.474    24289907.863
        35.000          16.000
 116592793.82247  90851529.50047  22186865.778    22186865.817    22186872.114
        44.000          42.000
 107074205.81848  83434466.16348  20375543.174    20375542.994    20375548.466
        50.000          53.000
 130232175.25845 101479615.35344  24782356.868    24782355.970    24782363.455
        34.000          25.000
 122894226.140 7                  22957676.076
        42.000
 122220168.108 6                  22847770.584
        38.000
 20  5  5  2  2 30.0000000  0 12G 8G 4R 5G 7G16R 4G26G27G 9G30R 3R23
 120110906.11746  93592918.93746  22856340.515    22856340.181    22856347.720
        40.000          37.000
 108723947.81647  84719977.03546  20689478.494    20689478.622    20689483.403
        47.000          39.000
 109346814.185 8                  20455586.345
        51.000
 117507304.67847  91564129.91947  22360895.351    22360895.454    22360899.279
        45.000          43.000
 113298171.94647  88284307.65645  21559927.076    21559926.321    21559929.943
        46.000          34.000
 105762121.040 8                  19750326.585
        51.000
 127819965.00646  99599976.19442  24323333.501    24323333.596    24323341.960
        36.000          17.000
 116615239.23347  90869019.44447  22191137.080    22191137.152    22191143.275
        43.000          42.000
 107123944.29448  83473223.40949  20385008.188    20385007.948    20385013.446
        51.000          54.000
 130216044.75245 101467046.11544  24779286.828    24779286.380    24779293.735
        34.000          25.000
 123100925.625 7  95745191.145 6  22996288.904    22996289.010    22996294.343
        42.000          36.000
 122237185.364 6                  22850952.875
        36.000
 20  5  5  2  3  0.0000000  0 12G 8G 4R 5G 7G16R 4G26G27G 9G30R 3R23
 120090259.67246  93576830.82246  22852411.603    22852411.484    22852418.600
        40.000          37.000
 108843576.19347  84813193.93046  20712242.733    20712243.072    20712247.810
        47.000          39.000
 109353910.744 8                  20456915.088
        51.000
 117514694.29047  91569888.05747  22362301.848    22362301.856    22362305.397
        45.000          43.000
 113448961.92647  88401806.32045  21588621.297    21588620.968    21588624.301
        47.000          34.000
 105896971.871 8                  19775509.257
        50.000
 127995685.08246  99736900.86242  24356772.787    24356772.242    24356782.065
        36.000          17.000
 116638183.25147  90886897.89947  22195502.836    22195503.069    22195509.050
        44.000          42.000
 107174140.16848  83512337.06549  20394560.054    20394559.835    20394565.428
        51.000          54.000
 130199895.15645 101454462.03344  24776214.169    24776213.458    24776220.785
        34.000          25.000
 123307726.098 6  95906035.898 6  23034920.770    23034921.121    23034926.437
        41.000          36.000
 122254792.330 6  95087072.653 4  22854244.421    22854244.480    22854252.218
        39.000          29.000
 20  5  5  2  3 30.0000000  0 12G 8G 4R 5G 7G16R 4G26G27G 9G30R 3R23
 120069867.56846  93560940.90046  22848531.401    22848531.383    22848538.320
        41.000          38.000
 108963648.10347  84906756.43046  20735091.975    20735092.139    20735096.834
        47.000          39.000
 109361668.574 8                  20458366.741
        51.000
 117522187.12147  91575726.62347  22363727.944    22363727.945    22363731.242
        45.000          43.000
 113600109.88047  88519583.92645  21617384.069    21617383.311    21617386.908
        46.000          33.000
 106032522.228 8  82469748.850 7  19800822.314    19800823.366    19800825.775
        51.000          47.000
 128171449.86946  99873860.35843  24390219.693    24390220.350    24390227.507
        36.000          18.000
 116661657.77647  90905189.74647  22199970.145    22199970.378    22199976.221
        44.000          42.000
 107224824.47148  83551831.31849  20404204.860    20404204.845    20404210.280
        49.000          54.000
 130183756.53845 101441886.47944  24773143.234    24773142.049    24773150.546
        35.000          26.000
 123514654.064 6  96066979.791 5  23073576.688    23073576.804    23073581.957
        41.000          35.000
 122273022.149 6  95101251.410 4  22857652.560    22857651.603    22857660.033
        39.000          29.000
 20  5  5  2  4  0.0000000  0 12G 8G 4R 5G 7G16R 4G26G27G 9G30R 3R23
 120049714.72746  93545237.40446  22844696.203    22844696.350    22844703.156
        41.000          38.000
 109084144.75147  85000649.89646  20758021.820    20758021.764    20758026.613
        47.000          39.000
 109370072.448 8                  20459938.945
        51.000
 117529765.59047  91581631.92847  22365170.102    22365169.970    22365173.428
        46.000          44.000
 113751594.97747  88637624.23145  21646210.852    21646210.298    21646213.506
        46.000          33.000
 106168751.080 8  82575704.607 7  19826261.981    19826262.923    19826265.504
        50.000          47.000
 128347239.20046 100010839.01343  24423671.403    24423670.851    24423679.031
        37.000          19.000
 116685646.96547  90923882.61947  22204534.970    22204535.154    22204541.428
        44.000          42.000
 107275980.35748  83591693.04049  20413939.677    20413939.580    20413944.824
        52.000          54.000
 130167611.02645 101429305.55844  24770069.538    24770069.919    24770077.888
        35.000          26.000
 123721687.498 7  96228005.723 6  23112253.501    23112252.157    23112257.209
        42.000          36.000
 122291859.964 6  95115903.035 4  22861172.588    22861173.043    22861181.135
        39.000          29.000
