     2.11           OBSERVATION DATA    M (MIXED)           RINEX VERSION / TYPE
teqc  2008Oct2                          20220524 02:03:37UTCPGM / RUN BY / DATE
MSXP|IAx86-PII|bcc32 5.0|MSWin95->XP|486/DX+                COMMENT
BIT 2 OF LLI FLAGS DATA COLLECTED UNDER A/S CONDITION       COMMENT
-Unknown-                                                   MARKER NAME
-Unknown-           -Unknown-                               OBSERVER / AGENCY
235-1829            TPS E_GGD           2.3 Aug,01,2003 p2  REC # / TYPE / VERS
-Unknown-           -Unknown-                               ANT # / TYPE
  1240234.9615  4530662.6421  4302598.1061                  APPROX POSITION XYZ
        0.0000        0.0000        0.0000                  ANTENNA: DELTA H/E/N
     1     1                                                WAVELENGTH FACT L1/2
     7    L1    L2    C1    P1    P2    S1    S2            # / TYPES OF OBSERV
 SNR is mapped to RINEX snr flag value [0-9]                COMMENT
  L1 & L2: min(max(int(snr_dBHz/6), 0), 9)                  COMMENT
pseudorange smoothing corrections not applied               COMMENT
rx board ID = AGUS451XLHC                                   COMMENT
  2020     5     4     0     0    0.0000000     GPS         TIME OF FIRST OBS
    14                                                      LEAP SECONDS
                                                            END OF HEADER
 20  5  4  0  0  0.0000000  0 10G22G 3G31G14G 9R 1G16G26G 4R 3
 117524014.34547  91577177.69845  22364071.555    22364070.472    22364071.700
        46.000          34.000
 110441367.94348  86058227.51748  21016291.283    21016291.454    21016296.678
        49.000          51.000
 120816451.57247  94142695.44646  22990604.136    22990604.119    22990606.573
        43.000          39.000
 127083150.27946  99025837.58742  24183115.798    24183116.438    24183119.720
        37.000          14.000
 124359141.40346  96903224.16945  23664752.410    23664751.859    23664757.233
        39.000          35.000
 121412054.674 6  94431564.438 4  22712623.699    22712632.529    22712640.643
        40.000          29.000
 111482248.81747  86869288.79846  21214364.282    21214364.040    21214367.097
        47.000          37.000
 110366351.28547  85999761.21248  21002015.357    21002015.160    21002021.903
        47.000          49.000
 111126612.52947  86592171.28646  21146682.140    21146682.010    21146685.935
        46.000          37.000
 114023888.925 8  88685267.798 7  21338015.587    21338015.234    21338018.175
        48.000          43.000
 20  5  4  0  0 30.0000000  0 10G22G 3G31G14G 9R 1G16G26G 4R 3
 117673223.33447  91693444.43745  22392465.105    22392463.961    22392465.625
        46.000          34.000
 110553027.50448  86145234.95648  21037539.317    21037539.520    21037544.898
        49.000          50.000
 120974554.86847  94265892.77746  23020689.467    23020689.773    23020692.507
        42.000          38.000
 127232196.92246  99141977.72142  24211478.962    24211477.788    24211482.117
        37.000          14.000
 124334886.27846  96884324.07845  23660136.012    23660136.183    23660141.792
        40.000          35.000
 121594997.500 6  94573853.260 4  22746844.627    22746855.411    22746858.409
        39.000          27.000
 111480458.57847  86867893.80146  21214023.710    21214023.195    21214026.392
        47.000          37.000
 110446114.48148  86061914.34748  21017193.651    21017193.802    21017200.146
        48.000          49.000
 111140493.64647  86602987.74546  21149323.362    21149323.490    21149327.442
        46.000          37.000
 114191363.836 8  88815526.092 1  21331905.502    21331905.398    21331908.884
        48.000           7.000
 20  5  4  0  1  0.0000000  0 10G22G 3G31G14G 9R 1G16G26G 4R 3
 117822769.98247  91809974.27645  22420922.883    22420921.727    22420923.405
        46.000          34.000
 110665241.69948  86232674.57348  21058892.829    21058893.208    21058898.597
        49.000          50.000
 121132753.18447  94389164.13646  23050793.610    23050793.864    23050796.905
        42.000          38.000
 127381395.28146  99258236.14542  24239870.353    24239870.182    24239874.633
        37.000          14.000
 124310698.13346  96865476.17045  23655533.113    23655533.084    23655538.782
        39.000          35.000
 121778216.836 6  94716357.174    22781120.024    22781131.181    22781137.799
        39.000           4.000
 111479216.29447  86866925.78546  21213787.206    21213786.714    21213790.182
        47.000          37.000
 110526490.74647  86124545.19148  21032488.791    21032488.876    21032495.243
        47.000          49.000
 111154630.75247  86614003.66946  21152013.629    21152013.576    21152017.375
        46.000          36.000
 114158937.500 8                  21325847.545
        48.000
 20  5  4  0  1 30.0000000  0 10G22G 3G31G14G 9R 1G16G26G 4R 3
 117972642.82447  91926758.28945  22449442.689    22449441.658    22449442.984
        46.000          34.000
 110778000.57648  86320538.61848  21080350.002    21080350.437    21080355.867
        49.000          51.000
 121291036.35747  94512501.63046  23080914.632    23080914.794    23080917.114
        43.000          39.000
 127530736.32446  99374605.71942  24268288.384    24268287.820    24268292.664
        36.000          15.000
 124286569.65246  96846674.77546  23650942.045    23650941.430    23650947.299
        39.000          36.000
 121961701.498 6                  22815443.548
        39.000
 111478515.77047  86866379.92246  21213653.779    21213653.341    21213656.774
        47.000          37.000
 110607470.78647  86187646.51148  21047898.888    21047898.786    21047905.362
        47.000          49.000
 111169016.65847  86625213.46646  21154750.956    21154751.380    21154755.095
        46.000          37.000
 114126787.375 8                  21319841.855
        48.000
 20  5  4  0  2  0.0000000  0 10G22G 3G31G14G 9R 1G16G26G 4R 3
 118122839.31647  92043794.50245  22478024.257    22478023.256    22478024.657
        46.000          34.000
 110891302.11748  86408825.52148  21101910.579    21101911.021    21101916.444
        49.000          51.000
 121449402.20747  94635903.54246  23111050.736    23111050.747    23111053.214
        42.000          39.000
 127680218.78646  99491085.49142  24296735.502    24296733.074    24296738.861
        36.000          15.000
 124262501.35446  96827920.26446  23646361.529    23646361.509    23646367.654
        39.000          36.000
 122145448.824 6                  22849818.787
        40.000
 111478358.99747  86866257.75146  21213624.232    21213623.695    21213627.119
        47.000          37.000
 110689053.25848  86251217.26548  21063423.396    21063423.550    21063429.926
        49.000          49.000
 111183652.08747  86636617.69746  21157536.127    21157536.138    21157540.059
        46.000          37.000
 114094915.896 8                  21313887.741
        48.000
 20  5  4  0  2 30.0000000  0 10G22G 3G31G14G 9R 1G16G26G 4R 3
 116697951.85647  90933492.56245  22206877.099    22206876.229    22206877.678
        46.000          33.000
 109429738.46348  85269944.74048  20823784.294    20823784.639    20823790.150
        48.000          51.000
 120032444.70346  93531780.76746  22841412.294    22841412.467    22841415.354
        41.000          39.000
 126254437.23145  98380086.81442  24025416.379    24025415.403    24025417.914
        35.000          15.000
 122663083.54346  95581620.69146  23342002.962    23342002.725    23342008.613
        40.000          36.000
 120726910.215 6                  22584451.208
        40.000
 109903338.10148  85638968.73446  20913907.557    20913907.541    20913910.354
        48.000          37.000
 109195829.96448  85087666.63948  20779272.552    20779272.495    20779278.897
        48.000          49.000
 109623128.74147  85420625.48446  20860578.486    20860578.642    20860582.374
        46.000          37.000
 112458523.115 8  87467751.079 7  21008195.238    21008195.601    21008197.958
        48.000          43.000
 20  5  4  0  3  0.0000000  0 10G22G 3G31G14G 9R 1G16G26G 4R 3
 116848799.71547  91051036.32645  22235582.660    22235581.613    22235583.216
        45.000          33.000
 109544132.51248  85359082.94848  20845552.970    20845553.171    20845558.604
        49.000          50.000
 120190983.02947  93655317.07246  22871581.576    22871581.270    22871584.267
        43.000          39.000
 126404213.00445  98496795.14342  24053918.495    24053920.290    24053922.637
        34.000          13.000
 122639150.92346  95562971.90346  23337448.662    23337448.816    23337454.150
        40.000          37.000
 120911187.886 6  94042014.155 5  22618925.242    22618936.068    22618942.936
        41.000          31.000
 109904287.44048  85639708.47546  20914088.454    20914087.990    20914090.983
        48.000          37.000
 109278626.48947  85152183.40448  20795028.206    20795028.081    20795034.691
        47.000          49.000
 109638278.86347  85432430.76946  20863461.639    20863461.683    20863465.359
        47.000          37.000
 112427231.315 8  87443413.008 7  21002350.652    21002350.632    21002352.509
        48.000          43.000
 20  5  4  0  3 30.0000000  0 10G22G 3G31G14G 9R 1G16G26G 4R 3
 116999968.69947  91168830.32145  22264349.008    22264348.375    22264349.208
        45.000          34.000
 109659069.50948  85448644.23348  20867424.722    20867424.944    20867430.361
        48.000          50.000
 120349604.11047  93778917.86446  22901766.095    22901766.187    22901768.611
        42.000          39.000
 126554133.83645  98613616.53642  24082447.056    24082446.188    24082450.736
        34.000          12.000
 122615286.90846  95544376.58646  23332907.321    23332907.742    23332912.724
        40.000          37.000
 121095726.395 6  94185544.053 5  22653446.991    22653457.544    22653464.349
        41.000          31.000
 109905792.65047  85640881.36046  20914375.039    20914374.223    20914377.557
        47.000          37.000
 109362027.82748  85217171.44748  20810898.959    20810898.963    20810905.326
        48.000          49.000
 109653687.33247  85444437.35946  20866393.512    20866393.866    20866397.610
        46.000          38.000
 112396233.344 8  87419303.471 7  20996559.662    20996560.105    20996561.838
        49.000          44.000
 20  5  4  0  4  0.0000000  0 10G22G 3G31G14G 9R 1G16G26G 4R 3
 117151450.13147  91286867.78245  22293175.075    22293174.141    22293175.225
        46.000          33.000
 109774541.65448  85538622.51848  20889398.237    20889398.512    20889404.008
        48.000          50.000
 120508300.06947  93902577.01746  22931964.636    22931965.022    22931967.718
        42.000          38.000
 126704192.96645  98730545.69242  24111002.624    24111003.008    24111006.099
        35.000          13.000
 122591486.43546  95525830.77746  23328378.684    23328378.154    23328383.244
        39.000          36.000
 121280516.614 6  94329269.720 5  22688015.914    22688025.945    22688034.273
        41.000          31.000
 109907849.15647  85642483.82546  20914765.914    20914765.938    20914768.831
        47.000          38.000
 109446026.75448  85282625.15148  20826883.693    20826883.421    20826889.805
        48.000          49.000
 109669349.19247  85456641.40546  20869374.159    20869374.064    20869377.844
        46.000          38.000
 112365526.243 8  87395420.167 7  20990823.347    20990823.805    20990825.961
        49.000          44.000
 20  5  4  0  4 30.0000000  0 10G22G 3G31G14G 9R 1G16G26G 4R 3
 117303252.27647  91405155.15645  22322062.131    22322061.041    22322062.595
        45.000          33.000
 109890557.95048  85629024.81548  20911475.712    20911475.685    20911481.241
        49.000          50.000
 120667080.03447  94026301.62346  22962179.745    22962179.857    22962182.177
        42.000          38.000
 126854400.59945  98847590.52642  24139587.564    24139584.923    24139588.981
        34.000          12.000
 122567761.27146  95507343.65346  23323862.846    23323862.724    23323868.232
        39.000          36.000
 121465566.848 6  94473197.626 5  22722634.078    22722644.141    22722651.771
        41.000          31.000
 109910470.31047  85644526.27846  20915265.073    20915264.521    20915267.446
        47.000          37.000
 109530632.97348  85348552.06048  20842983.606    20842983.583    20842989.987
        48.000          49.000
 109685276.36947  85469052.18646  20872404.852    20872405.058    20872408.833
        47.000          38.000
 112335124.416 8  87371774.297 7  20985144.177    20985144.878    20985147.055
        49.000          44.000
 20  5  4  0  5  0.0000000  0 10G22G 3G31G14G 9R 1G16G26G 4R 3
 117455363.32647  91523683.23445  22351007.731    22351006.753    22351008.188
        45.000          33.000
 110007107.61548  85719842.71948  20933653.695    20933654.401    20933659.919
        48.000          50.000
 120825933.28346  94150083.32446  22992408.162    22992408.539    22992410.922
        41.000          37.000
 127004746.64045  98964743.26742  24168196.893    24168194.148    24168199.395
        34.000          12.000
 122544103.48846  95488909.03345  23319360.875    23319360.538    23319366.633
        39.000          35.000
 121650865.965 6  94617319.092 5  22757297.368    22757307.796    22757316.637
        40.000          32.000
 109913649.32348  85647003.42546  20915870.053    20915869.502    20915872.495
        48.000          37.000
 109615836.33348  85414944.28448  20859197.296    20859197.123    20859203.542
        48.000          49.000
 109701460.97847  85481663.56446  20875484.922    20875485.132    20875488.755
        47.000          38.000
 112305021.500 8  87348360.912 7  20979520.457    20979520.704    20979523.517
        49.000          44.000
 20  5  4  0  5 30.0000000  0 10G22G 3G31G14G 9R 1G16G26G 4R 3
 117607792.58847  91642459.25545  22380014.258    22380012.935    22380014.512
        46.000          33.000
 110124200.74648  85811084.11248  20955936.059    20955936.404    20955942.031
        48.000          50.000
 120984869.96747  94273930.03446  23022653.232    23022653.455    23022655.627
        42.000          37.000
 127155242.85345  99082012.92342  24196835.604    24196834.684    24196839.017
        34.000          13.000
 122520525.95846  95470536.94945  23314874.187    23314874.035    23314879.772
        39.000          35.000
 121836423.015 6  94761641.238 5  22792010.366    22792020.037    22792028.796
        39.000          32.000
 109917400.00547  85649926.02746  20916583.387    20916583.011    20916586.380
        47.000          37.000
 109701647.59447  85481810.19448  20875526.557    20875526.653    20875532.928
        47.000          49.000
 109717916.09247  85494485.72646  20878616.133    20878616.225    20878620.044
        47.000          38.000
 112275233.145 8  87325192.189 7  20973956.045    20973955.959    20973958.875
        49.000          44.000
 20  5  4  0  6  0.0000000  0 10G22G 3G31G14G 9R 1G16G26G 4R 3
 117760532.87447  91761477.65145  22409079.802    22409078.402    22409080.220
        46.000          33.000
 110241830.85448  85902743.92348  20978320.562    20978320.568    20978326.240
        48.000          50.000
 121143883.67247  94397836.78446  23052912.868    23052912.798    23052915.106
        42.000          38.000
 127305883.77345  99199395.40042  24225501.618    24225500.852    24225503.849
        34.000          12.000
 122497025.10146  95452224.60246  23310401.990    23310401.914    23310407.825
        39.000          36.000
 122022231.213 6  94906158.639 5  22826769.744    22826778.972    22826787.188
        39.000          32.000
 109921719.72847  85653292.04046  20917405.588    20917405.034    20917408.244
        47.000          38.000
 109788060.96248  85549145.27348  20891970.763    20891970.551    20891976.940
        48.000          49.000
 109734638.18547  85507515.92546  20881798.214    20881798.246    20881802.143
        46.000          38.000
 112245757.738 8  87302266.869 7  20968449.480    20968449.823    20968452.608
        49.000          44.000
 20  5  4  0  6 30.0000000  0 10G22G 3G31G14G 9R 1G16G26G 4R 3
 117913576.21947  91880732.17945  22438202.904    22438201.747    22438203.409
        44.000          33.000
 110359990.94948  85994816.70848  21000805.467    21000805.771    21000811.316
        48.000          50.000
 121302967.51947  94521798.17246  23083184.932    23083185.191    23083187.679
        42.000          38.000
 127456663.21945  99316885.81741  24254192.776    24254192.064    24254196.989
        34.000          11.000
 122473596.73846  95433968.73646  23305944.626    23305944.036    23305949.522
        39.000          36.000
 122208282.297 6  95050864.997 5  22861571.438    22861583.979    22861592.515
        39.000          32.000
 109926605.30647  85657098.97746  20918335.294    20918334.613    20918338.110
        47.000          38.000
 109875070.02348  85616944.52848  20908527.651    20908527.732    20908534.191
        48.000          49.000
 109751623.19847  85520750.99346  20885030.269    20885030.333    20885034.275
        47.000          38.000
 112216593.320 8  87279583.427 7  20963001.646    20963001.022    20963004.289
        49.000          44.000
 20  5  4  0  7  0.0000000  0 10G22G 3G31G14G 9R 1G16G26G 4R 3
 118066920.07247  92000220.87945  22467382.760    22467381.704    22467383.599
        45.000          32.000
 110478679.26848  86087301.10148  21023391.492    21023391.592    21023396.971
        48.000          50.000
 121462120.07147  94645813.11346  23113470.740    23113471.110    23113473.734
        42.000          37.000
 127607580.96245  99434483.95041  24282912.172    24282910.433    24282913.326
        33.000          10.000
 122450242.12146  95415770.35146  23301499.684    23301500.264    23301505.466
        39.000          36.000
 122394574.016 6  95195758.503 5  22896420.501    22896433.322    22896441.651
        38.000          32.000
 109932058.83348  85661348.47346  20919373.021    20919372.679    20919375.600
        48.000          38.000
 109962673.72848  85685207.14948  20925198.291    20925198.146    20925204.538
        48.000          49.000
 109768872.50247  85534192.00546  20888312.889    20888312.682    20888316.767
        47.000          38.000
 112187743.216 8  87257144.451 7  20957612.469    20957611.642    20957614.620
        48.000          44.000
 20  5  4  0  7 30.0000000  0 10G22G 3G31G14G 9R 1G16G26G 4R 3
 118220568.18847  92119946.66345  22496621.505    22496620.180    22496621.978
        45.000          32.000
 110597900.29948  86180200.58648  21046078.386    21046078.670    21046084.062
        48.000          50.000
 121621345.83847  94769885.08946  23143770.654    23143770.813    23143773.326
        42.000          38.000
 127758642.49945  99552194.19141  24311658.275    24311657.247    24311665.506
        33.000          10.000
 122426968.59246  95397635.15046  23297071.761    23297071.569    23297076.620
        40.000          37.000
 122581110.400 6  95340842.304 5  22931316.550    22931329.700    22931337.369
        38.000          32.000
 109938088.77347  85666047.12546  20920520.603    20920519.957    20920523.127
        47.000          38.000
 110050877.16448  85753937.09448  20941982.799    20941982.687    20941989.140
        48.000          49.000
 109786393.54647  85547844.76046  20891646.786    20891646.922    20891650.799
        47.000          38.000
 112159217.195 8  87234957.545 7  20952283.155    20952282.652    20952285.593
        48.000          44.000
 20  5  4  0  8  0.0000000  0 10G22G 3G31G14G 9R 1G16G26G 4R 3
 118374508.70047  92239900.28745  22525915.178    22525914.065    22525915.916
        44.000          32.000
 110717642.76348  86273506.38848  21068864.561    21068864.965    21068870.321
        48.000          50.000
 121780633.98947  94894005.67146  23174081.892    23174082.264    23174085.044
        42.000          37.000
 127909837.92545  99670008.74241  24340430.519    24340431.118    24340431.535
        33.000           8.000
 122403767.90646  95379556.70346  23292657.028    23292656.614    23292661.926
        40.000          37.000
 122767878.887 6  95486106.624 5  22966257.580    22966267.688    22966276.843
        38.000          31.000
 109944687.92547  85671189.32146  20921776.296    20921775.916    20921779.131
        47.000          38.000
 110139669.70547  85823126.07248  20958879.479    20958879.408    20958885.885
        47.000          48.000
 109804178.13547  85561702.87346  20895031.119    20895031.232    20895035.212
        46.000          38.000
 112131009.102 8  87213017.906 7  20947013.967    20947013.279    20947016.028
        49.000          44.000
 20  5  4  0  8 30.0000000  0 10G22G 3G31G14G 9R 1G16G26G 4R 3
 118528745.07547  92360084.45845  22555265.052    22555264.226    22555266.344
        44.000          32.000
 110837911.36848  86367222.17348  21091750.929    21091751.252    21091756.580
        48.000          50.000
 121939989.17247  95018178.49446  23204406.931    23204406.834    23204409.325
        42.000          37.000
 128061172.91945  99787932.03541  24369229.052    24369227.689    24369230.098
        32.000           7.000
 122380647.75946  95361541.00146  23288257.116    23288256.843    23288262.162
        41.000          37.000
 122954883.827 6  95631554.852 5  23001242.091    23001251.445    23001259.603
        39.000          31.000
 109951864.77848  85676781.66846  20923142.168    20923141.797    20923145.056
        48.000          38.000
 110229056.69448  85892778.26848  20975889.174    20975889.258    20975895.683
        48.000          49.000
 109822234.06647  85575772.42746  20898467.085    20898467.173    20898471.070
        47.000          38.000
 112103128.711 8  87191333.162 7  20941805.053    20941805.070    20941807.546
        49.000          44.000
 20  5  4  0  9  0.0000000  0 10G22G 3G31G14G 9R 1G16G26G 4R 3
 118683277.02147  92480498.93545  22584671.704    22584670.603    22584672.988
        44.000          32.000
 110958706.25048  86461348.03948  21114737.382    21114737.762    21114743.091
        48.000          50.000
 122099411.90747  95142403.95546  23234743.621    23234743.723    23234746.529
        42.000          37.000
 128212649.03545  99905965.27441  24398054.185    24398054.432    24398055.473
        31.000           7.000
 122357611.29646  95343590.52146  23283873.207    23283873.458    23283878.596
        41.000          37.000
 123142124.738 6  95777186.629 5  23036267.814    23036278.759    23036287.350
        39.000          31.000
 109959623.28247  85682827.25346  20924618.753    20924618.219    20924621.186
        47.000          38.000
 110319038.90447  85962894.26248  20993012.286    20993012.273    20993018.774
        47.000          49.000
 109840564.55547  85590055.91846  20901955.392    20901955.562    20901959.283
        47.000          38.000
 112075581.474 8  87169907.532 7  20936659.042    20936659.364    20936661.842
        49.000          44.000
 20  5  4  0  9 30.0000000  0 10G22G 3G31G14G 9R 1G16G26G 4R 3
 118838097.09347  92601137.92945  22614133.045    22614132.147    22614133.898
        44.000          32.000
 111080020.53848  86555878.63648  21137822.911    21137823.074    21137828.419
        48.000          50.000
 122258895.58447  95266676.90246  23265091.714    23265092.432    23265095.095
        42.000          37.000
 128364260.79445 100024104.2614   24426904.137    24426910.647    24426909.609
        31.000           5.000
 122334654.72246  95325702.29646  23279505.069    23279504.755    23279509.877
        41.000          37.000
 123329593.890 6  95922995.913 5  23071339.999    23071349.729    23071356.502
        40.000          30.000
 109967960.50847  85689323.78746  20926204.933    20926204.645    20926207.676
        47.000          38.000
 110409610.08347  86033469.20148  21010247.431    21010247.251    21010253.803
        47.000          49.000
 109859165.87247  85604550.44046  20905494.811    20905495.063    20905498.793
        47.000          38.000
 112048365.611 8  87148739.627 7  20931575.375    20931575.175    20931577.886
        49.000          44.000
 20  5  4  0 10  0.0000000  0 10G22G 3G31G14G 9R 1G16G26G 4R 3
 118993205.32547  92722001.47445  22643649.696    22643648.264    22643650.092
        45.000          32.000
 111201855.46048  86650814.92148  21161007.504    21161007.617    21161012.899
        48.000          49.000
 122418441.60847  95390998.43546  23295453.210    23295453.132    23295455.717
        42.000          36.000
 128516010.51745 100142350.81841  24455780.837    24455779.426    24455788.807
        30.000           6.000
 122311782.31346  95307879.63946  23275152.177    23275152.181    23275157.379
        40.000          38.000
 123517292.001 6  96068983.285 5  23106451.100    23106460.958    23106469.600
        39.000          30.000
 109976881.49747  85696275.20446  20927902.479    20927901.854    20927905.168
        47.000          38.000
 110500772.06748  86104504.50548  21027595.114    21027595.070    21027601.462
        48.000          49.000
 109878042.41147  85619259.43446  20909087.007    20909087.255    20909091.090
        46.000          38.000
 112021487.973 8  87127834.795 7  20926554.070    20926554.244    20926556.675
        49.000          45.000
 20  5  4  0 10 30.0000000  0 10G22G 3G31G14G 9R 1G16G26G 4R 3
 119148607.23647  92843093.84545  22673221.441    22673220.498    22673222.080
        45.000          32.000
 111324216.72948  86746161.35048  21184291.846    21184292.237    21184297.471
        48.000          49.000
 122578056.39346  95515373.56246  23325826.923    23325827.045    23325829.337
        40.000          36.000
 128667905.25745 100260710.30641  24484685.850    24484685.351    24484689.006
        30.000           6.000
 122289002.96846  95290129.51146  23270817.467    23270817.062    23270822.583
        40.000          38.000
 123705224.512 6  96215152.972 5  23141608.341    23141619.330    23141626.480
        40.000          30.000
 109986395.60547  85703688.79646  20929713.137    20929712.417    20929715.640
        47.000          38.000
 110592531.22848  86176005.14048  21045056.334    21045056.138    21045062.761
        48.000          49.000
 109897203.05847  85634189.80546  20912733.223    20912733.272    20912737.246
        46.000          38.000
 111994959.241 8  87107201.334 7  20921598.443    20921598.453    20921600.884
        49.000          44.000
 20  5  4  0 11  0.0000000  0 10G22G 3G31G14G 9R 1G16G26G 4R 3
 119304299.06047  92964412.13945  22702848.960    22702847.931    22702849.218
        45.000          32.000
 111447101.41748  86841915.63348  21207676.076    21207676.545    21207681.651
        49.000          50.000
 122737737.30447  95639800.20646  23356213.216    23356213.091    23356215.739
        42.000          36.000
 128819943.19745 100379181.3424   24513618.631    24513612.920    24513622.654
        30.000           5.000
 122266316.78246  95272451.97646  23266500.282    23266500.217    23266505.656
        41.000          38.000
 123893387.694 6  96361502.055 5  23176805.733    23176818.495    23176825.623
        40.000          30.000
 109996503.70247  85711565.22746  20931636.471    20931635.983    20931639.197
        47.000          37.000
 110684885.22547  86247969.28148  21062630.506    21062630.482    21062636.970
        47.000          49.000
 109916648.04447  85649341.73946  20916433.039    20916433.350    20916437.506
        47.000          38.000
 111968782.217 8  87086841.419 7  20916708.292    20916708.371    20916711.033
        49.000          45.000
 20  5  4  0 11 30.0000000  0 10G22G 3G31G14G 9R 1G16G26G 4R 3
 119460276.20447  93085952.74745  22732530.228    22732529.045    22732530.559
        45.000          32.000
 111570505.71048  86938074.80748  21231159.276    21231159.706    21231164.743
        48.000          50.000
 122897481.12746  95764275.85546  23386611.714    23386611.533    23386614.275
        41.000          36.000
 128972122.10845 100497762.2724   24542576.550    24542575.624    24542579.396
        32.000           4.000
 122243723.22546  95254846.61346  23262200.810    23262200.898    23262206.214
        40.000          38.000
 124081777.030 6  96508027.055 4  23212047.089    23212060.593    23212069.499
        40.000          29.000
 110007206.13447  85719904.77846  20933673.231    20933672.471    20933675.806
        47.000          38.000
 110777830.86848  86320394.45348  21080318.020    21080317.616    21080324.022
        48.000          48.000
 109936376.81947  85664714.81046  20920187.574    20920187.549    20920191.867
        46.000          38.000
 111942958.408 8  87066756.232 7  20911884.270    20911884.169    20911887.060
        49.000          45.000
 20  5  4  0 12  0.0000000  0 10G22G 3G31G14G 9R 1G16G26G 4R 3
 119616536.51647  93207714.01345  22762265.639    22762264.573    22762266.579
        45.000          32.000
 111694427.91948  87034637.55248  21254740.852    21254741.258    21254746.349
        48.000          50.000
 123057286.16147  95888799.21446  23417021.730    23417021.975    23417024.245
        42.000          36.000
 129124441.36845 100616452.53841  24571563.359    24571562.964    24571563.326
        32.000           7.000
 122221223.71046  95237314.54346  23257919.513    23257919.715    23257924.548
        40.000          38.000
 124270390.271 6  96654726.183 5  23247331.003    23247343.976    23247353.242
        39.000          30.000
 110018505.03647  85728709.10546  20935823.292    20935822.523    20935825.988
        47.000          38.000
 110871367.06547  86393279.79048  21098117.071    21098116.957    21098123.438
        47.000          49.000
 109956390.86647  85680310.16346  20923996.117    20923996.124    20924000.323
        47.000          38.000
 111917491.190 8  87046948.387 7  20907127.344    20907127.068    20907129.353
        49.000          45.000
 20  5  4  0 12 30.0000000  0 10G22G 3G31G14G 9R 1G16G26G 4R 3
 119773074.33247  93329691.50745  22792053.529    22792052.528    22792054.845
        44.000          32.000
 111818863.41048  87131600.26248  21278420.195    21278420.460    21278425.712
        48.000          50.000
 123217148.35846  96013367.12045  23447442.095    23447442.441    23447444.887
        41.000          35.000
 129276897.63845 100735249.4254   24600573.905    24600561.396    24600584.025
        30.000           2.000
 122198816.83646  95219854.64346  23253655.548    23253655.801    23253660.626
        41.000          38.000
 124459222.240 6  96801595.424 5  23282659.611    23282669.111    23282677.795
        39.000          30.000
 110030399.62248  85737977.60746  20938086.492    20938086.082    20938089.410
        48.000          38.000
 110965489.79147  86466622.16548  21116028.019    21116027.824    21116034.176
        47.000          48.000
 109976688.85347  85696126.77346  20927858.943    20927859.100    20927862.821
        47.000          38.000
 111892381.476 8  87027418.614 7  20902436.549    20902436.528    20902438.499
        50.000          45.000
 20  5  4  0 13  0.0000000  0 10G22G 3G31G14G 9R 1G16G26G 4R 3
 119929888.97247  93451884.72045  22821894.554    22821893.337    22821895.253
        45.000          31.000
 111943812.22848  87228962.95648  21302197.069    21302197.404    21302202.757
        48.000          49.000
 123377068.25146  96137979.97145  23477873.676    23477873.947    23477877.010
        40.000          35.000
 129429492.62545                  24629610.595    24629619.960
        32.000
 122176505.90546  95202469.49946  23249409.953    23249409.962    23249415.301
        41.000          38.000
 124648272.280 6  96948634.274 5  23318026.323    23318035.376    23318043.290
        40.000          30.000
 110042893.91847  85747713.41746  20940464.177    20940463.776    20940466.933
        47.000          38.000
 111060199.68847  86540422.08248  21134050.907    21134050.629    21134056.902
        47.000          49.000
 109997274.08947  85712167.20846  20931776.196    20931776.282    20931779.996
        46.000          39.000
 111867634.599 8  87008171.045 7  20897813.177    20897812.955    20897815.366
        49.000          45.000
 20  5  4  0 13 30.0000000  0 10G22G 3G31G14G 9R 1G16G26G 4R 3
 120086976.32547  93574290.42945  22851787.124    22851786.281    22851787.839
        45.000          31.000
 112069270.51248  87326722.64148  21326071.212    21326071.432    21326076.704
        48.000          50.000
 123537042.81846  96262635.43145  23508315.595    23508316.104    23508319.109
        41.000          34.000
 129582223.43045                  24658676.113
        33.000
 122154290.29346  95185158.65846  23245182.513    23245182.242    23245187.696
        41.000          38.000
 124837535.963 6  97095839.331 4  23353428.356    23353440.112    23353449.278
        38.000          27.000
 110055987.65348  85757916.32546  20942955.769    20942955.590    20942958.533
        48.000          39.000
 111155493.50047  86614676.98648  21152184.608    21152184.620    21152190.762
        47.000          49.000
 110018146.00147  85728431.03246  20935748.059    20935748.020    20935751.757
        47.000          38.000
 111843252.236 8  86989206.981 7  20893258.361    20893258.187    20893260.461
        49.000          45.000
 20  5  4  0 14  0.0000000  0 10G22G 3G31G14G 9R 1G16G26G 4R 3
 118668925.15647  92469315.47045  22581941.008    22581940.355    22581941.565
        44.000          31.000
 110619826.46847  86197285.70648  21050251.302    21050251.439    21050256.707
        47.000          50.000
 122121661.84546  95159741.12845  23238978.299    23238978.131    23238981.159
        40.000          35.000
 128159681.22745                  24387975.375
        32.000
 120556756.60046  93940327.22046  22941181.883    22941181.892    22941187.526
        41.000          38.000
 123424460.939 6  95996780.902 5  23089086.158    23089094.996    23089103.882
        38.000          30.000
 108494268.97647  84540992.67746  20645770.771    20645770.415    20645773.585
        47.000          38.000
 109675959.01647  85461792.96248  20870638.941    20870638.595    20870644.867
        47.000          49.000
 108463892.62447  84517324.50546  20639983.165    20639983.363    20639987.210
        46.000          39.000
 110214430.735 8  85722345.805 7  20588981.008    20588980.599    20588983.075
        49.000          45.000
 20  5  4  0 14 30.0000000  0 10G22G 3G31G14G 9R 1G16G26G 4R 3
 118826551.89947  92592141.47345  22611936.324    22611935.475    22611937.141
        44.000          31.000
 110746299.36648  86295836.00148  21074318.004    21074318.390    21074323.808
        48.000          49.000
 122281742.81346  95284479.48645  23269440.799    23269440.510    23269443.271
        40.000          35.000
 128312684.32945                  24417088.912
        33.000
 120534737.27746  93923169.32146  22936991.372    22936991.444    22936997.115
        40.000          38.000
 123614146.338 6  96144313.925 5  23124569.008    23124581.097    23124588.816
        39.000          30.000
 108508568.83048  84552135.41846  20648491.873    20648491.528    20648494.391
        48.000          39.000
 109772418.15748  85536955.91348  20888994.447    20888994.145    20889000.393
        48.000          48.000
 108485343.56047  84534039.52246  20644065.079    20644065.401    20644069.312
        47.000          39.000
 110190789.638 8  85703958.286 7  20584564.609    20584564.525    20584566.579
        49.000          45.000
 20  5  4  0 15  0.0000000  0 10G22G 3G31G14G 9R 1G16G26G 4R 3
 118984447.90547  92715177.30745  22641982.765    22641981.855    22641983.669
        44.000          31.000
 110873280.26648  86394782.14248  21098481.817    21098482.098    21098487.498
        48.000          49.000
 122441878.46846  95409260.46946  23299913.439    23299913.571    23299916.538
        40.000          36.000
 128465826.16045                  24446230.735
        32.000
 120512821.79846  93906092.34146  22932820.854    22932820.588    22932826.410
        40.000          37.000
 123804042.523 6  96292010.896 5  23160091.855    23160103.667    23160112.678
        37.000          30.000
 108523478.17247  84563753.09546  20651329.451    20651328.791    20651331.891
        47.000          39.000
 109869461.48348  85612574.08348  20907460.765    20907460.812    20907466.879
        48.000          49.000
 108507089.70247  84550984.55746  20648203.384    20648203.590    20648207.487
        47.000          39.000
 110167528.061 8  85685865.946 7  20580219.119    20580219.184    20580221.388
        49.000          45.000
 20  5  4  0 15 30.0000000  0 10G22G 3G31G14G 9R 1G16G26G 4R 3
 119142611.13247  92838421.36345  22672080.842    22672079.835    22672081.012
        44.000          31.000
 111000767.38747  86494122.73748  21122741.768    21122742.011    21122747.548
        47.000          50.000
 122602067.88546  95534083.34346  23330396.619    23330396.563    23330399.382
        41.000          36.000
 128619106.61345                  24475399.853
        32.000
 120491011.71746  93889097.49246  22928670.347    22928670.243    22928675.878
        40.000          38.000
 123994147.148 6  96439869.976 5  23195657.183    23195666.757    23195676.649
        37.000          30.000
 108538999.36447  84575847.52846  20654282.766    20654282.282    20654285.440
        47.000          39.000
 109967087.87647  85688646.59048  20926038.401    20926038.245    20926044.763
        47.000          48.000
 108529132.68547  84568160.90946  20652398.001    20652398.244    20652402.105
        47.000          38.000
 110144649.914 8  85668071.831 7  20575945.458    20575945.139    20575947.281
        49.000          45.000
 20  5  4  0 16  0.0000000  0 10G22G 3G31G14G 9R 1G16G26G 4R 3
 119301038.60947  92961871.31945  22702228.283    22702227.423    22702229.098
        44.000          31.000
 111128758.38547  86593855.96248  21147097.443    21147097.799    21147103.463
        47.000          49.000
 122762309.26346  95658946.69646  23360889.608    23360889.635    23360892.500
        41.000          36.000
 128772524.48345                  24504594.526
        33.000
 120469308.11146  93872185.61446  22924540.730    22924540.654    22924545.871
        41.000          38.000
 124184457.371 6  96587889.036 5  23231257.467    23231269.635    23231278.397
        38.000          30.000
 108555133.25048  84588419.39246  20657352.980    20657352.589    20657355.471
        48.000          39.000
 110065295.50748  85765172.01348  20944726.939    20944726.652    20944732.985
        48.000          48.000
 108551473.53947  84585569.35846  20656649.348    20656649.646    20656653.370
        47.000          40.000
 110122158.116 8  85650578.204 7  20571743.804    20571743.532    20571745.877
        50.000          45.000
 20  5  4  0 16 30.0000000  0  9G22G 3G31G 9R 1G16G26G 4R 3
 119459742.82447  93085536.91945  22732428.650    22732427.762    22732429.520
        44.000          30.000
 111257266.79447  86693992.36648  21171551.931    21171552.160    21171557.818
        47.000          49.000
 122922616.52746  95783861.39846  23391394.929    23391395.078    23391398.136
        41.000          36.000
 120447727.95646  93855369.91946  22920433.962    22920434.046    22920439.272
        41.000          38.000
 124374986.713 6  96736078.433 5  23266900.084    23266912.262    23266921.065
        38.000          30.000
 108571897.53347  84601482.45646  20660543.065    20660542.419    20660545.764
        47.000          39.000
 110164098.50348  85842161.35748  20963528.401    20963528.338    20963534.605
        48.000          48.000
 108574129.14847  84603223.07546  20660960.346    20660960.891    20660964.711
        47.000          39.000
 110100072.445 8  85633400.460 7  20567617.437    20567617.916    20567620.175
        49.000          45.000
 20  5  4  0 17  0.0000000  0  9G22G 3G31G 9R 1G16G26G 4R 3
 119618704.15647  93209402.86845  22762678.348    22762677.197    22762678.505
        44.000          30.000
 111386273.22647  86794516.84148  21196100.746    21196101.411    21196106.949
        47.000          49.000
 123082971.17546  95908813.02745  23421909.643    23421909.477    23421912.426
        41.000          35.000
 120426255.24846  93838637.95446  22916347.596    22916347.744    22916352.984
        41.000          38.000
 124565714.694 6  96884422.365 4  23302580.320    23302591.719    23302599.206
        36.000          29.000
 108589276.49148  84615024.50246  20663850.040    20663849.715    20663852.858
        48.000          39.000
 110263478.07047  85919599.96848  20982439.514    20982439.346    20982445.982
        46.000          48.000
 108597083.63747  84621109.68046  20665329.117    20665329.044    20665332.907
        47.000          39.000
 110078378.512 8  85616527.393 7  20563565.107    20563565.372    20563567.821
        50.000          45.000
 20  5  4  0 17 30.0000000  0  9G22G 3G31G 9R 1G16G26G 4R 3
 119777918.97447  93333466.34045  22792975.719    22792974.442    22792976.225
        44.000          30.000
 111515774.62848  86895427.01048  21220744.260    21220744.676    21220750.268
        48.000          49.000
 123243370.86246  96033799.72945  23452433.199    23452432.605    23452435.504
        40.000          35.000
 120404890.44046  93821990.05846  22912282.275    22912282.165    22912287.342
        41.000          38.000
 124756637.903 5  97032918.126 4  23338294.340    23338307.423    23338315.732
        35.000          29.000
 108607270.87347  84629046.09146  20667274.398    20667273.999    20667277.106
        47.000          39.000
 110363431.70547  85997485.90948  21001460.160    21001460.094    21001466.441
        47.000          48.000
 108620337.38147  84639229.46746  20669753.876    20669753.915    20669757.867
        47.000          39.000
 110057079.007 8  85599961.101 7  20559586.502    20559586.243    20559588.882
        50.000          45.000
 20  5  4  0 18  0.0000000  0  9G22G 3G31G 9R 1G16G26G 4R 3
 119937386.15547  93457726.45545  22823321.460    22823320.518    22823321.797
        44.000          30.000
 111645770.12147  86996722.17848  21245481.616    21245481.855    21245487.515
        47.000          48.000
 123403815.79146  96158821.68945  23482963.984    23482964.082    23482967.243
        40.000          34.000
 120383636.16846  93805428.29046  22908237.904    22908237.557    22908242.976
        41.000          38.000
 124947754.966 6  97181564.650 4  23374048.313    23374059.952    23374068.413
        36.000          28.000
 108625883.48047  84643549.41346  20670816.296    20670815.783    20670819.038
        47.000          39.000
 110463959.11347  86075818.94348  21020589.671    21020589.587    21020596.211
        47.000          48.000
 108643892.98147  84657584.47846  20674236.350    20674236.431    20674240.308
        46.000          39.000
 110036178.391 8  85583705.066 7  20555681.721    20555682.014    20555684.485
        50.000          45.000
 20  5  4  0 18 30.0000000  0  9G22G 3G31G 9R 1G16G26G 4R 3
 120097098.73347  93582177.80045  22853713.815    22853713.071    22853714.193
        44.000          30.000
 111776253.30747  87098397.37148  21270311.810    21270311.881    21270317.600
        47.000          49.000
 123564300.28146  96283874.49545  23513503.396    23513503.543    23513506.292
        40.000          34.000
 120362489.54946  93788950.41046  22904213.546    22904213.566    22904219.201
        41.000          38.000
 125139059.180 6  97330356.757 4  23409830.011    23409848.012    23409856.662
        36.000          28.000
 108645111.93947  84658532.62146  20674475.299    20674474.688    20674478.017
        47.000          40.000
 110565054.47747  86154594.54648  21039827.770    21039827.641    21039834.008
        47.000          48.000
 108667747.51747  84676172.42246  20678775.700    20678775.798    20678779.533
        47.000          39.000
 110015676.161 8  85567758.876 7  20551851.968    20551851.828    20551854.748
        50.000          46.000
 20  5  4  0 19  0.0000000  0  9G22G 3G31G 9R 1G16G26G 4R 3
 120257062.99947  93706825.24845  22884153.557    22884152.475    22884154.254
        44.000          30.000
 111907231.17247  87200458.01648  21295235.733    21295236.180    21295241.946
        47.000          49.000
 123724831.79246  96408963.93145  23544051.513    23544051.468    23544054.724
        40.000          33.000
 120341461.12846  93772564.62946  22900212.064    22900211.922    22900217.596
        40.000          39.000
 125330557.213 6  97479299.626 4  23445659.976    23445672.293    23445679.945
        37.000          27.000
 108664966.96648  84674004.06546  20678253.491    20678253.035    20678256.387
        48.000          40.000
 110666725.27548  86233818.53448  21059175.088    21059174.853    21059181.410
        48.000          48.000
 108691911.42347  84695001.43346  20683373.831    20683374.113    20683377.893
        47.000          39.000
 109995584.893 8  85552132.326 7  20548098.725    20548098.735    20548101.527
        50.000          45.000
 20  5  4  0 19 30.0000000  0  9G22G 3G31G 9R 1G16G26G 4R 3
 120417274.60747  93831665.42645  22914640.819    22914640.018    22914641.453
        43.000          30.000
 112038699.81747  87302901.09948  21320253.734    21320253.935    21320259.705
        47.000          48.000
 123885407.40546  96534087.71945  23574608.274    23574607.842    23574611.300
        39.000          33.000
 120320550.50947  93756270.64846  22896232.756    22896232.904    22896238.572
        42.000          40.000
 125522244.641 6  97628389.774 4  23481518.381    23481530.270    23481537.524
        37.000          28.000
 108685448.12348  84689963.40546  20682150.959    20682150.546    20682153.874
        48.000          40.000
 110768968.19147  86313488.32448  21078630.992    21078631.071    21078637.491
        47.000          48.000
 108716384.33647  84714071.22646  20688030.904    20688030.964    20688034.728
        46.000          39.000
 109975906.666 8  85536827.033 7  20544422.734    20544422.635    20544425.238
        50.000          45.000
 20  5  4  0 20  0.0000000  0  9G22G 3G31G 9R 1G16G26G 4R 3
 120577728.54647  93956694.44845  22945174.616    22945173.714    22945175.533
        43.000          30.000
 112170654.78847  87405723.13548  21345363.812    21345364.192    21345369.963
        47.000          48.000
 124046023.49046  96659243.05345  23605171.962    23605172.043    23605175.300
        38.000          33.000
 120299756.95246  93740067.88146  22892276.222    22892276.501    22892281.551
        41.000          40.000
 125714116.387 5  97777623.301 4  23517407.406    23517424.035    23517433.129
        35.000          26.000
 108706554.90848  84706410.24146  20686167.704    20686167.089    20686170.197
        48.000          39.000
 110871779.35347  86393600.90848  21098195.716    21098195.646    21098201.922
        47.000          48.000
 108741165.43547  84733381.17046  20692746.560    20692746.595    20692750.581
        47.000          40.000
 109956642.559 8  85521843.841 7  20540823.809    20540823.705    20540826.399
        49.000          46.000
 20  5  4  0 20 30.0000000  0  9G22G 3G31G 9R 1G16G26G 4R 3
 120738435.52347  94081920.63244  22975756.189    22975755.099    22975757.006
        44.000          29.000
 112303107.11447  87508932.71948  21370568.607    21370569.057    21370574.731
        47.000          49.000
 124206691.97846  96784439.20545  23635746.310    23635746.179    23635749.574
        37.000          32.000
 120279094.96447  93723967.63346  22888344.391    22888344.526    22888349.341
        42.000          40.000
 125906183.657 4  97927008.941 4  23553335.440    23553355.724    23553363.888
        28.000          26.000
 108728302.14448  84723356.13146  20690305.772    20690305.421    20690308.695
        48.000          40.000
 110975170.30847  86474165.27548  21117870.170    21117870.067    21117876.535
        47.000          48.000
 108766269.21447  84752942.54746  20697523.888    20697523.751    20697527.782
        47.000          40.000
 109937809.605 8  85507195.975 7  20537305.930    20537305.340    20537308.161
        50.000          45.000
 20  5  4  0 21  0.0000000  0  8G22G 3G31G 9G16G26G 4R 3
 120899371.57647  94207325.32044  23006381.115    23006380.217    23006382.557
        43.000          29.000
 112436032.98348  87612511.29848  21395863.648    21395864.018    21395869.673
        48.000          48.000
 124367390.00446  96909658.39245  23666326.426    23666326.303    23666329.301
        38.000          32.000
 120258544.44747  93707954.25346  22884433.807    22884433.803    22884438.933
        42.000          40.000
 108750669.58748  84740785.30546  20694562.479    20694561.831    20694564.975
        48.000          39.000
 111079117.82047  86555163.32348  21137650.878    21137650.765    21137657.124
        47.000          48.000
 108791675.45347  84772739.60946  20702358.389    20702358.502    20702362.372
        47.000          40.000
 109919389.195 8  85492868.985 7  20533864.438    20533864.428    20533866.774
        50.000          46.000
 20  5  4  0 21 30.0000000  0  8G22G 3G31G 9G16G26G 4R 3
 121060541.48447  94332912.24644  23037050.650    23037049.958    23037051.597
        44.000          29.000
 112569437.97447  87716463.22148  21421250.055    21421250.173    21421255.756
        47.000          49.000
 124528124.26046  97034905.81445  23696914.142    23696913.506    23696916.190
        38.000          32.000
 120238114.66246  93692034.94646  22880545.998    22880546.006    22880551.332
        41.000          40.000
 108773666.64148  84758705.08546  20698938.524    20698937.848    20698941.232
        48.000          39.000
 111183628.01647  86636599.82248  21157538.021    21157538.200    21157544.774
        47.000          48.000
 108817393.35347  84792779.52446  20707252.282    20707252.550    20707256.312
        47.000          40.000
 109901392.937 8  85478871.895 7  20530502.674    20530502.563    20530504.912
        50.000          46.000
 20  5  4  0 22  0.0000000  0  8G22G 3G31G 9G16G26G 4R 3
 121221957.22247  94458690.70944  23067766.962    23067765.826    23067767.926
        42.000          29.000
 112703334.59747  87820798.23648  21446729.630    21446730.050    21446735.448
        47.000          48.000
 124688908.04846  97160191.81345  23727509.536    23727509.680    23727512.587
        39.000          32.000
 120217821.80147  93676222.33146  22876684.343    22876684.269    22876689.882
        42.000          40.000
 108797309.25748  84777127.89446  20703437.326    20703436.954    20703440.345
        48.000          39.000
 111288713.89447  86718484.90748  21177535.866    21177535.444    21177541.891
        46.000          48.000
 108843438.97447  84813074.80246  20712208.808    20712208.905    20712212.629
        47.000          39.000
 109883839.215 8  85465218.996 7  20527223.564    20527223.474    20527225.886
        50.000          46.000
 20  5  4  0 22 30.0000000  0  8G22G 3G31G 9G16G26G 4R 3
 121383609.51247  94584653.51244  23098528.131    23098527.695    23098529.550
        42.000          29.000
 112837713.82747  87925509.30548  21472301.376    21472301.625    21472306.979
        47.000          49.000
 124849733.45646  97285510.25645  23758113.741    23758113.676    23758116.644
        38.000          32.000
 120197660.50547  93660512.23946  22872848.297    22872847.622    22872853.216
        42.000          40.000
 108821592.27848  84796049.72346  20708058.365    20708058.005    20708061.104
        48.000          39.000
 111394366.97748  86800811.97648  21197640.919    21197640.824    21197646.948
        48.000          48.000
 108869806.93248  84833621.25546  20717226.324    20717226.584    20717230.303
        48.000          40.000
 109866724.916 8  85451907.867 7  20524027.032    20524026.576    20524028.778
        51.000          45.000
 20  5  4  0 23  0.0000000  0  8G22G 3G31G 9G16G26G 4R 3
 121545488.76847  94710793.15044  23129332.986    23129331.510    23129334.025
        43.000          28.000
 112972566.21547  88030589.07248  21497962.643    21497963.210    21497968.589
        47.000          48.000
 125010591.89746  97410854.45045  23788724.076    23788724.164    23788726.609
        39.000          31.000
 120177625.12546  93644900.26446  22869035.059    22869035.209    22869040.605
        41.000          40.000
 108846509.97347  84815466.10246  20712800.376    20712799.544    20712802.779
        47.000          40.000
 111500578.38247  86883574.10548  21217851.997    21217851.907    21217858.436
        47.000          48.000
 108896491.42447  84854414.35646  20722304.234    20722304.458    20722308.166
        47.000          40.000
 109850046.155 8  85438935.498 7  20520910.813    20520910.542    20520913.180
        50.000          46.000
 20  5  4  0 23 30.0000000  0  8G22G 3G31G 9G16G26G 4R 3
 121707597.60747  94837111.70344  23160181.195    23160180.068    23160182.364
        43.000          28.000
 113107895.07847  88136040.10848  21523714.916    21523715.297    21523720.893
        47.000          48.000
 125171487.87246  97536227.89045  23819341.529    23819342.096    23819344.622
        39.000          31.000
 120157722.63247  93629391.83346  22865248.074    22865247.917    22865253.653
        42.000          40.000
 108872069.05248  84835382.26846  20717663.876    20717663.520    20717666.569
        48.000          39.000
 111607351.90647  86966774.24348  21238170.495    21238170.297    21238176.845
        47.000          48.000
 108923499.40047  84875459.53146  20727443.554    20727443.678    20727447.563
        47.000          40.000
 109833812.043 8  85426308.968 7  20517877.831    20517877.969    20517880.560
        50.000          46.000
 20  5  4  0 24  0.0000000  0  8G22G 3G31G 9G16G26G 4R 3
 121869935.03747  94963608.37044  23191073.218    23191071.778    23191073.995
        42.000          28.000
 113243699.52547  88241861.73648  21549557.673    21549558.016    21549563.640
        47.000          48.000
 125332421.35546  97661630.56044  23849966.277    23849965.999    23849969.444
        39.000          28.000
 120137956.01747  93613989.28846  22861486.169    22861486.557    22861492.142
        42.000          41.000
 108898272.41648  84855800.46946  20722650.108    20722649.864    20722652.917
        49.000          40.000
 111714687.25047  87050412.16548  21258595.190    21258595.378    21258601.938
        47.000          48.000
 108950833.63847  84896758.92446  20732645.039    20732645.317    20732649.049
        47.000          40.000
 109818027.666 8  85414032.218 7  20514929.072    20514929.351    20514932.140
        51.000          46.000
 20  5  4  0 24 30.0000000  0  8G22G 3G31G 9G16G26G 4R 3
 122032491.41447  95090275.64744  23222006.173    23222005.118    23222007.431
        42.000          28.000
 113379970.25047  88348046.69548  21575489.309    21575489.467    21575495.052
        47.000          49.000
 125493384.20146  97787056.09343  23880596.788    23880596.464    23880598.188
        39.000          20.000
 120118319.75746  93598688.32146  22857750.161    22857749.827    22857755.574
        41.000          41.000
 108925114.53848  84876716.40646  20727757.988    20727757.511    20727760.837
        48.000          39.000
 111822575.60647  87134480.99748  21279125.778    21279125.839    21279132.487
        47.000          48.000
 108978488.56547  84918308.20746  20737907.724    20737907.899    20737911.808
        47.000          39.000
 109802689.493 8  85402102.527 7  20512063.806    20512063.886    20512066.600
        50.000          46.000
 20  5  4  0 25  0.0000000  0  8G22G 3G31G 9G16G26G 4R 3
 122195264.93047  95217112.14044  23252980.750    23252980.093    23252982.389
        42.000          28.000
 113516706.00847  88454594.01648  21601508.929    21601509.420    21601514.969
        47.000          48.000
 125654376.16746  97912504.32843  23911232.053    23911232.156    23911236.383
        38.000          20.000
 120098816.38247  93583490.89346  22854038.646    22854038.321    22854043.937
        42.000          41.000
 108952597.53748  84898131.72146  20732987.816    20732987.276    20732990.529
        49.000          39.000
 111931016.18948  87218980.14348  21299761.830    21299761.817    21299767.984
        48.000          48.000
 109006466.54347  84940109.21946  20743231.576    20743231.953    20743235.821
        47.000          40.000
 109787802.140 8  85390523.462 7  20509283.090    20509282.838    20509285.706
        50.000          46.000
 20  5  4  0 25 30.0000000  0  8G22G 3G31G 9G16G26G 4R 3
 122358260.95146  95344121.99244  23283997.986    23283997.251    23283999.245
        41.000          27.000
 113653912.35247  88561508.03248  21627618.838    21627618.909    21627624.491
        46.000          48.000
 125815404.34546  98037980.76343  23941875.402    23941874.320    23941877.990
        37.000          20.000
 120079455.34747  93568404.39046  22850353.595    22850353.639    22850359.507
        42.000          40.000
 108980730.88548  84920053.81046  20738341.589    20738341.105    20738344.118
        48.000          39.000
 112040015.14047  87303914.37547  21320503.215    21320503.335    21320509.822
        46.000          47.000
 109034776.91347  84962169.23646  20748619.042    20748619.278    20748623.124
        47.000          40.000
 109773377.033 8  85379303.935 7  20506588.280    20506587.959    20506590.995
        50.000          46.000
 20  5  4  0 26  0.0000000  0  8G22G 3G31G 9G16G26G 4R 3
 120946053.22147  94243700.35844  23015264.373    23015262.822    23015265.601
        42.000          27.000
 112216162.54147  87441183.48148  21354023.894    21354024.357    21354029.847
        47.000          48.000
 124401043.47246  96935881.29443  23672730.673    23672731.115    23672734.153
        36.000          20.000
 118484808.52047  92325822.45246  22546903.145    22546902.424    22546908.205
        42.000          40.000
 107434087.37048  83714877.03946  20444025.021    20444024.499    20444027.574
        48.000          39.000
 110574145.26247  86161678.10248  21041557.895    21041557.711    21041564.207
        47.000          48.000
 107487992.98147  83756883.04846  20454275.869    20454275.930    20454280.004
        47.000          40.000
 108154595.758 8  84120251.824 7  20204186.385    20204186.215    20204189.100
        51.000          46.000
 20  5  4  0 26 30.0000000  0  8G22G 3G31G 9G16G26G 4R 3
 121109475.10447  94371042.05444  23046362.900    23046361.239    23046362.825
        42.000          28.000
 112354292.19547  87548816.95548  21380309.153    21380309.569    21380314.955
        47.000          48.000
 124562128.85446  97061402.31543  23703383.854    23703383.558    23703387.158
        36.000          19.000
 118465725.83847  92310952.83746  22543270.889    22543271.071    22543276.927
        42.000          40.000
 107463514.00848  83737806.88546  20449624.577    20449624.143    20449627.273
        48.000          39.000
 110684244.55747  86247469.75048  21062508.894    21062508.750    21062515.398
        47.000          48.000
 107516961.35747  83779455.80746  20459788.394    20459788.393    20459792.337
        47.000          40.000
 108141095.086 8  84109751.293 7  20201664.527    20201664.105    20201667.015
        50.000          46.000
 20  5  4  0 27  0.0000000  0  8G22G 3G31G 9G16G26G 4R 3
 121273097.31747  94498539.86444  23077498.531    23077498.192    23077499.989
        43.000          28.000
 112492871.19747  87656800.57548  21406679.656    21406680.243    21406685.564
        46.000          48.000
 124723232.34746  97186937.47143  23734041.101    23734042.369    23734043.910
        37.000          19.000
 118446775.94447  92296186.68746  22539665.277    22539665.288    22539670.636
        42.000          40.000
 107493580.17248  83761235.06146  20455346.011    20455345.664    20455348.753
        48.000          39.000
 110794882.48747  86333681.11347  21083562.781    21083562.434    21083569.033
        47.000          47.000
 107546252.13347  83802279.77846  20465362.162    20465362.358    20465366.235
        47.000          40.000
 108128052.657 8  84099607.177 7  20199228.250    20199227.606    20199230.377
        50.000          46.000
 20  5  4  0 27 30.0000000  0  8G22G 3G31G 9G16G26G 4R 3
 121436928.93847  94626200.84644  23108675.407    23108674.213    23108675.668
        43.000          28.000
 112631908.95647  87765141.66547  21433137.786    21433138.271    21433143.696
        47.000          47.000
 124884364.79646  97312495.15243  23764704.076    23764703.085    23764707.121
        38.000          19.000
 118427972.12047  92281534.37546  22536087.236    22536087.063    22536092.431
        42.000          41.000
 107524299.40747  83785172.12046  20461191.717    20461191.225    20461194.539
        47.000          40.000
 110906068.95947  86420319.91448  21104720.517    21104720.719    21104727.267
        47.000          48.000
 107575878.39547  83825365.17046  20470999.683    20471000.133    20471003.789
        47.000          40.000
 108115484.481 8  84089831.926 7  20196879.775    20196879.730    20196882.483
        50.000          46.000
 20  5  4  0 28  0.0000000  0  8G22G 3G31G 9G16G26G 4R 3
 121600965.60147  94754021.59844  23139890.677    23139889.930    23139890.532
        43.000          27.000
 112771401.38847  87873837.05247  21459682.279    21459682.903    21459688.185
        46.000          47.000
 125045523.25946  97438073.12443  23795371.568    23795371.609    23795374.260
        38.000          20.000
 118409314.28347  92266995.80446  22532537.149    22532536.795    22532541.865
        43.000          40.000
 107555670.40248  83809617.04846  20467161.450    20467160.966    20467164.260
        48.000          40.000
 111017800.38547  86507383.35147  21125982.475    21125982.355    21125988.963
        46.000          47.000
 107605839.85147  83848711.75046  20476701.459    20476701.641    20476705.411
        47.000          40.000
 108103392.324 8  84080426.911 7  20194621.111    20194620.717    20194623.644
        50.000          46.000
 20  5  4  0 28 30.0000000  0  8G22G 3G31G 9G16G26G 4R 3
 121765197.89947  94881994.78944  23171142.871    23171141.922    23171143.378
        42.000          28.000
 112911339.42247  87982879.65347  21486311.856    21486312.134    21486317.613
        47.000          47.000
 125206699.89946  97563665.25243  23826042.718    23826042.676    23826045.110
        38.000          20.000
 118390797.33547  92252567.02346  22529012.788    22529013.058    22529018.266
        42.000          41.000
 107587687.96448  83834565.79346  20473254.075    20473253.712    20473257.240
        48.000          40.000
 111130068.20247  86594864.76347  21147346.378    21147346.173    21147352.937
        47.000          47.000
 107636131.29248  83872315.46046  20482465.713    20482465.789    20482469.761
        48.000          40.000
 108091772.796 8  84071389.494 7  20192450.374    20192450.057    20192452.841
        50.000          46.000
 20  5  4  0 29  0.0000000  0  8G22G 3G31G 9G16G26G 4R 3
 121929636.43747  95010128.69444  23202434.385    23202434.250    23202435.032
        43.000          27.000
 113051733.94747  88092277.97147  21513028.029    21513028.214    21513033.797
        46.000          47.000
 125367906.92846  97689281.09043  23856720.436    23856721.029    23856722.942
        40.000          21.000
 118372436.12347  92238259.59046  22525519.249    22525518.891    22525524.198
        42.000          41.000
 107620366.82148  83860029.83346  20479472.760    20479472.247    20479475.573
        48.000          41.000
 111242883.78747  86682773.00047  21168814.202    21168814.308    21168821.027
        47.000          47.000
 107666767.34947  83896187.71046  20488295.409    20488295.585    20488299.470
        47.000          40.000
 108080643.005 8  84062732.991 7  20190371.158    20190370.684    20190373.846
        51.000          46.000
 20  5  4  0 29 30.0000000  0  8G22G 3G31G 9G16G26G 4R 3
 122094274.65847  95138418.17444  23233764.345    23233763.394    23233764.506
        43.000          27.000
 113192578.39647  88202026.86647  21539829.651    21539830.022    21539835.712
        46.000          47.000
 125529139.41746  97814916.72743  23887401.533    23887400.529    23887404.175
        39.000          21.000
 118354228.12747  92224071.54946  22522053.759    22522053.963    22522059.441
        42.000          41.000
 107653703.31948  83886006.32146  20485816.546    20485816.055    20485819.443
        48.000          40.000
 111356241.05747  86771103.33247  21190385.544    21190385.579    21190391.983
        47.000          47.000
 107697745.25448  83920326.32446  20494190.250    20494190.447    20494194.630
        48.000          40.000
 108070002.425 8  84054456.978 7  20188383.658    20188383.192    20188386.193
        51.000          47.000
 20  5  4  0 30  0.0000000  0  8G22G 3G31G 9G16G26G 4R 3
 122259099.19547  95266852.84444  23265129.028    23265128.490    23265130.468
        42.000          28.000
 113333859.71147  88312116.17947  21566714.690    21566715.055    21566720.559
        47.000          47.000
 125690385.13746  97940562.70943  23918085.531    23918085.237    23918087.888
        39.000          21.000
 118336164.31547  92209995.85446  22518616.839    22518616.729    22518622.075
        43.000          41.000
 107687688.07248  83912487.94646  20492283.843    20492283.117    20492286.400
        48.000          40.000
 111470127.44047  86859845.96047  21212057.327    21212057.410    21212063.847
        46.000          47.000
 107729055.84148  83944724.17546  20500148.701    20500148.789    20500152.808
        48.000          41.000
 108059843.631 8  84046555.695 7  20186485.560    20186485.551    20186488.531
        50.000          47.000
 20  5  4  0 30 30.0000000  0  9G22G 3G31G 9G16G26G 4G 7R 3
 122424119.26047  95395439.89144  23296532.090    23296530.373    23296531.898
        43.000          27.000
 113475587.37247  88422553.29747  21593684.740    21593684.994    21593690.666
        46.000          47.000
 125851654.87146  98066227.38343  23948772.851    23948773.781    23948777.750
        39.000          20.000
 118318258.25647  92196043.08947  22515209.586    22515209.469    22515214.649
        44.000          42.000
 107722334.08048  83939484.82946  20498876.563    20498876.123    20498879.466
        48.000          40.000
 111584552.90947  86949008.65847  21233831.715    21233831.797    21233838.381
        46.000          47.000
 107760712.40648  83969391.62546  20506172.882    20506172.994    20506176.761
        48.000          41.000
 131603868.03446 102548475.11844  25043384.233    25043384.435    25043387.376
        36.000          27.000
 108050182.401 8  84039041.400 7  20184681.008    20184680.929    20184683.644
        51.000          46.000
 20  5  4  0 31  0.0000000  0  9G22G 3G31G 9G16G26G 4G 7R 3
 122589336.26147  95524180.36844  23327971.477    23327970.510    23327971.179
        43.000          27.000
 113617763.00047  88533339.47747  21620739.967    21620740.020    21620745.836
        46.000          47.000
 126012951.79446  98191913.24643  23979467.379    23979466.824    23979470.603
        38.000          19.000
 118300515.60747  92182217.64747  22511833.335    22511833.034    22511838.421
        42.000          42.000
 107757646.53348  83967001.02146  20505596.112    20505595.750    20505599.085
        48.000          40.000
 111699519.56847  87038593.05847  21255709.209    21255709.200    21255715.909
        46.000          47.000
 107792720.40948  83994332.92146  20512263.586    20512263.883    20512267.707
        48.000          41.000
 131587935.31646 102536059.98744  25040352.212    25040352.028    25040355.160
        36.000          26.000
 108041026.362 8  84031920.031 7  20182970.682    20182970.690    20182973.207
        51.000          47.000
 20  5  4  0 31 30.0000000  0  9G22G 3G31G 9G16G26G 4G 7R 3
 122754736.66747  95653063.77944  23359446.332    23359445.054    23359446.344
        43.000          27.000
 113760373.33947  88644464.39047  21647877.696    21647877.942    21647883.774
        46.000          47.000
 126174263.93446  98317610.95243  24010163.837    24010164.738    24010168.256
        36.000          18.000
 118282927.24747  92168512.43747  22508486.017    22508486.239    22508491.770
        43.000          42.000
 107793615.51547  83995028.79546  20512440.779    20512440.470    20512443.670
        47.000          40.000
 111815014.64447  87128589.20847  21277686.929    21277687.036    21277693.854
        46.000          47.000
 107825070.50548  84019540.77746  20518419.659    20518419.825    20518423.729
        48.000          41.000
 131572085.98345 102523709.84144  25037336.037    25037335.606    25037339.855
        35.000          27.000
 108032368.049 8  84025185.784 7  20181353.319    20181353.446    20181355.675
        51.000          47.000
 20  5  4  0 32  0.0000000  0  9G22G 3G31G 9G16G26G 4G 7R 3
 122920317.34847  95782087.64244  23390955.091    23390954.178    23390955.460
        42.000          27.000
 113903415.35147  88755925.67847  21675097.632    21675097.895    21675103.907
        46.000          47.000
 126335589.92446  98443319.44443  24040863.394    24040863.038    24040866.846
        37.000          19.000
 118265494.23847  92154928.27447  22505169.130    22505168.799    22505174.292
        43.000          42.000
 107830241.74248  84023568.71146  20519410.760    20519410.226    20519413.582
        49.000          40.000
 111931035.55047  87218995.09747  21299765.181    21299765.331    21299772.114
        46.000          47.000
 107857763.47648  84045015.81646  20524641.025    20524641.085    20524644.956
        48.000          40.000
 131556320.00545 102511424.63944  25034335.676    25034335.143    25034339.539
        35.000          26.000
 108024210.365 8  84018840.919 7  20179829.245    20179829.431    20179831.687
        51.000          47.000
 20  5  4  0 32 30.0000000  0  9G22G 3G31G 9G16G26G 4G 7R 3
 123086075.56347  95911249.86544  23422498.212    23422496.585    23422497.945
        42.000          27.000
 114046886.39547  88867721.27347  21702399.233    21702399.534    21702405.419
        46.000          46.000
 126496928.37146  98569037.65243  24071564.285    24071564.760    24071568.933
        37.000          19.000
 118248218.08047  92141466.34147  22501881.055    22501880.960    22501886.773
        43.000          43.000
 107867525.15348  84052620.71546  20526505.522    20526505.115    20526508.355
        48.000          40.000
 112047580.15547  87309809.06347  21321943.177    21321943.039    21321949.672
        46.000          47.000
 107890800.61047  84070759.03346  20530927.747    20530927.859    20530931.656
        47.000          40.000
 131540637.22146 102499204.28044  25031351.722    25031351.060    25031354.987
        36.000          27.000
 108016556.794 8  84012888.128 7  20178399.800    20178399.445    20178401.924
        51.000          47.000
 20  5  4  0 33  0.0000000  0  9G22G 3G31G 9G16G26G 4G 7R 3
 123252024.26647  96040560.50444  23454076.497    23454076.102    23454077.243
        42.000          27.000
 114190799.62447  88979861.42947  21729785.143    21729785.394    21729791.205
        47.000          47.000
 126658294.07746  98694777.09943  24102271.796    24102272.614    24102276.696
        37.000          19.000
 118231116.05347  92128140.08447  22498626.778    22498626.444    22498632.319
        44.000          42.000
 107905482.77748  84082198.08246  20533728.556    20533728.098    20533731.318
        48.000          41.000
 112164662.02447  87401041.68147  21344223.161    21344223.060    21344229.700
        46.000          47.000
 107924198.96147  84096783.71746  20537282.918    20537283.202    20537287.099
        47.000          41.000
 131525053.60346 102487061.16644  25028385.916    25028385.608    25028389.987
        36.000          27.000
 108009426.992 8  84007342.720 7  20177067.392    20177067.456    20177070.078
        51.000          47.000
 20  5  4  0 33 30.0000000  0  9G22G 3G31G 9G16G26G 4G 7R 3
 123418156.28247  96170014.00744  23485690.772    23485690.129    23485690.610
        43.000          26.000
 114335147.94347  89092340.61147  21757253.566    21757253.981    21757259.685
        46.000          47.000
 126819681.20246  98820533.23043  24132983.501    24132983.064    24132987.336
        37.000          19.000
 118214185.29247  92114947.28847  22495404.891    22495404.610    22495410.399
        44.000          42.000
 107944110.92348  84112297.92846  20541079.494    20541078.779    20541082.056
        49.000          40.000
 112282274.59947  87492687.82847  21366604.036    21366603.840    21366610.633
        46.000          47.000
 107957955.30647  84123087.35746  20543706.824    20543706.855    20543710.690
        47.000          41.000
 131509564.71745 102474991.86744  25025438.777    25025438.333    25025442.448
        35.000          27.000
 108002819.438 8  84002203.503 7  20175833.324    20175833.064    20175835.745
        51.000          47.000
 20  5  4  0 34  0.0000000  0  9G22G 3G31G 9G16G26G 4G 7R 3
 123584460.15347  96299601.39144  23517337.171    23517336.499    23517337.633
        42.000          26.000
 114479920.37247  89205150.27847  21784802.973    21784803.411    21784808.855
        46.000          47.000
 126981080.43646  98946298.81943  24163698.003    24163698.065    24163700.924
        37.000          19.000
 118197419.02047  92101882.66647  22492214.161    22492214.263    22492219.854
        43.000          42.000
 107983401.91248  84142914.28546  20548556.095    20548555.585    20548558.860
        48.000          41.000
 112400407.35047  87584739.30847  21389083.822    21389083.716    21389090.413
        46.000          47.000
 107992062.64447  84149664.48746  20550197.016    20550197.406    20550201.337
        47.000          41.000
 131494162.61545 102462990.19544  25022508.065    25022506.800    25022510.977
        35.000          27.000
 107996729.137 8  83997466.599 7  20174695.596    20174695.163    20174698.306
        50.000          47.000
 20  5  4  0 34 30.0000000  0  9G22G 3G31G 9G16G26G 4G 7R 3
 123750936.48747  96429323.18544  23549016.549    23549016.114    23549017.306
        42.000          26.000
 114625117.40047  89318290.79647  21812433.063    21812433.510    21812439.005
        47.000          47.000
 127142493.53346  99072075.19843  24194412.581    24194413.304    24194415.405
        37.000          18.000
 118180821.90247  92088949.84547  22489055.264    22489055.917    22489061.439
        43.000          42.000
 108023359.65548  84174050.18346  20556159.875    20556159.432    20556162.542
        48.000          41.000
 112519061.17447  87677196.82747  21411662.748    21411663.053    21411669.557
        47.000          47.000
 108026525.31048  84176518.50446  20556754.965    20556755.533    20556759.377
        48.000          41.000
 131478850.43245 102451058.60044  25019594.760    25019593.210    25019597.273
        35.000          27.000
 107991162.782 8  83993137.207 7  20173655.722    20173655.373    20173658.357
        51.000          47.000
 20  5  4  0 35  0.0000000  0  9G22G 3G31G 9G16G26G 4G 7R 3
 123917581.50546  96559176.41344  23580728.513    23580726.761    23580728.180
        41.000          26.000
 114770735.32747  89431759.28647  21840143.524    21840143.681    21840149.140
        46.000          46.000
 127303918.51846  99197860.84143  24225129.877    24225130.220    24225133.792
        36.000          18.000
 118164394.48247  92076149.27147  22485929.773    22485929.880    22485935.357
        43.000          42.000
 108063983.66448  84205705.25146  20563890.186    20563889.807    20563893.094
        48.000          41.000
 112638232.89247  87770057.89247  21434340.560    21434340.448    21434347.095
        45.000          47.000
 108061343.60248  84203649.62547  20563381.015    20563381.203    20563385.021
        48.000          42.000
 131463627.31145 102439196.40744  25016697.233    25016696.316    25016700.871
        35.000          27.000
 107986122.577 8  83989217.040 7  20172714.293    20172714.188    20172716.780
        51.000          47.000
 20  5  4  0 35 30.0000000  0  9G22G 3G31G 9G16G26G 4G 7R 3
 124084410.06046  96689172.65144  23612474.491    23612473.362    23612475.303
        41.000          26.000
 114916789.16547  89545567.44647  21867936.185    21867936.780    21867942.386
        46.000          47.000
 127465371.95545  99323668.63243  24255853.353    24255854.107    24255856.314
        35.000          18.000
 118148156.00747  92063495.92047  22482839.949    22482839.855    22482845.116
        43.000          43.000
 108105292.16848  84237893.69646  20571751.010    20571750.633    20571753.814
        48.000          40.000
 112757937.91847  87863334.52747  21457119.686    21457119.601    21457126.169
        46.000          47.000
 108096536.46948  84231072.63346  20570078.013    20570078.211    20570082.004
        48.000          41.000
 131448510.93345 102427417.36644  25013820.003    25013819.937    25013824.314
        35.000          28.000
 107981630.090 8  83985722.876 7  20171874.782    20171874.827    20171877.207
        51.000          47.000
 20  5  4  0 36  0.0000000  0  9G22G 3G31G 9G16G26G 4G 7R 3
 124251403.94547  96819297.72744  23644252.489    23644251.377    23644253.040
        42.000          25.000
 115063260.79647  89659701.16247  21895809.015    21895809.273    21895815.032
        45.000          46.000
 127626837.24946  99449485.67743  24286579.800    24286580.207    24286583.627
        36.000          18.000
 118132092.66947  92050979.03447  22479783.243    22479783.281    22479788.351
        43.000          42.000
 108147270.49648  84270604.07446  20579739.363    20579738.804    20579741.957
        48.000          40.000
 112878158.62247  87957012.98247  21479997.244    21479997.037    21480003.456
        46.000          47.000
 108132089.73048  84258776.46247  20576843.358    20576843.622    20576847.735
        48.000          42.000
 131433486.19945 102415709.74444  25010961.293    25010961.348    25010965.012
        35.000          28.000
 107977672.841 8  83982645.020 7  20171135.611    20171135.553    20171138.211
        50.000          47.000
 20  5  4  0 36 30.0000000  0  9G22G 3G31G 9G16G26G 4G 7R 3
 124418567.65646  96949555.13444  23676062.922    23676061.678    23676062.935
        41.000          25.000
 115210154.71347  89774163.92747  21923761.893    21923762.201    21923768.043
        45.000          46.000
 127788320.51946  99575316.73143  24317308.763    24317309.043    24317312.056
        37.000          18.000
 118116213.21347  92038605.43547  22476761.949    22476761.565    22476766.657
        43.000          43.000
 108189926.29648  84303842.36046  20587856.614    20587855.843    20587859.157
        48.000          40.000
 112998899.95347  88051097.12747  21502973.273    21502973.322    21502979.841
        46.000          47.000
 108168011.86047  84286767.72546  20583679.408    20583679.419    20583683.509
        47.000          41.000
 131418560.47146 102404079.27844  25008121.370    25008121.498    25008125.051
        37.000          28.000
 107974261.432 8  83979995.699 7  20170498.334    20170498.131    20170501.334
        51.000          47.000
 20  5  4  0 37  0.0000000  0  9G22G 3G31G 9G16G26G 4G 7R 3
 124585895.20846  97079940.20144  23707904.214    23707903.300    23707904.945
        41.000          25.000
 115357464.95747  89888951.10447  21951793.943    21951794.257    21951800.375
        45.000          45.000
 127949817.31546  99701158.36143  24348041.913    24348041.948    24348043.982
        36.000          18.000
 118100515.98247  92026373.82547  22473774.135    22473774.500    22473779.518
        44.000          43.000
 108233256.90248  84337606.46146  20596101.992    20596101.404    20596104.642
        48.000          40.000
 113120156.37247  88145582.63047  21526047.613    21526047.613    21526054.250
        46.000          47.000
 108204300.87447  84315044.86646  20590584.911    20590584.907    20590588.978
        47.000          41.000
 131403730.52946 102392523.46444  25005299.308    25005299.206    25005302.553
        36.000          28.000
 107971395.936 8  83977766.977 8  20169962.890    20169962.970    20169966.049
        51.000          48.000
 20  5  4  0 37 30.0000000  0  9G22G 3G31G 9G16G26G 4G 7R 3
 123177967.46546  95982853.62244  23439984.668    23439983.209    23439985.010
        41.000          26.000
 113929771.93647  88776463.01247  21680113.123    21680113.492    21680119.493
        45.000          45.000
 126535910.32446  98599412.57743  24078984.171    24078984.541    24078987.420
        36.000          18.000
 116509580.31047  90786683.69047  22171029.480    22171029.515    22171034.572
        43.000          43.000
 106701842.34148  83144296.40946  20304683.477    20304683.041    20304686.306
        48.000          41.000
 111666507.94447  87012869.56147  21249427.908    21249427.848    21249434.015
        47.000          46.000
 106665537.49448  83116008.45247  20297768.078    20297768.026    20297771.932
        48.000          42.000
 129813574.07046 101153440.46344  24702703.281    24702702.772    24702705.884
        37.000          28.000
 106364265.507 8  82727776.639 7  19869737.669    19869737.409    19869740.592
        51.000          47.000
 20  5  4  0 38  0.0000000  0  9G22G 3G31G 9G16G26G 4G 7R 3
 123345611.58046  96113485.36444  23471886.115    23471885.224    23471886.461
        41.000          25.000
 114077904.75047  88891891.14747  21708301.777    21708302.160    21708308.261
        45.000          46.000
 126697429.28546  98725271.46643  24109719.670    24109720.932    24109724.096
        37.000          18.000
 116494250.45147  90774738.35147  22168112.289    22168112.030    22168117.379
        44.000          43.000
 106746521.89348  83179111.64846  20313185.850    20313185.217    20313188.593
        49.000          40.000
 111788785.83447  87108151.02147  21272696.245    21272696.212    21272702.873
        46.000          46.000
 106702562.15548  83144858.83146  20304813.269    20304813.635    20304817.509
        48.000          41.000
 129798934.37746 101142032.89944  24699917.093    24699917.145    24699920.130
        36.000          28.000
 106362500.096 8  82726403.544 7  19869407.678    19869407.672    19869410.560
        51.000          47.000
 20  5  4  0 38 30.0000000  0  9G22G 3G31G 9G16G26G 4G 7R 3
 123513410.49546  96244237.72144  23503817.221    23503815.869    23503817.593
        41.000          25.000
 114226444.64947  89007636.49947  21736568.086    21736568.408    21736574.431
        46.000          45.000
 126858957.72046  98851137.70242  24140457.659    24140457.680    24140461.480
        37.000          17.000
 116479106.65147  90762937.99347  22165230.116    22165230.160    22165235.692
        44.000          43.000
 106791876.62548  83214452.99346  20321816.492    20321816.035    20321819.435
        48.000          40.000
 111911570.94547  87203827.71847  21296061.651    21296061.525    21296068.149
        46.000          46.000
 106739956.45848  83173997.23647  20311929.329    20311929.422    20311933.436
        48.000          42.000
 129784389.91446 101130699.51044  24697148.945    24697149.270    24697153.004
        37.000          28.000
 106361289.575 8  82725462.022 7  19869181.681    19869181.673    19869184.217
        51.000          47.000
 20  5  4  0 39  0.0000000  0  9G22G 3G31G 9G16G26G 4G 7R 3
 123681351.39846  96375100.74044  23535775.564    23535774.137    23535776.277
        40.000          25.000
 114375379.45047  89123689.56547  21764909.497    21764909.752    21764915.840
        45.000          46.000
 127020484.92346  98977002.97842  24171196.104    24171195.166    24171200.042
        36.000          17.000
 116464141.06647  90751276.50247  22162382.432    22162382.284    22162387.826
        43.000          43.000
 106837897.66648  83250313.53846  20330574.304    20330573.406    20330576.915
        49.000          41.000
 112034851.52247  87299890.48747  21319521.077    21319521.128    21319527.537
        46.000          46.000
 106777712.17448  83203417.26347  20319114.107    20319114.132    20319118.121
        49.000          42.000
 129769930.98846 101119432.80844  24694397.306    24694397.900    24694401.541
        36.000          28.000
 106360627.820 8  82724947.320 7  19869058.044    19869057.991    19869060.772
        51.000          47.000
 20  5  4  0 39 30.0000000  0  9G22G 3G31G 9G16G26G 4G 7R 3
 123849443.68946  96506081.70244  23567761.949    23567760.409    23567763.901
        40.000          25.000
 114524718.46347  89240057.60047  21793328.028    21793328.145    21793334.090
        45.000          45.000
 127182022.26246  99102876.16942  24201934.291    24201935.899    24201937.330
        36.000          17.000
 116449367.35847  90739764.52347  22159571.147    22159571.027    22159576.383
        44.000          43.000
 106884597.22548  83286702.80746  20339460.709    20339460.284    20339463.487
        48.000          40.000
 112158637.27247  87396346.90147  21343076.941    21343076.587    21343083.231
        46.000          46.000
 106815842.64148  83233129.30747  20326369.913    20326370.274    20326374.116
        48.000          42.000
 129755569.92046 101108242.32844  24691665.587    24691665.253    24691668.868
        36.000          28.000
 106360530.146 8  82724871.349 8  19869040.017    19869039.873    19869042.443
        51.000          48.000
 20  5  4  0 40  0.0000000  0  9G22G 3G31G 9G16G26G 4G 7R 3
 124017678.29846  96637173.58644  23599776.321    23599774.311    23599777.945
        41.000          24.000
 114674452.73847  89356733.64347  21821821.472    21821821.681    21821827.657
        45.000          45.000
 127343561.90146  99228751.11943  24232675.075    24232675.319    24232679.015
        36.000          18.000
 116434781.07047  90728398.58947  22156795.615    22156795.416    22156800.618
        44.000          43.000
 106931969.42048  83323616.20746  20348475.282    20348474.712    20348478.029
        48.000          40.000
 112282919.72147  87493190.35547  21366727.237    21366726.881    21366733.486
        46.000          46.000
 106854342.96648  83263129.55046  20333696.384    20333696.601    20333700.521
        48.000          41.000
 129741301.08946 101097123.73544  24688950.280    24688950.377    24688953.450
        37.000          29.000
 106360993.796 8  82725231.956 8  19869126.081    19869126.495    19869129.092
        52.000          48.000
 20  5  4  0 40 30.0000000  0  9G22G 3G31G 9G16G26G 4G 7R 3
 124186051.08846  96768373.11744  23631815.855    23631814.789    23631817.418
        40.000          24.000
 114824578.02647  89473714.36347  21850389.401    21850389.789    21850395.656
        46.000          45.000
 127505101.54546  99354626.12242  24263415.355    24263415.157    24263418.561
        36.000          17.000
 116420382.27447  90717178.76047  22154055.202    22154055.231    22154060.550
        43.000          43.000
 106980013.21048  83361052.92146  20357617.652    20357617.314    20357620.385
        48.000          40.000
 112407695.10147  87590417.90747  21390470.670    21390470.680    21390477.205
        45.000          46.000
 106893212.88447  83293417.78847  20341093.137    20341093.249    20341097.133
        47.000          42.000
 129727122.74346 101086075.66044  24686252.413    24686251.965    24686255.458
        37.000          29.000
 106362020.301 8  82726030.341 7  19869318.062    19869317.972    19869320.826
        51.000          47.000
 20  5  4  0 41  0.0000000  0  9G22G 3G31G 9G16G26G 4G 7R 3
 124354564.49846  96899682.24044  23663883.143    23663882.329    23663883.426
        40.000          24.000
 114975096.54247  89591001.49647  21879032.050    21879032.588    21879038.309
        45.000          46.000
 127666645.40445  99480504.36342  24294156.407    24294155.176    24294159.215
        34.000          16.000
 116406177.70147  90706110.26947  22151352.285    22151352.170    22151357.493
        43.000          44.000
 107028734.09048  83399017.24146  20366888.963    20366888.525    20366891.826
        49.000          41.000
 112532965.94947  87688031.53847  21414309.231    21414309.109    21414315.519
        45.000          45.000
 106932458.69048  83323998.92747  20348561.432    20348561.650    20348565.468
        49.000          42.000
 129713039.58446 101075101.74044  24683571.645    24683571.722    24683575.842
        37.000          29.000
 106363618.250 8  82727273.183 7  19869617.057    19869616.923    19869619.513
        51.000          47.000
 20  5  4  0 41 30.0000000  0  9G22G 3G31G 9G16G26G 4G 7R 3
 124523212.62546  97031096.31244  23695975.646    23695974.334    23695977.420
        39.000          24.000
 115126002.71147  89708590.69447  21907748.615    21907749.126    21907754.895
        45.000          46.000
 127828189.53945  99606382.87242  24324896.301    24324896.323    24324900.094
        34.000          15.000
 116392166.22747  90695192.25447  22148685.675    22148686.021    22148691.311
        44.000          43.000
 107078129.29548  83437507.00546  20376288.582    20376288.126    20376291.496
        48.000          41.000
 112658727.16047  87786027.26547  21438240.412    21438240.578    21438247.040
        45.000          45.000
 106972078.81748  83354871.74647  20356101.052    20356101.062    20356105.048
        48.000          42.000
 129699050.16046 101064200.86345  24680909.597    24680909.613    24680913.284
        37.000          30.000
 106365788.075 8  82728960.815 7  19870022.168    19870022.276    19870024.614
        51.000          47.000
 20  5  4  0 42  0.0000000  0  9G22G 3G31G 9G16G26G 4G 7R 3
 124692001.95946  97162620.44643  23728094.965    23728094.006    23728096.272
        41.000          23.000
 115277303.11247  89826487.08747  21936540.175    21936540.541    21936546.426
        44.000          45.000
 127989742.23945  99732267.99742  24355640.122    24355640.577    24355642.282
        35.000          14.000
 116378358.86247  90684433.27047  22146058.516    22146058.735    22146063.926
        44.000          44.000
 107128208.58748  83476529.82246  20385818.212    20385817.773    20385821.207
        48.000          40.000
 112784985.71447  87884410.54347  21462266.970    21462267.076    21462273.237
        45.000          46.000
 107012083.88148  83386044.51147  20363713.634    20363713.857    20363717.700
        48.000          42.000
 129685163.27446 101053379.86444  24678266.153    24678266.815    24678271.296
        37.000          29.000
 106368542.342 8  82731103.021 7  19870536.768    19870536.726    19870539.400
        52.000          47.000
 20  5  4  0 42 30.0000000  0  9G22G 3G31G 9G16G26G 4G 7R 3
 124860915.01646  97294240.95943  23760238.432    23760237.524    23760239.788
        39.000          23.000
 115428979.88147  89944676.75447  21965403.570    21965403.733    21965409.529
        46.000          45.000
 128151287.66945  99858147.48342  24386380.055    24386379.924    24386381.829
        35.000          13.000
 116364742.27747  90673822.94847  22143467.692    22143467.702    22143472.734
        44.000          44.000
 107178956.93248  83516073.98846  20395475.232    20395474.891    20395478.155
        48.000          41.000
 112911724.19347  87983167.78147  21486384.802    21486384.653    21486391.025
        45.000          46.000
 107052460.06948  83417506.46247  20371396.979    20371397.039    20371400.980
        48.000          42.000
 129671363.84346 101042627.04544  24675641.509    24675640.996    24675645.074
        37.000          29.000
 106371869.285 8  82733690.640 7  19871158.289    19871158.154    19871160.586
        51.000          47.000
 20  5  4  0 43  0.0000000  0  9G22G 3G31G 9G16G26G 4G 7R 3
 125029966.22446  97425969.14943  23792407.439    23792406.103    23792409.656
        39.000          23.000
 115581047.52247  90063170.99647  21994340.910    21994341.265    21994346.812
        46.000          45.000
 128312842.19445  99984034.04942  24417122.376    24417123.199    24417125.874
        34.000          14.000
 116351335.46447  90663376.09147  22140916.525    22140916.426    22140921.474
        45.000          43.000
 107230391.96547  83556153.23046  20405263.120    20405262.601    20405266.006
        47.000          40.000
 113038957.52647  88082310.62347  21510596.193    21510596.248    21510602.657
        46.000          45.000
 107093225.97548  83449272.08547  20379154.438    20379154.430    20379158.570
        48.000          42.000
 129657669.20246 101031955.88044  24673034.378    24673035.053    24673039.259
        38.000          29.000
 106375789.592 8  82736739.757 8  19871890.686    19871890.629    19871893.088
        52.000          48.000
 20  5  4  0 43 30.0000000  0  9G22G 3G31G 9G16G26G 4G 7R 3
 125199147.70646  97557798.83543  23824601.448    23824600.779    23824603.576
        40.000          23.000
 115733497.97147  90181963.52847  22023351.463    22023351.651    22023357.269
        45.000          45.000
 128474399.27545 100109922.66342  24447866.837    24447865.732    24447868.694
        34.000          13.000
 116338134.87847  90653089.91647  22138404.197    22138404.461    22138409.782
        45.000          44.000
 107282508.68648  83596763.65746  20415180.669    20415180.168    20415183.384
        48.000          40.000
 113166678.09547  88181833.13147  21534900.608    21534900.439    21534907.164
        45.000          45.000
 107134377.60448  83481338.27747  20386985.227    20386985.376    20386989.445
        48.000          42.000
 129644074.72646 101021362.76945  24670448.033    24670448.371    24670452.030
        38.000          30.000
 106380301.252 8  82740248.815 7  19872733.525    19872733.332    19872735.771
        52.000          47.000
 20  5  4  0 44  0.0000000  0  9G22G 3G31G 9G16G26G 4G 7R 3
 125368446.32546  97689719.81443  23856818.881    23856817.550    23856819.650
        39.000          23.000
 115886318.24747  90301044.23747  22052431.901    22052432.407    22052437.937
        45.000          45.000
 128635948.06645 100235804.76142  24478610.072    24478607.567    24478611.627
        35.000          13.000
 116325131.98647  90642957.80047  22135930.368    22135930.298    22135935.342
        45.000          45.000
 107335297.01147  83637897.41046  20425225.739    20425225.285    20425228.759
        47.000          40.000
 113294873.27247  88281725.46447  21559295.284    21559295.381    21559301.808
        45.000          46.000
 107175905.96048  83513698.02047  20394887.962    20394888.220    20394892.022
        49.000          43.000
 129630570.21646 101010839.75545  24667879.060    24667878.328    24667882.662
        37.000          30.000
 106385396.818 8  82744212.019 8  19873685.521    19873685.380    19873687.879
        52.000          48.000
 20  5  4  0 44 30.0000000  0  9G22G 3G31G 9G16G26G 4G 7R 3
 125537856.85346  97821727.95343  23889056.314    23889055.351    23889057.074
        39.000          23.000
 116039502.88847  90420408.86947  22081582.210    22081582.505    22081588.072
        46.000          45.000
 128797484.73345 100361677.37541  24509347.745    24509351.452    24509352.429
        34.000          11.000
 116312326.02447  90632979.12547  22133493.297    22133493.384    22133498.671
        44.000          45.000
 107388754.33648  83679552.46846  20435398.631    20435397.979    20435401.356
        48.000          40.000
 113423538.05847  88381983.72447  21583779.172    21583779.414    21583785.903
        45.000          45.000
 107217809.73648  83546350.30847  20402862.167    20402862.128    20402865.935
        48.000          42.000
 129617152.93946 101000384.72545  24665325.986    24665325.091    24665328.839
        37.000          30.000
 106391077.268 8  82748630.143 8  19874746.433    19874746.501    19874749.018
        51.000          48.000
 20  5  4  0 45  0.0000000  0  9G22G 3G31G 9G16G26G 4G 7R 3
 125707390.97146  97953832.44143  23921317.900    23921316.799    23921319.402
        40.000          23.000
 116193063.64947  90540066.57947  22110803.695    22110804.146    22110809.913
        45.000          45.000
 128959023.43145 100487551.63441  24540087.512    24540088.912    24540091.930
        33.000          11.000
 116299733.21647  90623166.55647  22131097.189    22131096.865    22131102.354
        45.000          45.000
 107442895.28548  83721740.21546  20445700.955    20445700.679    20445703.916
        48.000          40.000
 113552684.64047  88482617.41247  21608355.296    21608355.588    21608361.780
        46.000          45.000
 107260104.74548  83579307.44047  20410910.563    20410910.629    20410914.481
        48.000          42.000
 129603837.81346 100990009.27945  24662791.419    24662792.163    24662795.617
        39.000          30.000
 106397360.608 8  82753517.173 7  19875920.333    19875920.161    19875923.088
        52.000          47.000
 20  5  4  0 45 30.0000000  0  9G22G 3G31G 9G16G26G 4G 7R 3
 125877047.08146  98086031.96843  23953602.703    23953601.735    23953603.731
        41.000          23.000
 116346998.81447  90660016.03047  22140096.188    22140096.943    22140102.768
        45.000          44.000
 129120563.83045 100613427.20041  24570826.351    24570829.951    24570831.254
        32.000           9.000
 116287356.43547  90613522.30947  22128741.574    22128741.441    22128746.798
        45.000          45.000
 107497721.18148  83764461.68846  20456134.155    20456133.816    20456137.081
        48.000          40.000
 113682311.65947  88583625.46247  21633022.379    21633022.608    21633029.063
        45.000          45.000
 107302793.32648  83612571.25847  20419034.074    20419033.981    20419037.891
        49.000          42.000
 129590625.76846 100979714.17045  24660277.799    24660277.967    24660281.337
        38.000          30.000
 106404250.932 8  82758876.309 4  19877207.098    19877207.270    19877209.935
        51.000          28.000
 20  5  4  0 46  0.0000000  0  9G22G 3G31G 9G16G26G 4G 7R 3
 126046821.71746  98218323.84743  23985909.902    23985908.827    23985910.768
        40.000          23.000
 116501304.59947  90780254.28647  22169459.967    22169460.199    22169466.298
        44.000          44.000
 129282104.24245 100739302.78441  24601567.921    24601570.693    24601569.686
        32.000          10.000
 116275196.48147  90604047.02047  22126427.760    22126427.467    22126432.645
        45.000          45.000
 107553231.21548  83807716.25746  20466697.447    20466696.856    20466700.239
        48.000          40.000
 113812415.62947  88685005.16647  21657780.799    21657780.596    21657787.016
        45.000          46.000
 107345875.77148  83646141.98047  20427232.155    20427232.147    20427236.246
        48.000          43.000
 129577516.43346 100969499.07245  24657782.983    24657783.395    24657786.179
        38.000          31.000
 106411750.676 8  82764709.435 8  19878608.628    19878608.352    19878611.014
        52.000          48.000
 20  5  4  0 46 30.0000000  0  9G22G 3G31G 9G16G26G 4G 7R 3
 126216711.27146  98350705.27643  24018238.975    24018237.554    24018239.821
        40.000          23.000
 116655977.39347  90900778.51647  22198893.458    22198893.488    22198899.537
        43.000          44.000
 129443643.05645 100865177.09641  24632307.424    24632307.603    24632313.531
        31.000           9.000
 116263254.32647  90594741.44647  22124154.965    22124155.002    22124160.078
        44.000          44.000
 107609424.28148  83851503.05946  20477390.452    20477389.812    20477393.440
        48.000          40.000
 113942993.56947  88786754.19747  21682628.593    21682628.784    21682635.146
        45.000          45.000
 107389352.59248  83680020.00447  20435505.405    20435505.578    20435509.652
        49.000          42.000
 129564509.07046 100959363.44245  24655307.644    24655307.523    24655311.345
        37.000          30.000
 106419861.971 8  82771018.212 8  19880123.900    19880123.858    19880126.123
        52.000          48.000
 20  5  4  0 47  0.0000000  0  9G22G 3G31G 9G16G26G 4G 7R 3
 126386724.99346  98483183.46843  24050590.895    24050590.033    24050591.661
        40.000          23.000
 116811026.56647  91021596.01947  22228397.819    22228398.365    22228404.397
        45.000          44.000
 129605191.35145 100991058.77541  24663050.561    24663051.245    24663053.293
        30.000           9.000
 116251544.02947  90585616.54547  22121926.613    22121926.670    22121931.633
        46.000          44.000
 107666312.86848  83895831.83046  20488216.170    20488215.589    20488218.983
        48.000          40.000
 114074055.19847  88888880.11847  21707568.902    21707568.903    21707575.300
        46.000          45.000
 107433237.24148  83714215.81647  20443856.749    20443856.733    20443860.634
        49.000          42.000
 129551615.73046 100949316.68045  24652854.642    24652853.988    24652857.785
        37.000          30.000
 106428600.725 8  82777815.014 8  19881756.258    19881756.229    19881758.745
        52.000          48.000
 20  5  4  0 47 30.0000000  0 10G22G 3G31G 9G16G26G 4G 7R 4R 3
 126556850.77246  98615748.96943  24082964.921    24082964.827    24082964.952
        40.000          22.000
 116966439.53747  91142697.01447  22257972.236    22257972.531    22257978.616
        44.000          44.000
 129766738.70345 101116939.8114   24693792.078    24693793.492    24693797.282
        30.000           5.000
 116240057.59847  90576666.07847  22119741.146    22119740.980    22119745.718
        45.000          44.000
 107723887.40248  83940695.09846  20499172.027    20499171.582    20499174.990
        48.000          40.000
 114205588.29247  88991373.43447  21732598.667    21732598.566    21732605.214
        45.000          45.000
 107477521.23248  83748722.80447  20452283.505    20452283.662    20452287.687
        49.000          43.000
 129538827.29846 100939351.64745  24650420.661    24650420.453    24650424.084
        38.000          30.000
 127096263.489 6  98852659.663 5  23734328.768    23734329.814    23734332.871
        40.000          34.000
 106437960.183 8  82785094.587 8  19883504.473    19883504.414    19883507.119
        52.000          48.000
 20  5  4  0 48  0.0000000  0 10G22G 3G31G 9G16G26G 4G 7R 4R 3
 126727083.53446  98748397.82543  24115359.032    24115358.557    24115359.995
        40.000          23.000
 117122211.16547  91264077.47847  22287614.361    22287614.824    22287620.928
        45.000          44.000
 129928281.78145 101242817.41941  24724531.626    24724527.865    24724537.713
        30.000           7.000
 116228794.52747  90567889.66747  22117597.909    22117597.723    22117602.333
        46.000          45.000
 107782145.21848  83986090.79746  20510258.195    20510257.906    20510261.058
        48.000          40.000
 114337588.14747  89094230.44247  21757717.388    21757717.552    21757724.008
        45.000          45.000
 107522203.49448  83783540.14247  20460786.303    20460786.392    20460790.594
        49.000          43.000
 129526140.77946 100929466.03145  24648006.373    24648005.950    24648009.681
        37.000          30.000
 127039326.325 6  98808375.176 5  23723696.961    23723696.664    23723701.069
        38.000          35.000
 106447940.915 8  82792857.368 8  19885369.156    19885368.934    19885371.729
        52.000          48.000
 20  5  4  0 48 30.0000000  0 10G22G 3G31G 9G16G26G 4G 7R 4R 3
 126897442.40946  98881144.94143  24147778.252    24147776.805    24147778.947
        40.000          22.000
 117278360.69847  91385752.41247  22317328.960    22317329.039    22317335.215
        44.000          43.000
 130089842.21844 101368708.6164   24755276.673    24755272.864    24755278.111
        29.000           5.000
 116217778.72347  90559305.92247  22115501.854    22115501.509    22115506.187
        45.000          45.000
 107841108.25348  84032036.02146  20521478.596    20521478.097    20521481.288
        48.000          40.000
 114470074.35847  89197466.44147  21782928.924    21782928.986    21782935.411
        45.000          45.000
 107567307.39648  83818686.02347  20469369.245    20469369.287    20469373.580
        49.000          43.000
 129513579.32046 100919677.86845  24645616.030    24645615.596    24645619.231
        37.000          30.000
 126982504.948 6  98764180.782 5  23713086.058    23713086.110    23713089.703
        39.000          35.000
 106458568.769 8  82801123.472 8  19887354.727    19887354.532    19887357.028
        52.000          48.000
 20  5  4  0 49  0.0000000  0 10G22G 3G31G 9G16G26G 4G 7R 4R 3
 127067907.61746  99013974.92643  24180216.121    24180215.685    24180216.170
        40.000          21.000
 117434868.13047  91507706.23047  22347111.096    22347111.508    22347117.704
        44.000          44.000
 130251401.87844 101494599.10141  24786017.915    24786018.515    24786024.416
        28.000           6.000
 116206994.88147  90550902.93047  22113449.520    22113449.153    22113454.141
        44.000          45.000
 107900759.17748  84078517.25746  20532829.828    20532829.210    20532832.599
        48.000          40.000
 114603027.38647  89301066.17947  21808229.008    21808228.954    21808235.637
        45.000          45.000
 107612817.03448  83854148.06447  20478029.523    20478029.600    20478033.618
        49.000          42.000
 129501125.82646 100909973.82245  24643246.336    24643245.619    24643249.653
        38.000          30.000
 126925785.264 6  98720065.462 5  23702492.298    23702493.429    23702497.564
        38.000          35.000
 106469829.265 8  82809881.627 8  19889458.269    19889458.048    19889460.524
        52.000          48.000
 20  5  4  0 49 30.0000000  0 10G22G 3G31G 9G16G26G 4G 7R 4R 3
 125663047.62946  97919278.77643  23912880.437    23912879.104    23912880.571
        40.000          22.000
 116016300.99447  90402329.21447  22077166.871    22077167.188    22077173.251
        44.000          44.000
 128837530.45644 100392881.1394   24516966.427    24516974.952    24516968.634
        28.000           5.000
 114621009.56847  89315070.22047  21811646.238    21811646.028    21811651.442
        45.000          45.000
 106385665.28348  82897924.60946  20244517.033    20244516.518    20244519.849
        48.000          40.000
 113161014.33747  88177419.63447  21533822.654    21533822.765    21533829.560
        45.000          45.000
 106083300.34548  82662316.86947  20186972.227    20186972.232    20186976.332
        48.000          43.000
 127913344.91646  99672741.93645  24341101.448    24341100.952    24341104.742
        38.000          30.000
 125263778.172 6  97427393.286 5  23392123.363    23392124.546    23392129.236
        38.000          35.000
 104876898.296 8  81570935.312 8  19591885.152    19591885.198    19591887.709
        52.000          48.000
 20  5  4  0 50  0.0000000  0 10G22G 3G31G 9G16G26G 4G 7R 4R 3
 125833698.59246  98052253.50243  23945353.989    23945353.130    23945354.969
        40.000          22.000
 116173496.30447  90524819.03847  22107080.343    22107080.514    22107086.557
        44.000          43.000
 128999066.38544 100518753.2334   24547708.054    24547712.382    24547715.085
        28.000           1.000
 114610675.69447  89307017.84947  21809679.564    21809679.375    21809684.998
        44.000          45.000
 106446672.69947  82945462.85446  20256126.319    20256125.812    20256129.154
        47.000          40.000
 113294874.14047  88281725.96947  21559295.694    21559295.610    21559302.367
        45.000          45.000
 106129605.70548  82698398.95347  20195784.039    20195783.964    20195787.829
        49.000          43.000
 127901087.96446  99663191.06145  24338769.229    24338768.454    24338772.215
        37.000          30.000
 125207251.157 6  97383427.840 5  23381568.089    23381568.179    23381573.256
        37.000          35.000
 104889413.707 8  81580669.512 8  19594223.029    19594223.207    19594225.760
        52.000          48.000
 20  5  4  0 50 30.0000000  0 10G22G 3G31G 9G16G26G 4G 7R 4R 3
 126004447.14646  98185304.29143  23977846.252    23977844.679    23977846.991
        39.000          21.000
 116331040.15947  90647580.45247  22137059.824    22137060.215    22137066.261
        44.000          43.000
 129160598.38844 100644622.2444   24578445.954    24578450.072    24578445.126
        29.000           1.000
 114600578.51447  89299149.91347  21807758.032    21807757.912    21807763.704
        45.000          45.000
 106508366.55448  82993535.98746  20267866.303    20267865.828    20267869.069
        48.000          41.000
 113429192.62847  88386389.70847  21584855.599    21584855.580    21584862.462
        45.000          44.000
 106176319.91748  82734799.63047  20204673.328    20204673.555    20204677.339
        49.000          43.000
 127888938.26346  99653723.72545  24336457.447    24336455.956    24336460.411
        36.000          30.000
 125150834.561 6  97339548.252 5  23371033.527    23371033.268    23371037.478
        38.000          35.000
 104902570.377 8  81590902.468 8  19596681.009    19596680.882    19596683.688
        52.000          48.000
 20  5  4  0 51  0.0000000  0 10G22G 3G31G 9G16G26G 4G 7R 4R 3
 126175297.66246  98318434.51743  24010358.431    24010357.035    24010359.741
        39.000          21.000
 116488936.71747  90770616.70347  22167106.742    22167107.240    22167112.955
        44.000          43.000
 129322132.51844 100770492.8884   24609187.352    24609192.087    24609198.598
        28.000           4.000
 114590726.84847  89291473.28947  21805883.151    21805883.333    21805888.977
        45.000          45.000
 106570754.07447  83042149.63446  20279738.426    20279737.770    20279741.109
        47.000          40.000
 113563974.23247  88491414.31947  21610503.689    21610503.851    21610510.464
        44.000          45.000
 106223451.03948  82771525.17347  20213642.302    20213642.052    20213646.156
        49.000          43.000
 127876902.81646  99644345.44145  24334166.215    24334165.654    24334169.922
        37.000          30.000
 125094538.599 6  97295762.515 5  23360520.123    23360521.096    23360523.978
        39.000          35.000
 104916378.558 8  81601642.159 8  19599260.439    19599260.302    19599263.198
        52.000          48.000
 20  5  4  0 51 30.0000000  0 11G27G22G 3G31G 9G16G26G 4G 7R 4R 3
 127994743.35446                  24356588.495
        36.000
 126346235.69746  98451632.93143  24042886.830    24042885.529    24042887.426
        39.000          21.000
 116647171.29347  90893916.34747  22197217.996    22197218.518    22197223.982
        44.000          43.000
 129483656.16744                  24639918.290
        26.000
 114581110.81947  89283980.27747  21804053.990    21804053.808    21804059.076
        45.000          45.000
 106633823.29848  83091294.48246  20291740.320    20291739.603    20291742.686
        48.000          41.000
 113699204.72547  88596788.71947  21636237.566    21636237.327    21636243.922
        45.000          44.000
 106270988.56548  82808567.39047  20222688.098    20222688.147    20222692.185
        49.000          43.000
 127864970.67746  99635047.64245  24331895.856    24331895.421    24331899.428
        36.000          30.000
 125038354.404 6  97252063.702 6  23350028.017    23350029.218    23350033.592
        39.000          36.000
 104930829.230 8  81612881.564 8  19601959.448    19601959.797    19601962.743
        52.000          48.000
 20  5  4  0 52  0.0000000  0 10G27G22G 3G 9G16G26G 4G 7R 4R 3
 127965270.30846  99713209.43545  24350979.787    24350979.955    24350986.923
        39.000          33.000
 126517261.66746  98584899.88143  24075431.929    24075431.828    24075433.224
        39.000          21.000
 116805744.04247  91017479.50247  22227393.480    22227393.927    22227399.363
        45.000          44.000
 114571735.20947  89276674.60347  21802269.661    21802269.908    21802274.830
        45.000          46.000
 106697576.64148  83140972.39946  20303871.843    20303871.406    20303874.496
        48.000          40.000
 113834884.58047  88702513.27547  21662056.313    21662056.295    21662063.130
        45.000          44.000
 106318936.66048  82845929.53547  20231812.285    20231812.353    20231816.359
        49.000          43.000
 127853144.55746  99625832.47245  24329645.521    24329644.740    24329649.625
        37.000          30.000
 124982288.480 6  97208456.884 6  23339557.424    23339559.785    23339564.393
        39.000          36.000
 104945928.326 8  81624625.305 8  19604780.573    19604780.369    19604783.236
        51.000          48.000
 20  5  4  0 52 30.0000000  0 10G27G22G 3G 9G16G26G 4G 7R 4R 3
 127935891.57845  99690317.00245  24345388.505    24345389.057    24345396.163
        35.000          30.000
 126688371.96246  98718232.51143  24107992.695    24107992.749    24107994.819
        39.000          21.000
 116964651.19047  91141303.22747  22257632.893    22257632.988    22257638.417
        44.000          43.000
 114562601.11747  89269557.13147  21800531.885    21800531.880    21800536.725
        46.000          46.000
 106762013.17548  83191182.68646  20316133.631    20316133.138    20316136.491
        48.000          40.000
 113971010.51147  88808585.40247  21687960.350    21687960.141    21687966.782
        45.000          44.000
 106367295.75848  82883611.93347  20241014.842    20241014.807    20241018.900
        49.000          43.000
 127841423.64246  99616699.27645  24327414.479    24327414.467    24327418.725
        37.000          30.000
 124926343.072 6  97164943.787 6  23329111.474    23329112.419    23329116.283
        40.000          36.000
 104961678.254 8  81636875.240 8  19607722.888    19607722.443    19607725.476
        52.000          48.000
 20  5  4  0 53  0.0000000  0 10G27G22G 3G 9G16G26G 4G 7R 4R 3
 127906615.53146  99667504.49345  24339818.275    24339818.125    24339825.320
        37.000          30.000
 126859569.02846  98851632.80743  24140571.176    24140570.774    24140572.316
        40.000          21.000
 117123895.00747  91265389.28347  22287935.558    22287936.075    22287941.683
        44.000          43.000
 114553715.47347  89262633.25547  21798840.912    21798840.852    21798845.954
        46.000          46.000
 106827137.42948  83241928.85446  20328526.223    20328525.934    20328529.275
        48.000          40.000
 114107585.09947  88915007.14747  21713949.724    21713949.483    21713956.193
        44.000          44.000
 106416072.21148  82921619.54747  20250296.676    20250296.672    20250300.773
        50.000          43.000
 127829813.62446  99607652.49345  24325205.314    24325204.960    24325209.236
        37.000          30.000
 124870526.748 6  97121531.111 6  23318687.773    23318688.866    23318692.231
        40.000          36.000
 104978086.928 8  81649637.543 8  19610788.063    19610787.776    19610790.588
        51.000          48.000
 20  5  4  0 53 30.0000000  0 10G27G22G 3G 9G16G26G 4G 7R 4R 3
 127877450.06646  99644778.25045  24334268.413    24334268.320    24334275.046
        37.000          31.000
 127030854.50846  98985101.94843  24173165.448    24173164.840    24173166.819
        40.000          21.000
 117283477.16847  91389738.99247  22318302.794    22318303.343    22318309.081
        43.000          43.000
 114545084.81647  89255908.06447  21797198.107    21797198.297    21797203.589
        45.000          46.000
 106892953.84348  83293214.36546  20341051.029    20341050.351    20341053.745
        48.000          41.000
 114244610.43647  89021780.11947  21740024.572    21740024.519    21740031.171
        45.000          44.000
 106465271.80348  82959956.88247  20259658.931    20259659.153    20259663.169
        50.000          43.000
 127818319.24846  99598695.81945  24323017.999    24323017.888    24323021.855
        38.000          30.000
 124814847.541 6  97078225.066 6  23308290.796    23308291.284    23308293.923
        41.000          36.000
 104995162.454 8  81662918.497 8  19613977.887    19613977.680    19613980.587
        52.000          48.000
 20  5  4  0 54  0.0000000  0 10G27G22G 3G 9G16G26G 4G 7R 4R 3
 127848409.66546  99622149.39345  24328742.064    24328741.730    24328748.941
        36.000          30.000
 127202237.38846  99118647.00043  24205778.881    24205778.507    24205778.435
        39.000          21.000
 117443406.02947  91514358.84947  22348736.185    22348736.763    22348742.615
        44.000          43.000
 114536722.19947  89249391.74147  21795606.918    21795606.768    21795612.161
        45.000          46.000
 106959473.30348  83345047.70546  20353709.227    20353708.688    20353711.981
        48.000          40.000
 114382095.24647  89128911.11547  21766187.006    21766187.122    21766193.732
        44.000          44.000
 106514906.97148  82998633.62447  20269104.370    20269104.483    20269108.307
        49.000          43.000
 127806951.47746  99589837.81145  24320855.119    24320854.985    24320858.650
        38.000          31.000
 124759319.975 6  97035036.978 6  23297920.136    23297922.238    23297924.947
        41.000          36.000
 105012918.870 8  81676729.038 8  19617294.904    19617294.721    19617297.527
        51.000          48.000
 20  5  4  0 54 30.0000000  0 10G27G22G 3G 9G16G26G 4G 7R 4R 3
 127819485.48546  99599611.09645  24323237.659    24323237.478    24323245.371
        36.000          30.000
 127373702.68746  99252256.27843  24238408.193    24238406.049    24238408.417
        39.000          21.000
 117603666.51347  91639237.12247  22379232.918    22379233.424    22379239.022
        43.000          42.000
 114528617.40047  89243076.31047  21794064.738    21794064.283    21794069.879
        45.000          46.000
 107026683.12248  83397418.98946  20366498.884    20366498.205    20366501.628
        48.000          41.000
 114520024.85647  89236388.72447  21792434.387    21792434.267    21792440.611
        44.000          44.000
 106564966.80948  83037641.28047  20278630.575    20278630.566    20278634.400
        48.000          43.000
 127795698.26046  99581069.06445  24318713.372    24318713.905    24318717.458
        38.000          31.000
 124703935.096 6  96991959.870 6  23287578.635    23287579.816    23287582.086
        41.000          36.000
 105031346.912 8  81691061.955 8  19620737.465    19620737.316    19620740.061
        52.000          48.000
 20  5  4  0 55  0.0000000  0 10G27G22G 3G 9G16G26G 4G 7R 4R 3
 127790672.16746  99577159.17245  24317754.920    24317754.846    24317761.708
        36.000          30.000
 127545239.32746  99385921.13843  24271050.201    24271050.007    24271050.612
        40.000          20.000
 117764247.10347  91764364.82247  22409790.363    22409790.936    22409796.513
        44.000          42.000
 114520763.71547  89236956.55647  21792569.865    21792569.652    21792575.179
        45.000          46.000
 107094574.08948  83450321.03246  20379417.775    20379417.616    20379420.756
        48.000          40.000
 114658388.09247  89344204.21747  21818763.760    21818763.887    21818770.348
        45.000          44.000
 106615443.81448  83076974.00347  20288235.773    20288235.952    20288239.963
        49.000          43.000
 127784551.77746  99572383.46745  24316592.415    24316592.481    24316596.287
        37.000          31.000
 124648687.521 6  96948989.550 5  23277260.596    23277262.290    23277264.488
        41.000          35.000
 105050440.592 8  81705912.591 8  19624304.047    19624304.079    19624306.981
        52.000          49.000
 20  5  4  0 55 30.0000000  0 10G27G22G 3G 9G16G26G 4G 7R 4R 3
 127761975.32445  99554798.01845  24312292.559    24312293.465    24312301.193
        35.000          30.000
 127716846.81646  99519641.19143  24303706.038    24303704.930    24303707.689
        39.000          21.000
 117925147.22147  91889741.50447  22440408.839    22440409.152    22440414.871
        43.000          42.000
 114513165.30547  89231035.71647  21791124.094    21791123.796    21791129.298
        46.000          46.000
 107163148.29348  83503755.48146  20392467.282    20392466.797    20392470.106
        49.000          41.000
 114797184.77247  89452357.45947  21845175.777    21845175.723    21845182.725
        45.000          44.000
 106666341.54448  83116634.56047  20297921.288    20297921.333    20297925.382
        50.000          43.000
 127773514.20446  99563782.74645  24314493.010    24314492.413    24314496.256
        37.000          31.000
 124593582.944 6  96906130.457 6  23266970.400    23266971.382    23266974.466
        40.000          36.000
 105070205.328 8  81721285.156 8  19627996.640    19627996.573    19627999.176
        52.000          48.000
 20  5  4  0 56  0.0000000  0 10G27G22G 3G 9G16G26G 4G 7R 4R 3
 127733388.40145  99532522.52645  24306853.478    24306853.939    24306860.640
        35.000          30.000
 127888512.76546  99653406.85243  24336372.656    24336371.205    24336375.017
        39.000          21.000
 118086354.06747  92015357.20347  22471085.501    22471085.760    22471091.356
        43.000          42.000
 114505814.29647  89225307.65647  21789725.061    21789725.102    21789730.360
        46.000          46.000
 107232395.23048  83557714.12846  20405644.364    20405644.038    20405647.261
        48.000          40.000
 114936402.52347  89560838.79847  21871668.539    21871668.341    21871675.132
        44.000          44.000
 106717651.34048  83156616.21147  20307685.267    20307685.262    20307689.344
        49.000          43.000
 127762575.41646  99555258.99945  24312411.316    24312410.718    24312414.282
        37.000          31.000
 124538614.576 6  96863377.304 6  23256705.649    23256705.511    23256709.582
        40.000          36.000
 105090633.700 8  81737173.884 8  19631812.562    19631812.997    19631815.303
        52.000          48.000
 20  5  4  0 56 30.0000000  0 10G27G22G 3G 9G16G26G 4G 7R 4R 3
 127704931.59145  99510348.39344  24301438.514    24301438.484    24301445.806
        35.000          29.000
 128060251.35246  99787229.06743  24369053.368    24369052.372    24369054.040
        39.000          20.000
 118247881.75747  92141222.91047  22501822.703    22501823.420    22501829.143
        43.000          42.000
 114498729.57847  89219787.09447  21788377.028    21788377.169    21788382.237
        46.000          46.000
 107302331.54948  83612209.95346  20418952.695    20418952.345    20418955.735
        49.000          40.000
 115076055.65047  89669659.39647  21898243.749    21898243.560    21898250.330
        44.000          44.000
 106769391.39148  83196933.12247  20317531.066    20317531.241    20317535.059
        49.000          43.000
 127751753.02346  99546825.94545  24310351.456    24310351.342    24310355.577
        37.000          31.000
 124483803.159 6  96820746.216 6  23246469.615    23246469.681    23246474.236
        40.000          36.000
 105111746.221 8  81753594.730 8  19635757.008    19635756.791    19635759.389
        52.000          49.000
 20  5  4  0 57  0.0000000  0 10G27G22G 3G 9G16G26G 4G 7R 4R 3
 127676599.40946  99488271.38845  24296047.411    24296046.856    24296054.605
        36.000          30.000
 128232051.16346  99921099.01543  24401745.735    24401744.804    24401748.250
        38.000          20.000
 118409718.42847  92267329.37547  22532619.626    22532619.813    22532625.792
        43.000          42.000
 114491904.10347  89214468.54347  21787078.393    21787078.311    21787083.426
        46.000          46.000
 107372947.62548  83667235.46046  20432390.661    20432390.199    20432393.639
        48.000          41.000
 115216132.98847  89778810.54447  21924899.554    21924899.324    21924906.118
        44.000          43.000
 106821553.92348  83237579.23647  20327457.550    20327457.351    20327461.271
        50.000          43.000
 127741038.00146  99538476.55945  24308312.464    24308312.102    24308316.655
        38.000          31.000
 124429143.023 6  96778232.799 6  23236263.320    23236263.699    23236266.461
        41.000          36.000
 105133536.407 8  81770542.639 8  19639827.224    19639827.352    19639830.022
        52.000          49.000
 20  5  4  0 57 30.0000000  0 10G27G22G 3G 9G16G26G 4G 7R 4R 3
 127648405.64846  99466302.22845  24290681.491    24290682.193    24290689.392
        36.000          31.000
 128403920.04946 100055022.79843  24434451.122    24434451.125    24434453.273
        38.000          20.000
 118571871.71447  92393682.55647  22563476.354    22563476.663    22563482.469
        43.000          42.000
 114485350.38947  89209361.75747  21785830.994    21785831.320    21785836.403
        46.000          47.000
 107444253.41848  83722798.41046  20445959.825    20445959.383    20445962.624
        48.000          41.000
 115356642.37147  89888298.35447  21951636.805    21951637.215    21951644.138
        44.000          43.000
 106874150.68948  83278563.72547  20337466.267    20337466.278    20337470.156
        49.000          44.000
 127730440.97046  99530219.11245  24306295.883    24306295.825    24306299.637
        37.000          32.000
 124374648.369 6  96735848.073 6  23226086.792    23226087.572    23226090.552
        41.000          36.000
 105156018.030 8  81788028.339 8  19644027.105    19644026.766    19644029.815
        52.000          48.000
 20  5  4  0 58  0.0000000  0 10G27G22G 3G 9G16G26G 4G 7R 4R 3
 127620341.69846  99444434.24145  24285341.312    24285341.710    24285348.685
        36.000          30.000
 128575843.53646 100188989.07643  24467167.089    24467167.431    24467170.022
        38.000          19.000
 118734326.73847  92520270.85347  22594390.754    22594390.989    22594396.815
        43.000          42.000
 114479058.44747  89204458.94447  21784633.861    21784633.970    21784639.043
        46.000          47.000
 107516236.75047  83778889.31246  20459657.756    20459657.363    20459660.481
        47.000          41.000
 115497569.27647  89998111.50447  21978454.948    21978454.911    21978461.630
        44.000          44.000
 106927170.86348  83319878.13547  20347555.721    20347555.711    20347559.703
        49.000          44.000
 127719950.47646  99522044.68945  24304298.999    24304299.769    24304303.570
        37.000          31.000
 124320310.306 7  96693585.164 5  23215939.761    23215941.409    23215943.400
        42.000          34.000
 105179181.614 8  81806044.449 8  19648354.141    19648353.916    19648356.950
        52.000          48.000
 20  5  4  0 58 30.0000000  0 10G27G22G 3G 9G16G26G 4G 7R 4R 3
 127592415.92446  99422673.91745  24280027.638    24280027.285    24280034.660
        36.000          31.000
 128747823.84846 100322999.68543  24499894.233    24499893.730    24499896.280
        38.000          19.000
 118897085.61047  92647095.92147  22625362.852    22625363.030    22625368.914
        43.000          42.000
 114473035.23447  89199765.53547  21783487.689    21783487.879    21783492.737
        47.000          46.000
 107588901.48448  83835511.17846  20473485.502    20473484.969    20473488.017
        48.000          41.000
 115638916.23447  90108251.97847  22005352.037    22005351.865    22005358.957
        43.000          43.000
 106980620.72048  83361527.35847  20357727.064    20357726.870    20357730.927
        50.000          43.000
 127709571.79546  99513957.39845  24302324.486    24302324.566    24302328.555
        38.000          32.000
 124266137.544 7  96651450.806 6  23205823.489    23205824.364    23205826.086
        42.000          36.000
 105203035.010 8  81824597.081 8  19652810.378    19652810.200    19652813.025
        52.000          48.000
 20  5  4  0 59  0.0000000  0 10G27G22G 3G 9G16G26G 4G 7R 4R 3
 127564650.71546  99401038.70345  24274743.615    24274744.386    24274751.572
        37.000          31.000
 128919877.29746 100457067.25343  24532634.961    24532633.237    24532637.098
        38.000          19.000
 119060164.48347  92774170.33346  22656395.533    22656395.852    22656401.858
        43.000          41.000
 114467301.74947  89195297.88547  21782396.862    21782396.749    21782401.835
        46.000          46.000
 107662265.90848  83892678.25146  20487446.343    20487445.586    20487448.848
        48.000          40.000
 115780699.75247  90218732.61947  22032333.006    22032332.585    22032339.487
        43.000          43.000
 107034520.43548  83403527.12147  20367983.851    20367983.666    20367987.685
        49.000          44.000
 127699324.05046  99505972.13345  24300374.871    24300374.856    24300378.688
        39.000          32.000
 124212152.854 7  96609462.727 6  23195742.098    23195743.346    23195745.182
        42.000          36.000
 105227600.403 8  81843703.483 8  19657399.566    19657399.205    19657402.031
        52.000          48.000
 20  5  4  0 59 30.0000000  0 10G27G22G 3G 9G16G26G 4G 7R 4R 3
 127537020.10746  99379508.37145  24269485.959    24269486.109    24269493.481
        37.000          31.000
 129091972.59246 100591167.42443  24565382.685    24565381.783    24565386.342
        38.000          19.000
 119223531.15147  92901469.01046  22687483.129    22687483.386    22687489.681
        43.000          41.000
 114461830.74447  89191034.76747  21781355.532    21781355.486    21781360.838
        46.000          47.000
 107736300.43848  83950367.49046  20501534.336    20501533.960    20501537.149
        49.000          41.000
 115922887.99947  90329528.63947  22059390.337    22059390.273    22059397.072
        43.000          43.000
 107088841.94248  83445855.55447  20378320.601    20378320.573    20378324.663
        50.000          43.000
 127689177.57546  99498065.78345  24298443.855    24298444.118    24298447.864
        39.000          32.000
 124158329.968 7  96567600.483 6  23185690.461    23185692.819    23185694.783
        42.000          37.000
 105252850.977 8  81863342.810 8  19662116.185    19662116.247    19662119.062
        52.000          49.000
 20  5  4  1  0  0.0000000  0 10G27G22G 3G 9G16G26G 4G 7R 4R 3
 127509543.95046  99358098.36745  24264257.680    24264257.917    24264264.389
        37.000          32.000
 129264123.28846 100725310.80543  24598141.663    24598143.341    24598144.911
        37.000          19.000
 119387199.10347  93029002.44046  22718628.237    22718628.293    22718634.336
        43.000          41.000
 114456640.48347  89186990.40647  21780367.763    21780367.823    21780373.179
        45.000          47.000
 107811020.79348  84008591.13146  20515753.475    20515752.885    20515755.954
        48.000          40.000
 116065494.83047  90440650.82147  22086527.264    22086527.165    22086534.119
        43.000          42.000
 107143602.73548  83488526.28847  20388741.223    20388741.456    20388745.436
        50.000          44.000
 127679149.55646  99490251.72845  24296535.992    24296535.810    24296539.321
        39.000          32.000
 124104688.966 6  96525879.718 5  23175673.874    23175675.382    23175677.102
        41.000          34.000
 105278806.028 8  81883530.058 8  19666965.197    19666965.059    19666967.619
        52.000          48.000
 20  5  4  1  0 30.0000000  0 10G27G22G 3G 9G16G26G 4G 7R 4R 3
 127482217.06946  99336804.71845  24259057.505    24259058.073    24259063.984
        38.000          31.000
 129436318.37046 100859488.74943  24630910.490    24630908.702    24630912.491
        37.000          18.000
 119551156.89947  93156761.73146  22749828.454    22749828.422    22749834.721
        42.000          41.000
 114451724.56847  89183159.82447  21779432.251    21779432.384    21779437.641
        46.000          47.000
 107886417.41848  84067341.73946  20530100.907    20530100.444    20530103.523
        48.000          40.000
 116208509.21947  90552090.58747  22113742.795    22113742.265    22113748.998
        44.000          43.000
 107198795.54548  83531533.66247  20399244.371    20399244.367    20399248.203
        50.000          43.000
 127669231.22346  99482523.14045  24294649.059    24294648.743    24294652.064
        39.000          32.000
 124051224.884 6  96484296.459    23165689.941    23165690.612    23165690.305
        41.000           4.000
 105305459.362 8  81904260.423    19671944.141    19671944.045    19671946.727
        52.000           5.000
 20  5  4  1  1  0.0000000  0 10G27G22G 3G 9G16G26G 4G 7R 4R 3
 125879622.83646  98088030.00645  23954094.555    23954094.621    23954101.112
        38.000          33.000
 128033141.75846  99766104.32243  24363894.942    24363894.078    24363895.944
        38.000          18.000
 118139988.07547  92057149.63346  22481292.274    22481292.011    22481297.980
        43.000          41.000
 112871665.68647  87951945.11047  21478757.277    21478756.958    21478762.310
        46.000          46.000
 106387073.39148  82899021.71346  20244785.272    20244784.859    20244787.908
        48.000          40.000
 114776514.25647  89436250.34047  21841242.817    21841242.636    21841249.294
        44.000          42.000
 105679004.26248  82347280.70247  20110037.670    20110037.636    20110041.610
        50.000          44.000
 126084003.94946  98247281.10445  23992989.626    23992989.980    23992993.001
        39.000          33.000
 122392565.282 6  95194228.000 1  22855945.620    22855947.518    22855947.328
        41.000           6.000
 103728003.404 8                  19377262.033
        52.000
 20  5  4  1  1 30.0000000  0 10G27G22G 3G 9G16G26G 4G 7R 4R 3
 125852615.10346  98066985.03345  23948954.704    23948954.697    23948961.129
        37.000          32.000
 128205428.09346  99900353.39942  24396679.906    24396678.856    24396679.953
        37.000          17.000
 118304527.42747  92185362.07246  22512602.332    22512602.822    22512609.037
        43.000          41.000
 112867314.86947  87948554.85547  21477928.941    21477928.782    21477934.376
        45.000          46.000
 106463831.18148  82958832.97046  20259392.098    20259391.398    20259394.442
        48.000          41.000
 114920346.61847  89548327.48347  21868613.240    21868613.052    21868619.579
        44.000          42.000
 105735075.07448  82390972.23247  20120707.561    20120707.444    20120711.479
        50.000          44.000
 126074317.07746  98239732.89945  23991146.633    23991146.504    23991150.021
        38.000          33.000
 122339476.127 7                  22846033.007
        42.000
 103756072.873 8                  19382506.238
        52.000
 20  5  4  1  2  0.0000000  0 10G27G22G 3G 9G16G26G 4G 7R 4R 3
 125825767.56046  98046064.87045  23943845.255    23943845.878    23943852.730
        38.000          32.000
 128377751.44546 100034631.29943  24429471.173    24429470.394    24429471.361
        38.000          18.000
 118469348.60647  92313794.12846  22543967.144    22543967.350    22543973.249
        42.000          40.000
 112863245.06747  87945383.57747  21477154.686    21477154.281    21477159.941
        46.000          46.000
 106541263.95348  83019170.18246  20274126.704    20274126.465    20274129.351
        48.000          40.000
 115064579.62147  89660716.82047  21896059.811    21896059.759    21896066.552
        44.000          43.000
 105791582.07648  82435003.65147  20131460.354    20131460.314    20131464.335
        50.000          44.000
 126064741.36146  98232271.29145  23989324.266    23989324.153    23989327.705
        39.000          33.000
 122286575.341 6                  22836153.539
        41.000
 103784849.267 8                  19387881.399
        52.000
 20  5  4  1  2 30.0000000  0 10G27G22G 3G 9G16G26G 4G 7R 4R 3
 125799089.72346  98025276.93545  23938768.647    23938768.596    23938776.233
        36.000          31.000
 128550115.83646 100168941.16242  24462272.199    24462269.341    24462272.534
        38.000          17.000
 118634454.85147  92442448.31646  22575385.721    22575386.119    22575392.029
        42.000          41.000
 112859464.43447  87942437.62547  21476435.382    21476434.965    21476440.364
        45.000          47.000
 106619376.85548  83080037.37546  20288991.208    20288990.675    20288993.662
        48.000          41.000
 115209216.82047  89773421.11347  21923583.561    21923583.244    21923590.115
        44.000          42.000
 105848532.50948  82479380.59447  20142297.590    20142297.694    20142301.754
        50.000          44.000
 126055283.07446  98224901.18145  23987523.668    23987524.522    23987528.120
        39.000          33.000
 122233872.425 7                  22826311.647
        42.000
 103814341.964 8  80744505.398 8  19393390.934    19393390.538    19393393.331
        52.000          49.000
 20  5  4  1  3  0.0000000  0 10G27G22G 3G 9G16G26G 4G 7R 4R 3
 125772586.67546  98004625.22945  23933724.842    23933725.795    23933732.634
        36.000          31.000
 128722520.22646 100303282.21342  24495079.510    24495077.862    24495080.061
        37.000          17.000
 118799844.94847  92571323.68146  22606858.540    22606859.008    22606864.599
        42.000          40.000
 112855976.71247  87939719.91347  21475771.662    21475771.431    21475776.804
        46.000          47.000
 106698170.98248  83141435.38646  20303985.166    20303984.659    20303987.790
        48.000          41.000
 115354257.41547  89886439.74047  21951183.978    21951183.525    21951190.480
        44.000          42.000
 105905929.27048  82524105.33347  20153220.078    20153219.910    20153224.030
        49.000          44.000
 126045944.04346  98217624.02545  23985747.562    23985747.458    23985750.623
        40.000          33.000
 122181372.894 7                  22816506.162
        42.000
 103844555.226 8  80768004.593 8  19399034.769    19399034.835    19399037.555
        52.000          49.000
 20  5  4  1  3 30.0000000  0 10G27G22G 3G 9G16G26G 4G 7R 4R 3
 125746263.63946  97984113.75945  23928716.556    23928716.685    23928723.593
        38.000          31.000
 128894963.91846 100437653.87143  24527894.759    24527892.200    24527896.359
        37.000          18.000
 118965517.80047  92700419.37246  22638385.205    22638385.678    22638391.253
        42.000          41.000
 112852785.71547  87937233.41847  21475164.540    21475164.317    21475169.570
        47.000          47.000
 106777647.27848  83203364.95846  20319109.080    20319108.511    20319111.807
        48.000          41.000
 115499700.67647  89999772.12047  21978860.617    21978860.623    21978867.363
        44.000          42.000
 105963775.26548  82569180.12047  20164227.685    20164227.769    20164231.803
        51.000          44.000
 126036726.56046  98210441.55345  23983992.674    23983993.308    23983996.471
        39.000          33.000
 122129082.467 6  94989293.931 6  22806742.760    22806742.377    22806745.825
        41.000          37.000
 103875493.414 8  80792067.618 8  19404814.344    19404814.240    19404817.063
        52.000          48.000
 20  5  4  1  4  0.0000000  0 10G27G22G 3G 9G16G26G 4G 7R 4R 3
 125720122.04146  97963743.70745  23923742.213    23923742.101    23923748.663
        37.000          31.000
 129067442.51946 100572052.72543  24560716.009    24560714.320    24560716.722
        38.000          18.000
 119131468.50647  92829731.57246  22669964.900    22669965.075    22669970.517
        42.000          41.000
 112849891.47247  87934978.15947  21474613.631    21474613.732    21474618.743
        47.000          47.000
 106857802.54048  83265823.60146  20334362.049    20334361.585    20334364.865
        48.000          41.000
 115645542.01347  90113414.70147  22006613.615    22006613.293    22006620.335
        43.000          43.000
 106022069.64948  82614604.30747  20175320.884    20175320.879    20175324.822
        50.000          44.000
 126027629.06946  98203352.59545  23982261.984    23982262.145    23982265.412
        39.000          33.000
 122077002.390 6  94948787.215 6  22797015.861    22797015.971    22797020.234
        41.000          37.000
 103907157.038 8  80816694.872 8  19410729.775    19410729.457    19410732.024
        52.000          48.000
 20  5  4  1  4 30.0000000  0 10G27G22G 3G 9G16G26G 4G 7R 4R 3
 125694155.57546  97943510.09945  23918801.529    23918800.650    23918807.597
        38.000          32.000
 129239943.69346 100706469.18242  24593542.182    24593540.482    24593543.531
        37.000          17.000
 119297684.42747  92959250.43646  22701594.611    22701594.765    22701600.376
        43.000          40.000
 112847286.39647  87932948.22847  21474118.210    21474117.959    21474123.043
        46.000          47.000
 106938626.36048  83328803.19646  20349742.371    20349742.029    20349745.012
        49.000          40.000
 115791769.21247  90227357.95747  22034439.465    22034439.571    22034446.330
        43.000          43.000
 106080803.87648  82660371.21547  20186497.571    20186497.543    20186501.497
        49.000          44.000
 126018641.74846  98196349.49345  23980551.677    23980551.764    23980555.095
        39.000          33.000
 122025126.455 6  94908439.266 6  22787328.453    22787328.955    22787332.626
        41.000          37.000
 103939538.926 8  80841880.778 8  19416778.607    19416778.638    19416781.384
        52.000          49.000
 20  5  4  1  5  0.0000000  0 10G27G22G 3G 9G16G26G 4G 7R 4R 3
 125668369.67246  97923417.19045  23913894.415    23913893.782    23913900.583
        37.000          31.000
 129412466.74846 100840902.68943  24626371.706    24626369.913    24626374.122
        38.000          18.000
 119464164.67947  93088975.27146  22733274.683    22733275.000    22733280.574
        43.000          40.000
 112844974.44847  87931146.70447  21473677.969    21473677.890    21473683.162
        46.000          47.000
 107020119.66048  83392304.46146  20365250.241    20365249.617    20365252.709
        48.000          40.000
 115938381.71247  90341601.43947  22062338.787    22062338.858    22062345.590
        44.000          43.000
 106139980.99448  82706483.24047  20197758.619    20197758.603    20197762.544
        49.000          44.000
 126009766.62346  98189433.80445  23978862.715    23978862.796    23978866.053
        39.000          33.000
 121973460.382 6  94868254.567 6  22777681.170    22777680.794    22777685.142
        40.000          38.000
 103972643.316 8  80867628.624 8  19422963.167    19422962.951    19422965.515
        52.000          48.000
 20  5  4  1  5 30.0000000  0 10G27G22G 3G 9G16G26G 4G 7R 4R 3
 125642782.83146  97903479.43045  23909024.686    23909024.949    23909032.139
        37.000          33.000
 129585024.52046 100975363.19343  24659208.793    24659207.526    24659209.355
        37.000          18.000
 119630921.41647  93218915.53846  22765007.449    22765007.790    22765013.280
        43.000          40.000
 112842972.76947  87929586.95247  21473297.202    21473296.842    21473302.233
        46.000          47.000
 107102296.65648  83456338.47646  20380887.853    20380887.224    20380890.456
        48.000          40.000
 116085392.07247  90456154.96047  22090314.171    22090313.961    22090320.585
        43.000          42.000
 106199617.25448  82752953.03547  20209107.190    20209107.082    20209111.022
        50.000          44.000
 126001018.93146  98182617.42845  23977198.427    23977198.699    23977201.552
        39.000          33.000
 121922023.254 6  94828247.908 6  22768074.743    22768075.869    22768079.702
        41.000          38.000
 104006488.532 8  80893952.669 8  19429285.779    19429285.258    19429288.104
        52.000          49.000
 20  5  4  1  6  0.0000000  0 10G27G22G 3G 9G16G26G 4G 7R 4R 3
 125617396.45546  97883697.85445  23904194.368    23904193.695    23904200.291
        37.000          32.000
 129757612.28746 101109847.14142  24692050.877    24692049.385    24692051.402
        37.000          17.000
 119797949.67847  93349067.39846  22796791.978    22796792.257    22796797.725
        43.000          40.000
 112841281.39047  87928268.98747  21472975.105    21472974.962    21472980.400
        47.000          47.000
 107185154.24348  83520902.82446  20396654.877    20396654.467    20396657.692
        48.000          40.000
 116232795.65847  90571014.87547  22118364.131    22118363.973    22118370.570
        43.000          42.000
 106259711.69648  82799779.85947  20220542.627    20220542.614    20220546.627
        50.000          45.000
 125992397.30046  98175899.26345  23975558.250    23975558.179    23975560.797
        40.000          33.000
 121870816.648 7  94788420.562 6  22758512.820    22758513.667    22758517.506
        42.000          38.000
 104041074.496 8  80920852.856 8  19435746.303    19435746.241    19435749.086
        52.000          49.000
 20  5  4  1  6 30.0000000  0 10G27G22G 3G 9G16G26G 4G 7R 4R 3
 125592210.54646  97864072.50545  23899400.806    23899401.429    23899407.728
        38.000          32.000
 129930224.30346 101244349.95842  24724897.539    24724896.224    24724899.467
        37.000          17.000
 119965243.08047  93479425.85446  22828626.934    22828627.201    22828632.478
        42.000          40.000
 112839898.92747  87927191.74348  21472712.268    21472711.918    21472717.388
        47.000          48.000
 107268687.63347  83585993.77446  20412550.969    20412550.509    20412553.608
        47.000          40.000
 116380586.48247  90686176.53347  22146487.775    22146487.747    22146494.373
        43.000          42.000
 106320261.94548  82846961.85547  20232065.129    20232064.998    20232069.037
        50.000          44.000
 125983898.28346  98169276.65745  23973940.601    23973940.636    23973943.391
        41.000          34.000
 121819840.703 7  94748772.609 6  22748993.845    22748994.466    22748998.642
        42.000          38.000
 104076400.132 8  80948328.338 8  19442345.694    19442345.689    19442348.328
        52.000          49.000
 20  5  4  1  7  0.0000000  0 10G27G22G 3G 9G16G26G 4G 7R 4R 3
 125567226.35246  97844604.31645  23894646.100    23894646.842    23894653.970
        38.000          33.000
 130102855.77046 101378867.90142  24757747.508    24757747.693    24757748.625
        37.000          17.000
 120132796.58947  93609986.99746  22860511.390    22860511.876    22860517.058
        42.000          40.000
 112838825.29647  87926355.14148  21472508.002    21472507.736    21472513.049
        46.000          48.000
 107352894.08348  83651609.17446  20428574.851    20428574.354    20428577.538
        48.000          40.000
 116528759.88047  90801636.30447  22174684.151    22174684.176    22174690.890
        43.000          42.000
 106381266.97448  82894498.22447  20243673.709    20243673.785    20243677.889
        50.000          44.000
 125975519.25346  98162747.54045  23972346.508    23972346.341    23972349.114
        40.000          33.000
 121769097.013 7  94709305.331 6  22739517.362    22739518.998    22739522.625
        42.000          38.000
 104112465.985 8  80976379.551 8  19449083.140    19449082.929    19449085.652
        52.000          49.000
 20  5  4  1  7 30.0000000  0 10G27G22G 3G 9G16G26G 4G 7R 4R 3
 125542451.28846  97825299.09045  23889932.092    23889932.533    23889939.265
        39.000          33.000
 130275508.28546 101513402.33542  24790603.662    24790602.969    24790605.590
        37.000          16.000
 120300611.17547  93740751.57146  22892445.236    22892445.590    22892451.122
        42.000          40.000
 112838066.45347  87925763.82548  21472363.635    21472363.595    21472368.692
        47.000          48.000
 107437776.53148  83717751.33946  20444727.472    20444726.879    20444730.024
        48.000          40.000
 116677317.15447  90917395.19946  22202953.553    22202953.823    22202960.365
        43.000          41.000
 106442731.77748  82942392.86347  20255370.171    20255370.184    20255374.214
        50.000          44.000
 125967265.35046  98156315.91645  23970775.540    23970775.226    23970778.520
        40.000          33.000
 121718593.247 7  94670024.631 6  22730087.407    22730087.532    22730091.527
        42.000          39.000
 104149278.290 8  81005011.332 8  19455959.937    19455959.782    19455962.517
        53.000          49.000
 20  5  4  1  8  0.0000000  0 10G27G22G 3G 9G16G26G 4G 7R 4R 3
 125517887.75546  97806158.70045  23885257.462    23885257.989    23885264.894
        38.000          33.000
 130448178.07046 101647950.15442  24823460.933    24823460.234    24823461.686
        36.000          17.000
 120468682.97047  93871716.57646  22924428.153    22924428.510    22924434.247
        42.000          39.000
 112837623.48447  87925418.65548  21472279.457    21472279.420    21472284.442
        46.000          48.000
 107523332.96848  83784418.68246  20461008.501    20461007.948    20461010.876
        48.000          40.000
 116826254.82247  91033450.50146  22231295.989    22231295.752    22231302.175
        43.000          41.000
 106504656.43248  82990645.82547  20267153.928    20267153.982    20267158.102
        50.000          44.000
 125959135.35146  98149980.85345  23969228.116    23969227.822    23969231.222
        39.000          33.000
 121668332.111 7  94630932.643 6  22720701.871    22720702.136    22720705.670
        42.000          39.000
 104186838.266 8  81034224.636 8  19462976.306    19462976.259    19462978.901
        52.000          49.000
 20  5  4  1  8 30.0000000  0 10G27G22G 3G 9G16G26G 4G 7R 4R 3
 125493543.60546  97787189.24045  23880625.916    23880626.036    23880632.786
        38.000          34.000
 130620867.17446 101782513.03142  24856322.942    24856321.474    24856327.379
        37.000          16.000
 120637013.35246  94002883.07346  22956460.467    22956460.843    22956466.589
        41.000          39.000
 112837502.83948  87925324.63748  21472256.164    21472256.333    21472261.517
        48.000          49.000
 107609566.11148  83851613.33446  20477417.992    20477417.652    20477420.667
        48.000          40.000
 116975574.64647  91149803.58246  22259710.435    22259710.128    22259717.085
        42.000          41.000
 106567046.36048  83039261.33747  20279026.498    20279026.381    20279030.522
        50.000          44.000
 125951133.84746  98143745.92345  23967705.548    23967704.736    23967708.892
        38.000          33.000
 121618321.728 7  94592035.701 6  22711362.246    22711363.144    22711366.192
        42.000          39.000
 104225152.715 8  81064024.747 8  19470133.594    19470133.627    19470136.434
        52.000          49.000
 20  5  4  1  9  0.0000000  0 10G27G22G 3G 9G16G26G 4G 7R 4R 3
 125469424.10946  97768394.84645  23876035.471    23876035.228    23876042.861
        37.000          33.000
 130793575.01746 101917090.51742  24889187.736    24889185.675    24889189.680
        37.000          16.000
 120805601.36146  94134250.31246  22988541.165    22988542.044    22988547.853
        41.000          39.000
 112837708.44747  87925484.85248  21472295.331    21472295.372    21472300.641
        47.000          48.000
 107696476.82548  83919335.95746  20493956.600    20493956.070    20493959.086
        49.000          40.000
 117125275.95647  91266453.93246  22288197.686    22288197.745    22288203.861
        43.000          41.000
 106629904.50148  83088241.68747  20290987.945    20290987.826    20290991.962
        49.000          44.000
 125943263.02546  98137612.81945  23966207.097    23966206.470    23966211.537
        39.000          33.000
 121568567.958 7  94553338.339 6  22702070.998    22702071.539    22702074.687
        42.000          38.000
 104264226.046 8  81094415.101 8  19477433.135    19477432.812    19477435.703
        52.000          48.000
 20  5  4  1  9 30.0000000  0 10G27G22G 3G 9G16G26G 4G 7R 4R 3
 125445527.73046  97749774.31445  23871488.247    23871487.449    23871495.655
        37.000          32.000
 130966293.93546 102051676.63142  24922055.101    24922053.634    24922055.768
        37.000          16.000
 120974438.95347  94265812.03546  23020670.423    23020670.741    23020676.567
        42.000          39.000
 112838237.33347  87925896.97048  21472396.152    21472395.944    21472401.267
        47.000          48.000
 107784058.98748  83987581.79546  20510623.006    20510622.407    20510625.524
        48.000          40.000
 117275351.18547  91383395.64846  22316756.014    22316755.650    22316762.538
        43.000          40.000
 106693226.82648  83137583.74547  20303037.685    20303037.717    20303041.853
        50.000          44.000
 125935518.06946  98131577.79345  23964733.356    23964732.857    23964737.754
        39.000          33.000
 121519069.036 7  94514839.212 6  22692827.549    22692827.652    22692830.760
        42.000          38.000
 104304055.157 8  81125393.284 8  19484873.690    19484873.505    19484876.056
        52.000          49.000
 20  5  4  1 10  0.0000000  0 10G27G22G 3G 9G16G26G 4G 7R 4R 3
 125421867.62646  97731337.88245  23866984.683    23866985.138    23866993.075
        37.000          32.000
 131139031.53146 102186277.33242  24954926.628    24954926.693    24954927.982
        36.000          15.000
 121143532.92246  94397573.53846  23052847.929    23052848.388    23052854.277
        41.000          39.000
 112839101.31347  87926570.19748  21472560.509    21472560.275    21472565.590
        47.000          48.000
 107872321.05148  84056357.42646  20527418.560    20527418.208    20527421.295
        49.000          40.000
 117425807.43347  91500634.24146  22345386.788    22345386.828    22345393.528
        42.000          41.000
 106757024.09948  83187295.89447  20315178.062    20315177.961    20315182.109
        49.000          44.000
 125927908.75746  98125648.45345  23963285.463    23963284.980    23963289.588
        39.000          34.000
 121469839.020 7  94476549.214 6  22683633.991    22683634.087    22683636.913
        42.000          38.000
 104344652.237 8  81156968.783 8  19492457.341    19492457.466    19492460.131
        52.000          49.000
 20  5  4  1 10 30.0000000  0 10G27G22G 3G 9G16G26G 4G 7R 4R 3
 125398445.43646  97713086.86745  23862528.366    23862528.516    23862535.313
        38.000          32.000
 131311783.24946 102320888.99242  24987799.935    24987797.915    24987801.668
        36.000          15.000
 121312878.67746  94529531.22346  23085073.535    23085073.599    23085079.828
        41.000          39.000
 112840300.75547  87927504.82848  21472788.564    21472788.533    21472793.614
        47.000          48.000
 107961260.06048  84125660.54446  20544342.946    20544342.567    20544345.584
        48.000          40.000
 117576640.39747  91618166.40746  22374089.427    22374089.179    22374096.143
        42.000          41.000
 106821295.67248  83237377.62547  20327408.550    20327408.525    20327412.648
        50.000          44.000
 125920433.19446  98119823.34745  23961862.911    23961862.628    23961866.979
        39.000          34.000
 121420879.860 7  94438469.875 6  22674490.970    22674490.938    22674494.184
        42.000          39.000
 104386017.785 8  81189141.977 8  19500184.938    19500184.806    19500187.543
        52.000          49.000
 20  5  4  1 11  0.0000000  0  9G27G 3G 9G16G26G 4G 7R 4R 3
 125375259.92046  97695020.25045  23858116.140    23858116.024    23858123.367
        38.000          33.000
 121482468.46246  94661679.06746  23117345.544    23117345.669    23117351.780
        41.000          39.000
 112841832.89148  87928698.69948  21473079.955    21473080.103    21473085.254
        48.000          48.000
 108050870.22348  84195486.64546  20561395.404    20561394.878    20561398.105
        48.000          40.000
 117727842.80347  91735986.43946  22402862.593    22402862.210    22402868.740
        43.000          41.000
 106886037.70648  83287825.95347  20339728.580    20339728.581    20339732.623
        50.000          44.000
 125913087.31646  98114099.28945  23960464.956    23960465.036    23960469.183
        39.000          34.000
 121372190.324 7  94400600.255 6  22665398.254    22665397.946    22665401.356
        42.000          38.000
 104428149.082 8  81221910.746 8  19508055.438    19508055.143    19508057.985
        52.000          49.000
 20  5  4  1 11 30.0000000  0  9G27G 3G 9G16G26G 4G 7R 4R 3
 125352311.11046  97677138.09845  23853749.572    23853749.824    23853756.701
        38.000          33.000
 121652295.96146  94794012.13446  23149662.326    23149662.919    23149668.945
        41.000          39.000
 112843696.45347  87930150.82348  21473434.906    21473434.719    21473439.932
        47.000          48.000
 108141146.69747  84265831.94446  20578574.461    20578573.931    20578577.005
        47.000          40.000
 117879408.64447  91854089.66346  22431704.079    22431704.095    22431711.138
        43.000          41.000
 106951247.81848  83338639.01047  20352137.827    20352137.554    20352141.836
        50.000          44.000
 125905867.95246  98108473.81245  23959090.756    23959091.248    23959095.421
        39.000          34.000
 121323770.916 7  94362940.734 6  22656356.088    22656356.252    22656359.212
        42.000          38.000
 104471044.729 8  81255274.013 8  19516068.473    19516068.744    19516071.287
        53.000          49.000
 20  5  4  1 12  0.0000000  0  9G27G 3G 9G16G26G 4G 7R 4R 3
 125329611.14646  97659449.84345  23849430.160    23849430.316    23849436.754
        38.000          33.000
 121822366.90446  94926534.91346  23182026.390    23182026.413    23182032.296
        41.000          39.000
 112845902.21647  87931869.60348  21473854.620    21473854.661    21473859.758
        47.000          49.000
 108232096.47947  84336701.90246  20595881.247    20595881.057    20595884.131
        46.000          40.000
 118031344.03447  91972480.84746  22460616.881    22460616.777    22460623.524
        43.000          41.000
 107016935.70648  83389824.36047  20364637.575    20364637.689    20364641.843
        49.000          44.000
 125898783.55246  98102953.50545  23957743.249    23957743.078    23957747.221
        40.000          34.000
 121275634.195 7  94325501.064 6  22647366.736    22647367.054    22647370.076
        42.000          38.000
 104514715.884 8  81289240.449 8  19524226.787    19524226.832    19524229.396
        52.000          49.000
 20  5  4  1 12 30.0000000  0  9G27G 3G 9G16G26G 4G 7R 4R 3
 123731735.14946  96414351.66245  23545364.304    23545364.649    23545371.313
        39.000          34.000
 120417256.53046  93831643.66546  22914642.793    22914642.910    22914648.719
        41.000          39.000
 111273024.78548  86706250.82448  21174546.144    21174546.061    21174551.257
        48.000          49.000
 106748294.14748  83180492.28646  20313523.439    20313522.739    20313526.058
        48.000          40.000
 116608223.97647  90863556.10546  22189805.957    22189806.077    22189812.947
        43.000          41.000
 105507677.01748  82213778.61447  20077435.165    20077435.255    20077439.401
        50.000          44.000
 124316407.01846  96869932.83945  23656627.040    23656626.782    23656631.125
        39.000          35.000
 119622399.787 7  93039652.095 6  22338636.814    22338637.754    22338640.424
        42.000          38.000
 102954345.707 8  80075619.194 8  19232736.356    19232736.505    19232739.181
        52.000          49.000
 20  5  4  1 13  0.0000000  0  9G27G 3G 9G16G26G 4G 7R 4R 3
 123709532.47946  96397050.90245  23541139.317    23541139.225    23541145.925
        39.000          34.000
 120587794.94046  93964530.70346  22947095.066    22947095.382    22947101.053
        41.000          38.000
 111275910.42647  86708499.37748  21175095.146    21175095.218    21175100.419
        47.000          48.000
 106840576.66848  83252400.74146  20331084.231    20331083.735    20331086.716
        49.000          40.000
 116760880.12447  90982508.91346  22218855.561    22218855.380    22218862.485
        43.000          41.000
 105574312.67548  82265702.49147  20090115.640    20090115.644    20090119.789
        50.000          44.000
 124309583.18946  96864615.54845  23655328.790    23655328.106    23655332.433
        38.000          35.000
 119574829.026 7  93002652.628 6  22329753.517    22329754.612    22329756.563
        42.000          38.000
 102999562.828 8  80110788.047 8  19241183.533    19241183.375    19241186.179
        52.000          49.000
 20  5  4  1 13 30.0000000  0  9G27G 3G 9G16G26G 4G 7R 4R 3
 123687587.66746  96379951.07245  23536964.233    23536963.469    23536970.410
        39.000          34.000
 120758566.64446  94097599.52546  22979591.731    22979592.127    22979597.759
        41.000          38.000
 111279143.18048  86711018.40048  21175710.678    21175710.303    21175715.586
        48.000          49.000
 106933527.40348  83324829.88446  20348771.869    20348771.538    20348774.965
        48.000          40.000
 116913896.77547  91101742.63846  22247973.796    22247973.719    22247980.470
        42.000          40.000
 105641427.68848  82317999.89347  20102886.928    20102887.237    20102891.382
        51.000          44.000
 124302893.43146  96859402.76045  23654055.942    23654054.990    23654059.326
        40.000          35.000
 119527551.047 7  92965880.886 6  22320924.933    22320925.799    22320928.174
        43.000          38.000
 103045560.183 8  80146563.757 8  19249776.134    19249776.013    19249778.651
        52.000          49.000
 20  5  4  1 14  0.0000000  0  9G27G 3G 9G16G26G 4G 7R 4R 3
 123665909.43446  96363058.93845  23532837.989    23532838.198    23532844.492
        38.000          34.000
 120929574.01546  94230851.98746  23012133.560    23012133.916    23012139.406
        41.000          38.000
 111282730.38147  86713813.62448  21176392.842    21176392.824    21176398.232
        47.000          49.000
 107027150.30548  83397782.79146  20366588.007    20366587.487    20366590.531
        48.000          40.000
 117067276.64847  91221259.39646  22277160.507    22277160.559    22277167.571
        42.000          40.000
 105709028.26448  82370675.65447  20115751.155    20115751.268    20115755.308
        50.000          44.000
 124296343.88146  96854299.21245  23652808.971    23652808.422    23652813.387
        39.000          35.000
 119480575.195 7  92929344.120 6  22312152.482    22312153.305    22312155.512
        42.000          38.000
 103092344.888 8  80182951.845 8  19258515.993    19258515.825    19258518.517
        52.000          48.000
 20  5  4  1 14 30.0000000  0  9G27G 3G 9G16G26G 4G 7R 4R 3
 123644493.14946  96346370.93845  23528762.321    23528762.620    23528769.215
        38.000          34.000
 121100806.07246  94364279.52446  23044717.364    23044718.334    23044723.922
        41.000          38.000
 111286666.04647  86716880.37348  21177141.286    21177141.541    21177147.260
        47.000          49.000
 107121435.89348  83471252.07746  20384529.804    20384529.414    20384532.476
        49.000          40.000
 117221009.08746  91341050.87746  22306415.408    22306415.177    22306422.187
        41.000          40.000
 105777107.27048  82423724.21947  20128706.289    20128706.240    20128710.321
        50.000          44.000
 124289926.76246  96849298.86845  23651587.422    23651587.406    23651592.334
        39.000          35.000
 119433897.063 7  92893038.925 6  22303436.061    22303436.898    22303438.846
        43.000          39.000
 103139910.888 8  80219947.608 8  19267401.866    19267401.644    19267404.247
        53.000          49.000
 20  5  4  1 15  0.0000000  0  9G27G 3G 9G16G26G 4G 7R 4R 3
 123623347.86746  96329894.08345  23524738.967    23524739.376    23524746.068
        39.000          35.000
 121272265.43046  94497884.18046  23077345.676    23077345.799    23077351.568
        41.000          37.000
 111290957.84147  86720224.63448  21177958.298    21177958.145    21177963.887
        46.000          48.000
 107216388.23948  83545240.91946  20402598.988    20402598.293    20402601.430
        48.000          40.000
 117375097.15347  91461119.46946  22335736.897    22335737.345    22335743.991
        42.000          40.000
 105845671.22048  82477150.66047  20141753.568    20141753.568    20141757.661
        50.000          44.000
 124283647.31946  96844405.79245  23650392.739    23650392.387    23650397.372
        40.000          35.000
 119387525.958 7  92856972.515 6  22294776.751    22294777.456    22294779.789
        43.000          39.000
 103188265.557 8  80257556.783 8  19276434.704    19276434.683    19276437.475
        52.000          49.000
 20  5  4  1 15 30.0000000  0  9G27G 3G 9G16G26G 4G 7R 4R 3
 123602475.30246  96313629.75545  23520767.242    23520766.902    23520774.244
        38.000          35.000
 121443947.50546  94631662.36946  23110015.391    23110015.825    23110021.774
        40.000          38.000
 111295606.18347  86723846.71848  21178842.626    21178842.751    21178848.338
        47.000          49.000
 107312004.15548  83619746.82446  20420793.879    20420793.327    20420796.546
        48.000          40.000
 117529536.56046  91581461.83846  22365126.225    22365125.942    22365132.792
        41.000          40.000
 105914719.35148  82530954.38147  20154893.007    20154893.049    20154897.142
        51.000          44.000
 124277504.46746  96839619.15045  23649223.348    23649223.936    23649227.884
        40.000          35.000
 119341464.324 7  92821146.811 6  22286174.812    22286176.096    22286178.104
        43.000          39.000
 103237409.314 8  80295779.692 8  19285615.306    19285615.095    19285617.859
        52.000          48.000
 20  5  4  1 16  0.0000000  0  9G27G 3G 9G16G26G 4G 7R 4R 3
 123581876.64646  96297578.84645  23516847.430    23516847.365    23516854.003
        39.000          35.000
 121615847.01546  94765610.01146  23142727.379    23142727.367    23142733.431
        41.000          38.000
 111300610.86548  86727746.46948  21179795.296    21179795.303    21179800.763
        48.000          48.000
 107408279.84948  83694766.83746  20439114.565    20439114.186    20439117.313
        48.000          40.000
 117684322.52247  91702074.25546  22394581.196    22394580.662    22394587.703
        42.000          40.000
 105984250.26448  82585134.29847  20168124.377    20168124.289    20168128.526
        50.000          44.000
 124271495.36646  96834936.73945  23648080.325    23648080.582    23648084.499
        41.000          35.000
 119295713.714 7  92785563.008 6  22277631.015    22277631.967    22277635.011
        43.000          39.000
 103287341.556 8  80334615.866 8  19294942.926    19294943.092    19294945.430
        52.000          49.000
 20  5  4  1 16 30.0000000  0  9G27G 3G 9G16G26G 4G 7R 4R 3
 123561551.85046  96281741.35045  23512979.487    23512979.707    23512986.295
        39.000          35.000
 121787957.57846  94899722.08846  23175478.118    23175478.822    23175484.770
        41.000          37.000
 111305970.46948  86731922.77948  21180815.196    21180815.238    21180820.608
        48.000          48.000
 107505210.19947  83770296.98046  20457559.797    20457559.335    20457562.440
        47.000          40.000
 117839448.80647  91822951.84446  22424100.728    22424100.567    22424107.413
        42.000          40.000
 106054261.39048  82639688.40047  20181446.883    20181446.893    20181451.148
        49.000          44.000
 124265617.74346  96830356.77045  23646962.953    23646962.063    23646965.770
        41.000          35.000
 119250274.298 7  92750221.239 6  22269146.151    22269146.307    22269149.185
        44.000          39.000
 103338060.577 8  80374063.976 8  19304417.906    19304417.624    19304420.295
        52.000          49.000
 20  5  4  1 17  0.0000000  0  9G27G 3G 9G16G26G 4G 7R 4R 3
 123541492.95646  96266111.05145  23509162.710    23509162.999    23509168.817
        39.000          35.000
 121960264.82546  95033987.43846  23208267.557    23208267.851    23208273.976
        41.000          37.000
 111311675.65948  86736368.37648  21181900.935    21181900.837    21181906.232
        48.000          49.000
 107602782.41848  83846327.27646  20476126.926    20476126.669    20476129.804
        48.000          40.000
 117994901.58947  91944083.85046  22453682.239    22453682.059    22453688.943
        42.000          40.000
 106124742.15948  82694608.46147  20194858.779    20194858.968    20194863.162
        50.000          44.000
 124259859.93546  96825870.16545  23645866.445    23645866.613    23645869.704
        41.000          35.000
 119205138.378 7  92715115.532 6  22260717.091    22260717.686    22260720.088
        44.000          39.000
 103389556.350 8  80414116.229 8  19314037.524    19314037.606    19314040.357
        52.000          49.000
 20  5  4  1 17 30.0000000  0  9G27G 3G 9G16G26G 4G 7R 4R 3
 123521718.08446  96250702.07045  23505398.728    23505399.495    23505406.345
        39.000          35.000
 122132780.49146  95168415.18346  23241095.833    23241096.340    23241102.484
        40.000          37.000
 111317743.22048  86741096.34648  21183055.650    21183055.410    21183060.827
        48.000          49.000
 107701009.49048  83922867.85146  20494819.394    20494818.655    20494821.684
        48.000          40.000
 118150692.88446  92065479.64346  22483328.426    22483328.196    22483335.415
        41.000          39.000
 106195708.16048  82749906.62647  20208363.332    20208363.356    20208367.530
        49.000          44.000
 124254236.62246  96821488.36646  23644797.173    23644796.815    23644800.019
        40.000          36.000
 119160324.758 7  92680260.505 6  22252346.928    22252349.079    22252351.301
        44.000          39.000
 103441845.481 8  80454785.536 8  19323805.302    19323805.565    19323808.069
        52.000          49.000
 20  5  4  1 18  0.0000000  0  9G27G 3G 9G16G26G 4G 7R 4R 3
 123502235.51546  96235520.84146  23501691.782    23501692.375    23501699.076
        40.000          36.000
 122305506.51946  95303006.85346  23273964.782    23273965.092    23273971.355
        40.000          37.000
 111324180.07448  86746112.06348  21184280.293    21184280.372    21184285.782
        48.000          50.000
 107799894.66548  83999921.21946  20513636.401    20513635.835    20513639.017
        49.000          40.000
 118306825.09047  92187141.06346  22513039.481    22513039.199    22513046.149
        42.000          39.000
 106267165.09448  82805587.33147  20221961.127    20221961.258    20221965.406
        50.000          44.000
 124248752.80746  96817215.27946  23643753.034    23643753.211    23643756.393
        40.000          36.000
 119115842.466 7  92645663.167 6  22244041.262    22244042.963    22244044.162
        44.000          39.000
 103494934.753 8  80496077.181 8  19333723.195    19333723.161    19333725.878
        52.000          49.000
 20  5  4  1 18 30.0000000  0  9G27G 3G 9G16G26G 4G 7R 4R 3
 123483041.71546  96220564.65646  23498039.208    23498039.538    23498046.377
        39.000          36.000
 122478433.02846  95437754.72946  23306871.160    23306871.735    23306878.201
        39.000          37.000
 111330981.39548  86751411.78248  21185574.623    21185574.672    21185579.948
        48.000          49.000
 107899429.34548  84077480.70846  20532577.218    20532576.587    20532579.843
        48.000          40.000
 118463288.62146  92309060.68046  22542813.468    22542813.183    22542820.371
        41.000          40.000
 106339106.84648  82861645.82547  20235651.315    20235651.236    20235655.385
        50.000          44.000
 124243402.41746  96813046.14046  23642734.312    23642734.778    23642738.538
        40.000          36.000
 119071688.325 7  92611321.075 6  22235795.298    22235796.689    22235798.651
        43.000          39.000
 103548818.994 8  80537987.131 8  19343789.324    19343789.168    19343791.984
        52.000          49.000
 20  5  4  1 19  0.0000000  0  9G27G 3G 9G16G26G 4G 7R 4R 3
 123464137.60346  96205834.19345  23494442.348    23494441.982    23494449.017
        39.000          35.000
 122651554.43746  95572654.48946  23339815.260    23339815.823    23339822.160
        40.000          37.000
 111338146.64048  86756995.08548  21186938.107    21186938.239    21186943.447
        48.000          49.000
 107999609.29748  84155542.99446  20551641.084    20551640.625    20551643.456
        48.000          41.000
 118620078.27247  92431234.39446  22572649.465    22572649.272    22572656.164
        42.000          39.000
 106411531.66548  82918080.73047  20249433.233    20249433.363    20249437.435
        50.000          44.000
 124238182.35846  96808978.56746  23641741.928    23641741.442    23641744.993
        40.000          36.000
 119027863.276 7  92577234.936 6  22227611.563    22227612.338    22227614.801
        43.000          40.000
 103603496.735 8  80580514.247 8  19354003.536    19354003.305    19354006.307
        52.000          49.000
 20  5  4  1 19 30.0000000  0  9G27G 3G 9G16G26G 4G 7R 4R 3
 123445524.09846  96191330.17245  23490899.473    23490899.674    23490906.702
        39.000          35.000
 122824865.42846  95707701.97346  23372795.574    23372796.037    23372801.963
        41.000          36.000
 111345675.47148  86762861.69848  21188370.863    21188370.927    21188376.062
        48.000          49.000
 108100430.53248  84234104.99346  20570826.568    20570826.093    20570829.185
        49.000          40.000
 118777189.08347  92553658.38246  22602546.502    22602546.741    22602553.321
        42.000          39.000
 106484437.94548  82974890.79847  20263306.759    20263306.863    20263310.965
        50.000          44.000
 124233090.75546  96805011.08146  23640772.494    23640772.255    23640776.287
        41.000          36.000
 118984369.018 7  92543406.080 6  22219489.326    22219490.460    22219492.410
        43.000          40.000
 103658967.609 8  80623658.244 8  19364365.758    19364365.817    19364368.719
        52.000          49.000
 20  5  4  1 20  0.0000000  0  9G27G 3G 9G16G26G 4G 7R 4R 3
 123427207.59046  96177057.59145  23487414.106    23487413.915    23487420.537
        39.000          34.000
 122998365.96846  95842897.15546  23405811.409    23405812.250    23405818.155
        41.000          36.000
 111353572.91748  86769015.54948  21189873.840    21189873.896    21189878.853
        48.000          49.000
 108201894.35548  84313167.70946  20590134.258    20590134.002    20590137.010
        49.000          40.000
 118934621.45047  92676332.92146  22632504.834    22632504.972    22632512.232
        42.000          39.000
 106557829.43748  83032078.95947  20277272.580    20277272.759    20277276.953
        50.000          44.000
 124228130.59446  96801146.01946  23639828.791    23639828.291    23639832.568
        41.000          36.000
 118941212.594 7  92509839.972 6  22211429.809    22211431.534    22211433.326
        44.000          40.000
 103715235.873 8  80667422.432 8  19374877.319    19374877.212    19374879.887
        52.000          49.000
 20  5  4  1 20 30.0000000  0  9G27G 3G 9G16G26G 4G 7R 4R 3
 123409178.96646  96163009.34445  23483983.618    23483984.101    23483990.095
        40.000          35.000
 123172040.54846  95978227.95846  23438861.068    23438861.334    23438867.121
        40.000          36.000
 111361828.43748  86775448.41148  21191444.900    21191444.822    21191449.897
        48.000          50.000
 108303986.40748  84392719.94446  20609561.750    20609561.306    20609564.538
        48.000          40.000
 119092360.19047  92799246.20246  22662521.763    22662521.770    22662528.676
        42.000          39.000
 106631694.20148  83089635.89847  20291328.747    20291328.793    20291333.021
        49.000          44.000
 124223289.00146  96797373.34346  23638907.092    23638906.959    23638911.155
        40.000          36.000
 118898384.978 7  92476529.600 6  22203432.784    22203433.241    22203436.382
        44.000          40.000
 103772290.157 8  80711797.971 8  19385535.339    19385535.376    19385538.209
        52.000          49.000
 20  5  4  1 21  0.0000000  0  9G27G 3G 9G16G26G 4G 7R 4R 3
 123391443.22746  96149189.28345  23480609.186    23480608.758    23480615.710
        39.000          35.000
 123345887.88046  96113693.36346  23471943.009    23471943.732    23471949.197
        40.000          36.000
 111370445.75148  86782163.19648  21193084.682    21193084.596    21193089.741
        49.000          50.000
 108406706.39048  84472761.48546  20629108.779    20629108.367    20629111.406
        48.000          39.000
 119250404.36647  92922397.47546  22692596.821    22692596.495    22692603.495
        42.000          39.000
 106706034.88348  83147563.68747  20305475.332    20305475.314    20305479.562
        51.000          44.000
 124218568.77446  96793695.26246  23638008.270    23638009.026    23638012.853
        41.000          36.000
 118855891.796 7  92443479.371 6  22195497.582    22195498.250    22195500.966
        44.000          40.000
 103830133.870 8  80756787.510 8  19396341.304    19396341.015    19396343.868
        52.000          49.000
 20  5  4  1 21 30.0000000  0  9G27G 3G 9G16G26G 4G 7R 4R 3
 123374002.47746  96135599.10345  23477290.264    23477289.920    23477297.069
        38.000          35.000
 123519903.66646  96249290.03146  23505057.004    23505057.878    23505063.385
        40.000          36.000
 111379425.66248  86789160.52148  21194793.311    21194793.382    21194798.633
        49.000          50.000
 108510051.43348  84553290.08646  20648774.681    20648774.189    20648777.201
        48.000          40.000
 119408750.14346  93045783.75046  22722728.467    22722728.587    22722735.704
        40.000          39.000
 106780850.88848  83205861.84747  20319712.182    20319712.353    20319716.607
        50.000          44.000
 124213968.40046  96790110.55846  23637134.031    23637133.558    23637137.454
        41.000          36.000
 118813735.722 7  92410691.295 6  22187625.739    22187626.048    22187628.251
        44.000          40.000
 103888766.732 8  80802390.833 8  19407294.310    19407294.117    19407297.007
        52.000          49.000
 20  5  4  1 22  0.0000000  0  9G27G 3G 9G16G26G 4G 7R 4R 3
 123356869.82246  96122248.97645  23474029.002    23474029.765    23474037.081
        38.000          35.000
 123694094.67946  96385023.24446  23538204.250    23538205.363    23538211.171
        40.000          36.000
 111388779.84448  86796449.48848  21196573.548    21196573.364    21196578.713
        48.000          50.000
 108614029.23348  84634311.74346  20668560.941    20668560.592    20668563.421
        49.000          40.000
 119567404.57946  93169410.56246  22752920.046    22752919.543    22752926.549
        41.000          38.000
 106856152.56948  83264538.46447  20334041.901    20334041.939    20334046.152
        50.000          44.000
 124209497.37946  96786626.65146  23636283.088    23636282.811    23636286.771
        40.000          36.000
 118771930.411 7  92378176.055 6  22179818.506    22179819.934    22179821.766
        44.000          40.000
 103948200.389 8  80848616.992 8  19418397.002    19418396.781    19418399.712
        52.000          49.000
 20  5  4  1 22 30.0000000  0  9G27G 3G 9G16G26G 4G 7R 4R 3
 123340051.31046  96109143.65645  23470829.190    23470828.748    23470836.560
        39.000          35.000
 123868460.56746  96520892.73046  23571385.580    23571386.243    23571391.910
        40.000          36.000
 111398513.04648  86804033.79248  21198425.742    21198425.444    21198430.843
        48.000          50.000
 108718640.94648  84715827.35546  20688468.013    20688467.365    20688470.549
        48.000          39.000
 119726367.70946  93293277.92046  22783169.457    22783169.381    22783175.817
        41.000          38.000
 106931943.35148  83323596.19147  20348464.531    20348464.541    20348468.593
        50.000          44.000
 124205158.60746  96783245.79546  23635457.132    23635457.320    23635461.154
        41.000          36.000
 118730482.653 7  92345938.920 6  22172077.814    22172079.559    22172081.559
        45.000          40.000
 104008438.551 8  80895468.881 8  19429650.117    19429650.000    19429652.640
        52.000          49.000
 20  5  4  1 23  0.0000000  0  9G27G 3G 9G16G26G 4G 7R 4R 3
 123323551.85046  96096286.94446  23467690.086    23467688.946    23467696.743
        39.000          36.000
 124043000.01946  96656897.45546  23604598.978    23604599.858    23604605.648
        40.000          36.000
 111408628.89348  86811916.26948  21200350.735    21200350.459    21200355.746
        49.000          50.000
 108823885.94448  84797836.43646  20708495.610    20708494.939    20708498.125
        48.000          39.000
 119885638.65746  93417385.11546  22813478.052    22813477.558    22813484.469
        41.000          38.000
 107008225.46948  83383036.78447  20362980.519    20362980.554    20362984.598
        50.000          44.000
 124200953.94146  96779969.43846  23634657.008    23634657.172    23634661.091
        41.000          37.000
 118689397.934 7  92313984.135 6  22164406.022    22164406.603    22164408.648
        44.000          41.000
 104069484.365 8  80942948.946 8  19441053.751    19441053.782    19441056.613
        52.000          49.000
 20  5  4  1 23 30.0000000  0  9G27G 3G 9G16G26G 4G 7R 4R 3
 123307371.65846  96083679.00746  23464609.994    23464610.674    23464617.742
        40.000          37.000
 124217706.81846  96793032.56846  23637844.924    23637845.586    23637851.352
        41.000          36.000
 111419126.16848  86820095.95648  21202348.142    21202347.972    21202353.298
        48.000          50.000
 108929759.27148  84880335.11946  20728642.257    20728641.879    20728645.299
        48.000          40.000
 120045211.48146  93541727.53646  22843843.212    22843843.467    22843850.369
        40.000          38.000
 107084996.43648  83442858.29447  20377589.310    20377589.544    20377593.774
        50.000          45.000
 124196880.87946  96776795.62346  23633882.711    23633882.004    23633886.122
        41.000          36.000
 118648676.885 7  92282312.212 6  22156801.029    22156801.598    22156804.489
        45.000          40.000
 104131335.701 8  80991055.520 8  19452608.238    19452608.096    19452611.038
        52.000          49.000
 20  5  4  1 24  0.0000000  0  9G27G 3G 9G16G26G 4G 7R 4R 3
 121716092.88146  94843721.52246  23161800.517    23161800.815    23161807.171
        39.000          37.000
 122817163.10846  95701699.76246  23371330.221    23371330.594    23371337.164
        39.000          36.000
 109854586.59848  85600974.20448  20904626.060    20904625.938    20904631.338
        49.000          50.000
 107460841.95048  83735724.21246  20449117.043    20449116.461    20449119.617
        48.000          39.000
 118629668.27446  92438706.83446  22574474.220    22574474.560    22574481.066
        41.000          38.000
 105586838.76548  82275462.68547  20092499.561    20092499.464    20092503.818
        49.000          44.000
 122617518.31347  95546123.50746  23333339.842    23333339.481    23333343.174
        42.000          37.000
 117002946.432 7  91002299.646 6  21849472.188    21849473.135    21849475.741
        44.000          40.000
 102589182.656 8  79791603.139 8  19164521.252    19164521.092    19164523.880
        53.000          49.000
 20  5  4  1 24 30.0000000  0  9G27G 3G 9G16G26G 4G 7R 4R 3
 121700556.76246  94831615.47546  23158843.867    23158843.945    23158850.470
        39.000          36.000
 122992191.18946  95838085.24145  23404636.968    23404637.313    23404643.873
        40.000          35.000
 109865848.41148  85609749.63548  20906768.876    20906769.093    20906774.430
        49.000          50.000
 107567961.77047  83819194.18946  20469500.743    20469500.327    20469503.806
        47.000          39.000
 118789832.71746  92563510.27645  22604953.209    22604952.753    22604960.040
        41.000          32.000
 105664584.92448  82336044.07947  20107293.971    20107294.040    20107298.466
        50.000          44.000
 122613703.15446  95543150.65046  23332613.176    23332613.564    23332617.177
        41.000          36.000
 116962960.153 7  90971199.213 6  21842005.040    21842005.366    21842008.900
        44.000          40.000
 102652644.222 8  79840962.123 8  19176376.488    19176376.282    19176379.010
        53.000          49.000
 20  5  4  1 25  0.0000000  0  9G27G 3G 9G16G26G 4G 7R 4R 3
 121685343.69846  94819761.14645  23155948.302    23155947.828    23155955.746
        39.000          35.000
 123167371.44146  95974589.26945  23437972.776    23437972.899    23437979.649
        39.000          35.000
 109877491.45247  85618822.13248  20908984.798    20908984.730    20908990.066
        47.000          50.000
 107675697.95248  83903144.44746  20490002.670    20490002.253    20490005.245
        48.000          40.000
 118950285.03947  92688538.01445  22635486.509    22635486.123    22635492.998
        42.000          33.000
 105742815.59948  82397003.03147  20122180.887    20122180.951    20122185.349
        50.000          44.000
 122610013.37146  95540275.50446  23331911.324    23331911.507    23331915.227
        41.000          38.000
 116923342.859 7  90940385.758 6  21834606.780    21834606.609    21834610.392
        43.000          40.000
 102716908.342 8  79890945.313 8  19188381.417    19188381.431    19188384.169
        52.000          49.000
 20  5  4  1 25 30.0000000  0  9G27G 3G 9G16G26G 4G 7R 4R 3
 121670450.39946  94808155.99245  23153113.968    23153113.930    23153121.247
        38.000          35.000
 123342694.21446  96111204.37045  23471334.764    23471335.731    23471342.311
        39.000          35.000
 109889511.14948  85628188.12448  20911272.091    20911272.054    20911277.418
        48.000          50.000
 107784041.62948  83987568.08446  20510619.434    20510619.194    20510622.205
        48.000          39.000
 119111015.99446  92813782.87844  22666072.223    22666072.503    22666079.218
        41.000          29.000
 105821524.78148  82458334.84547  20137158.658    20137158.839    20137163.145
        51.000          44.000
 122606442.74646  95537493.20146  23331232.386    23331231.990    23331235.802
        41.000          37.000
 116884091.892 7  90909857.239 6  21827276.612    21827277.407    21827280.896
        43.000          40.000
 102781969.546 8  79941548.452 8  19200535.063    19200535.311    19200538.154
        52.000          49.000
 20  5  4  1 26  0.0000000  0  9G27G 3G 9G16G26G 4G 7R 4R 3
 121655901.51846  94796819.20646  23150346.220    23150346.223    23150352.658
        39.000          36.000
 123518177.88646  96247944.85245  23504729.167    23504729.073    23504736.120
        39.000          35.000
 109901930.76248  85637865.74048  20913635.664    20913635.554    20913640.861
        49.000          51.000
 107893012.51048  84072480.44346  20531356.267    20531355.680    20531358.772
        48.000          39.000
 119272044.35846  92939259.50144  22696714.643    22696715.046    22696721.814
        41.000          27.000
 105900734.38148  82520056.59347  20152231.772    20152231.834    20152236.221
        50.000          44.000
 122603012.22646  95534820.07646  23330578.366    23330578.782    23330582.816
        41.000          37.000
 116845232.747 7  90879633.463 6  21820020.900    21820021.094    21820024.248
        44.000          41.000
 102847850.473 8  79992789.160 8  19212842.088    19212842.459    19212845.228
        52.000          49.000
 20  5  4  1 26 30.0000000  0  9G27G 3G 9G16G26G 4G 7R 4R 3
 121641706.02846  94785757.79846  23147644.708    23147645.334    23147651.866
        39.000          36.000
 123693825.16746  96384812.80745  23538153.251    23538153.598    23538160.895
        39.000          34.000
 109914758.04448  85647861.02348  20916076.801    20916076.587    20916081.815
        50.000          50.000
 108002613.64148  84157883.91746  20552212.810    20552211.967    20552215.198
        48.000          39.000
 119433373.15546  93064970.21244  22727414.647    22727414.673    22727421.267
        41.000          28.000
 105980450.70748  82582173.19047  20167401.428    20167401.432    20167405.744
        50.000          44.000
 122599727.79146  95532260.78846  23329953.915    23329953.616    23329957.764
        41.000          37.000
 116806775.421 7  90849722.217 6  21812838.688    21812839.668    21812842.803
        45.000          41.000
 102914558.001 8  80044672.782 8  19225303.923    19225303.926    19225306.874
        52.000          49.000
 20  5  4  1 27  0.0000000  0  9G27G 3G 9G16G26G 4G 7R 4R 3
 121627859.35046  94774968.20146  23145009.636    23145009.560    23145016.704
        39.000          36.000
 123869625.18946  96521799.78545  23571607.302    23571607.094    23571614.145
        39.000          34.000
 109927987.05848  85658169.33748  20918594.048    20918594.033    20918599.218
        48.000          51.000
 108112835.63248  84243771.16846  20573187.154    20573186.443    20573189.779
        48.000          39.000
 119594991.93846  93190906.89344  22758169.629    22758170.282    22758177.153
        41.000          28.000
 106060666.38248  82644678.89747  20182666.014    20182666.111    20182670.362
        50.000          44.000
 122596581.88046  95529809.42646  23329354.667    23329355.153    23329358.910
        41.000          37.000
 116768715.762 7  90820120.276 6  21805731.118    21805732.159    21805735.251
        45.000          41.000
 102982085.039 8  80097193.797 8  19237918.570    19237918.579    19237921.458
        53.000          49.000
 20  5  4  1 27 30.0000000  0  9G27G 3G 9G16G26G 4G 7R 4R 3
 121614357.15146  94764447.00946  23142440.221    23142440.419    23142447.357
        39.000          36.000
 124045567.26246  96658897.45145  23605086.774    23605087.968    23605095.057
        39.000          34.000
 109941612.10648  85668786.24748  20921186.704    20921186.727    20921191.999
        49.000          51.000
 108223668.71448  84330134.59746  20594277.869    20594277.333    20594280.767
        48.000          38.000
 119756890.33046  93317061.45344  22788977.803    22788977.855    22788985.405
        40.000          28.000
 106141374.28548  82707568.15747  20198024.412    20198024.482    20198028.601
        50.000          44.000
 122593566.58147  95527459.84246  23328781.281    23328781.610    23328784.927
        42.000          37.000
 116731049.743 7  90790824.475 6  21798698.399    21798698.293    21798701.459
        45.000          41.000
 103050424.682 8  80150346.835 8  19250685.152    19250685.231    19250687.895
        52.000          49.000
 20  5  4  1 28  0.0000000  0  9G27G 3G 9G16G26G 4G 7R 4R 3
 121601195.36846  94754191.09546  23139936.128    23139936.384    23139942.477
        40.000          37.000
 124221641.05246  96796097.76845  23638592.702    23638593.446    23638600.741
        38.000          34.000
 109955627.83348  85679707.58548  20923853.694    20923853.725    20923859.061
        48.000          51.000
 108335102.79348  84416966.33046  20615482.957    20615482.765    20615485.877
        48.000          39.000
 119919058.51646  93443426.23244  22819838.310    22819837.762    22819844.411
        41.000          26.000
 106222567.61548  82770835.66447  20213474.881    20213475.111    20213479.176
        51.000          44.000
 122590674.72746  95525206.46846  23328230.903    23328231.522    23328234.544
        41.000          37.000
 116693773.819 7  90761832.100 6  21791736.075    21791737.898    21791739.912
        45.000          41.000
 103119570.150 8  80204126.625 8  19263602.164    19263601.923    19263604.823
        53.000          49.000
 20  5  4  1 28 30.0000000  0  9G27G 3G 9G16G26G 4G 7R 4R 3
 121588376.83046  94744202.63546  23137496.459    23137496.504    23137503.165
        39.000          37.000
 124397843.14946  96933398.05545  23672123.651    23672123.820    23672130.853
        39.000          34.000
 109970035.81848  85690934.58048  20926595.590    20926595.565    20926600.683
        48.000          51.000
 108447135.85748  84504264.81346  20636802.332    20636801.893    20636805.115
        48.000          39.000
 120081493.40846  93569998.84344  22850748.117    22850748.032    22850754.841
        41.000          26.000
 106304246.46048  82834481.49647  20229017.884    20229017.878    20229022.082
        50.000          44.000
 122587906.47947  95523049.39346  23327704.423    23327704.670    23327707.597
        42.000          37.000
 116656891.695 7  90733146.006 6  21784849.437    21784850.188    21784852.809
        45.000          41.000
 103189522.074 8  80258533.665 8  19276669.914    19276669.680    19276672.507
        52.000          49.000
 20  5  4  1 29  0.0000000  0  9G27G 3G 9G16G26G 4G 7R 4R 3
 121575901.77546  94734481.82746  23135122.250    23135122.198    23135129.819
        40.000          38.000
 124574167.58446  97070793.67045  23705676.656    23705677.099    23705684.519
        38.000          34.000
 109984834.93248  85702466.35748  20929411.766    20929411.861    20929416.818
        49.000          51.000
 108559762.90948  84592026.14246  20658234.614    20658234.000    20658237.238
        48.000          39.000
 120244189.36446  93696774.89044  22881707.877    22881708.191    22881715.390
        41.000          27.000
 106386408.31248  82898503.69747  20244652.657    20244652.843    20244657.053
        49.000          44.000
 122585258.66147  95520986.16146  23327201.062    23327200.851    23327203.655
        42.000          38.000
 116620404.028 7  90704766.718 6  21778036.039    21778036.319    21778038.824
        45.000          41.000
 103260278.065 8  80313566.088 8  19289887.300    19289887.325    19289890.432
        52.000          49.000
 20  5  4  1 29 30.0000000  0 10G27G 3G 9G 8G16G26G 4G 7R 4R 3
 121563792.69746  94725046.18646  23132818.304    23132818.884    23132825.204
        40.000          38.000
 124750630.43746  97208297.14845  23739256.393    23739256.912    23739264.040
        38.000          34.000
 110000046.36948  85714319.41848  20932306.468    20932306.400    20932311.475
        48.000          51.000
 127480102.26645  99335146.12944  24258652.984    24258652.161    24258659.937
        35.000          29.000
 108673000.98748  84680263.59246  20679783.022    20679782.607    20679785.863
        48.000          39.000
 120407162.96646  93823767.26944  22912720.723    22912720.680    22912727.419
        40.000          26.000
 106469072.75948  82962917.52947  20260383.347    20260383.349    20260387.568
        50.000          44.000
 122582750.21947  95519031.54546  23326723.845    23326723.421    23326726.267
        42.000          38.000
 116584334.333 7  90676712.521 6  21771299.800    21771301.074    21771303.180
        45.000          41.000
 103331858.470 8  80369239.717 8  19303259.325    19303259.164    19303262.128
        52.000          49.000
 20  5  4  1 30  0.0000000  0 10G27G 3G 9G 8G16G26G 4G 7R 4R 3
 121552049.49546  94715895.64446  23130583.362    23130583.348    23130590.618
        39.000          37.000
 124927225.53046  97345903.66045  23772861.370    23772861.716    23772869.288
        37.000          33.000
 110015668.72848  85726492.69248  20935279.276    20935279.159    20935284.327
        49.000          51.000
 127446700.54045  99309118.82444  24252296.440    24252295.783    24252303.846
        34.000          26.000
 108786844.06248  84768972.47446  20701446.715    20701446.341    20701449.245
        48.000          39.000
 120570408.33046  93950971.39144  22943785.717    22943784.937    22943792.737
        40.000          26.000
 106552237.01848  83027720.82247  20276208.640    20276208.859    20276213.272
        50.000          44.000
 122580378.27547  95517183.27746  23326271.619    23326271.769    23326274.938
        42.000          38.000
 116548683.210 7  90648983.874 6  21764642.832    21764642.823    21764646.185
        45.000          41.000
 103404260.497 8  80425552.389 8  19316784.351    19316784.614    19316787.398
        52.000          49.000
 20  5  4  1 30 30.0000000  0 10G27G 3G 9G 8G16G26G 4G 7R 4R 3
 121540668.48346  94707027.33546  23128417.702    23128417.878    23128424.854
        41.000          38.000
 125103942.78046  97483605.35745  23806489.618    23806490.124    23806497.843
        38.000          33.000
 110031696.98248  85738982.23448  20938329.193    20938329.152    20938334.423
        49.000          51.000
 127413360.79245  99283139.75444  24245951.432    24245950.772    24245958.946
        34.000          25.000
 108901283.18948  84858145.81246  20723223.793    20723223.226    20723226.619
        48.000          39.000
 120733915.79346  94078379.77644  22974900.129    22974899.511    22974907.216
        40.000          26.000
 106635894.52248  83092908.46847  20292128.364    20292128.485    20292132.794
        49.000          44.000
 122578135.88447  95515435.96146  23325844.995    23325845.001    23325848.502
        42.000          38.000
 116513447.444 7  90621578.281 7  21758061.048    21758062.849    21758065.905
        46.000          42.000
 103477477.795 8  80482499.159 8  19330462.003    19330462.261    19330464.912
        52.000          49.000
 20  5  4  1 31  0.0000000  0 10G27G 3G 9G 8G16G26G 4G 7R 4R 3
 121529649.04946  94698440.77946  23126320.840    23126321.922    23126327.802
        41.000          38.000
 125280775.45746  97621397.01345  23840140.211    23840140.199    23840147.645
        37.000          33.000
 110048129.26248  85751786.60248  20941456.092    20941456.132    20941461.372
        49.000          51.000
 127380081.81545  99257208.15544  24239618.667    24239618.328    24239626.377
        33.000          24.000
 109016312.21148  84947778.80746  20745113.165    20745112.516    20745115.869
        48.000          39.000
 120897679.02746  94205987.45344  23006062.433    23006062.864    23006069.726
        40.000          26.000
 106720041.88948  83158477.81947  20308141.143    20308141.177    20308145.502
        50.000          44.000
 122576019.40146  95513786.75846  23325442.675    23325442.146    23325445.865
        41.000          37.000
 116478626.909 7  90594495.643 7  21751559.241    21751560.137    21751563.283
        46.000          42.000
 103551506.970 8  80540077.393 8  19344291.484    19344291.572    19344294.253
        52.000          49.000
 20  5  4  1 31 30.0000000  0 10G27G 3G 9G 8G16G26G 4G 7R 4R 3
 121518997.08346  94690140.55346  23124293.979    23124294.299    23124300.876
        41.000          39.000
 125457723.20646  97759278.33545  23873811.609    23873812.326    23873819.795
        37.000          33.000
 110064970.10448  85764909.33248  20944660.895    20944660.874    20944666.027
        49.000          51.000
 127346869.69645  99231328.53644  24233298.630    24233298.472    24233305.427
        34.000          24.000
 109131931.81048  85037871.98946  20767115.011    20767114.337    20767117.596
        48.000          39.000
 121061698.00746  94333794.42244  23037274.588    23037275.033    23037282.458
        41.000          26.000
 106804682.18048  83224431.27647  20324247.547    20324247.797    20324252.016
        49.000          44.000
 122574031.87046  95512238.05446  23325064.173    23325063.577    23325067.809
        41.000          38.000
 116444228.519 7  90567741.351 6  21745135.516    21745135.900    21745139.684
        45.000          41.000
 103626351.469 8  80598289.758 8  19358273.358    19358273.195    19358275.896
        52.000          49.000
 20  5  4  1 32  0.0000000  0 10G27G 3G 9G 8G16G26G 4G 7R 4R 3
 121508717.00547  94682130.13646  23122338.047    23122338.140    23122344.703
        42.000          39.000
 125634784.24246  97897247.92845  23907506.485    23907505.985    23907513.419
        37.000          33.000
 110082222.71348  85778352.92348  20947943.641    20947943.830    20947949.068
        49.000          51.000
 127313728.31745  99205504.10444  24226992.467    24226992.159    24226999.156
        33.000          24.000
 109248140.98248  85128424.58346  20789228.459    20789228.131    20789231.361
        49.000          39.000
 121225971.41146  94461799.62044  23068535.446    23068534.534    23068542.268
        40.000          26.000
 106889817.04548  83290770.11147  20340448.128    20340448.450    20340452.595
        50.000          43.000
 122572174.49746  95510790.75346  23324710.611    23324709.918    23324714.281
        40.000          37.000
 116410257.275 7  90541319.263 6  21738792.005    21738792.367    21738795.494
        46.000          41.000
 103702012.869 8  80657137.500 8  19372407.256    19372407.315    19372410.110
        51.000          49.000
 20  5  4  1 32 30.0000000  0 10G27G 3G 9G 8G16G26G 4G 7R 4R 3
 121498814.07046  94674413.58346  23120453.343    23120453.317    23120460.115
        41.000          38.000
 125811957.58046  98035305.02945  23941220.727    23941220.711    23941228.628
        38.000          33.000
 110099891.02448  85792120.43748  20951305.990    20951305.986    20951311.244
        48.000          51.000
 127280663.37545  99179739.22743  24220700.575    24220700.375    24220707.412
        33.000          23.000
 109364939.22648  85219436.18846  20811454.730    20811454.127    20811457.358
        48.000          39.000
 121390498.65746  94590002.61544  23099843.164    23099843.312    23099850.952
        38.000          26.000
 106975448.82548  83357496.15347  20356743.549    20356743.576    20356747.868
        49.000          43.000
 122570449.18046  95509446.34046  23324382.103    23324381.801    23324385.994
        41.000          38.000
 116376719.261 7  90515234.152 7  21732528.424    21732529.485    21732532.808
        45.000          42.000
 103778493.938 8  80716622.762 8  19386695.039    19386694.800    19386697.381
        52.000          49.000
 20  5  4  1 33  0.0000000  0 10G27G 3G 9G 8G16G26G 4G 7R 4R 3
 121489287.48347  94666990.29546  23118640.660    23118640.653    23118647.399
        42.000          38.000
 125989236.23046  98173444.18345  23974955.385    23974956.101    23974963.425
        37.000          33.000
 110117972.94348  85806210.24248  20954747.055    20954746.889    20954752.120
        49.000          51.000
 127247672.76745  99154032.28144  24214422.878    24214422.340    24214429.701
        34.000          25.000
 109482320.26248  85310901.92146  20833791.260    20833791.036    20833794.307
        48.000          39.000
 121555273.16446  94718398.30144  23131199.245    23131199.942    23131206.222
        40.000          26.000
 107061573.95048  83424606.61847  20373132.462    20373132.675    20373136.911
        50.000          44.000
 122568852.30146  95508202.03846  23324078.332    23324078.284    23324081.988
        41.000          37.000
 116343614.250 7  90489485.807 7  21726346.631    21726347.393    21726350.968
        46.000          42.000
 103855790.861 8  80776742.577 8  19401134.417    19401134.300    19401137.204
        52.000          49.000
 20  5  4  1 33 30.0000000  0 10G27G 3G 9G 8G16G26G 4G 7R 4R 3
 121480132.38146  94659856.45846  23116898.741    23116898.801    23116904.760
        41.000          38.000
 126166609.21946  98311656.85645  24008709.231    24008709.325    24008716.413
        37.000          32.000
 110136462.26348  85820617.49448  20958265.546    20958265.322    20958270.506
        50.000          51.000
 127214752.37145  99128380.01144  24208158.786    24208157.625    24208164.713
        34.000          26.000
 109600273.80148  85402813.75646  20856237.192    20856236.668    20856240.151
        48.000          39.000
 121720284.25346  94846978.33144  23162600.216    23162599.842    23162607.256
        40.000          26.000
 107148184.66048  83492095.46447  20389614.178    20389614.256    20389618.518
        50.000          44.000
 122567375.41346  95507051.20646  23323797.681    23323797.220    23323800.940
        41.000          38.000
 116310937.910 7  90464070.885 7  21720244.745    21720246.111    21720248.941
        46.000          42.000
 103933895.926 8  80837490.944 8  19415725.158    19415725.253    19415727.767
        53.000          49.000
 20  5  4  1 34  0.0000000  0 10G27G 3G 9G 8G16G26G 4G 7R 4R 3
 121471354.31646  94653016.41746  23115227.420    23115227.634    23115234.268
        40.000          37.000
 126344075.89746  98449942.54345  24042480.068    24042479.994    24042487.180
        38.000          32.000
 110155363.34248  85835345.60048  20961862.096    20961862.000    20961867.341
        50.000          51.000
 127181907.71945  99102786.79544  24201906.576    24201907.339    24201914.287
        34.000          25.000
 109718799.81348  85495171.67346  20878791.736    20878791.213    20878794.894
        48.000          39.000
 121885531.72546  94975742.54044  23194045.583    23194045.693    23194052.958
        41.000          27.000
 107235283.71048  83559964.83247  20406188.658    20406188.803    20406192.913
        50.000          44.000
 122566021.58347  95505996.28746  23323539.812    23323539.641    23323543.168
        42.000          38.000
 116278696.665 7  90438994.367 7  21714223.913    21714225.207    21714227.898
        46.000          43.000
 104012812.025 8  80898870.122 8  19430467.121    19430467.249    19430469.965
        52.000          49.000
 20  5  4  1 34 30.0000000  0 10G27G 3G 9G 8G16G26G 4G 7R 4R 3
 121462965.49846  94646479.68546  23113631.793    23113631.494    23113638.203
        41.000          37.000
 126521642.21146  98588305.85945  24076269.768    24076269.666    24076276.688
        38.000          32.000
 110174687.07048  85850403.04948  20965539.012    20965539.110    20965544.575
        48.000          51.000
 127149150.15745  99077261.43644  24195674.356    24195673.967    24195681.151
        35.000          26.000
 109837904.93448  85587980.85046  20901456.894    20901456.495    20901459.817
        48.000          39.000
 122051022.02246  95104695.97644  23225537.811    23225537.288    23225544.009
        40.000          26.000
 107322880.41048  83628221.97747  20422857.615    20422857.770    20422862.024
        50.000          44.000
 122564799.55547  95505044.05046  23323306.668    23323307.084    23323310.486
        42.000          38.000
 116246903.758 7  90414266.550 7  21708286.723    21708287.848    21708290.791
        46.000          42.000
 104092548.298 8  80960887.204 8  19445362.508    19445362.671    19445365.453
        52.000          49.000
 20  5  4  1 35  0.0000000  0 10G27G 3G 9G 8G16G26G 4G 7R 4R 3
 121454969.43646  94640248.99746  23112109.163    23112109.721    23112116.511
        41.000          37.000
 126699305.74846  98726744.93245  24110077.544    24110078.114    24110085.019
        37.000          32.000
 110194435.70648  85865791.59748  20969297.438    20969297.274    20969302.651
        49.000          52.000
 127116483.72345  99051807.07244  24189457.752    24189458.396    24189466.205
        35.000          27.000
 109957587.10548  85681239.68146  20924231.701    20924231.344    20924234.533
        48.000          38.000
 122216752.97046  95233836.93444  23257075.067    23257075.363    23257082.696
        41.000          26.000
 107410975.46548  83696867.45547  20439621.522    20439621.634    20439625.978
        49.000          43.000
 122563710.06247  95504195.10546  23323099.604    23323099.847    23323103.449
        43.000          39.000
 116215563.274 7  90389890.622 7  21702433.494    21702434.910    21702437.839
        46.000          42.000
 104173105.643 8  81023542.899 8  19460411.375    19460411.441    19460414.386
        52.000          49.000
 20  5  4  1 35 30.0000000  0 10G27G 3G 9G 8G16G26G 4G 7R 4R 3
 119871957.75446  93406733.41446  22810872.547    22810872.513    22810879.336
        40.000          36.000
 125301657.99446  97637668.71545  23844113.536    23844114.770    23844121.526
        37.000          32.000
 108639200.45848  84653919.96648  20673345.902    20673345.903    20673351.379
        48.000          51.000
 125508498.78445  97798831.80244  23883467.868    23883468.929    23883476.106
        35.000          27.000
 108502436.77448  84547356.29546  20647325.856    20647325.421    20647328.781
        48.000          39.000
 120807316.12646  94135574.41144  22988868.104    22988868.350    22988875.112
        40.000          26.000
 105924160.75648  82538310.51947  20156690.168    20156690.109    20156694.647
        50.000          43.000
 120987341.14747  94275855.69146  23023126.750    23023127.132    23023130.308
        43.000          38.000
 114579312.094 7  89117250.814 7  21396875.815    21396876.254    21396879.425
        46.000          42.000
 102649683.242 8  79838658.786 8  19175823.543    19175823.512    19175826.135
        53.000          49.000
 20  5  4  1 36  0.0000000  0 10G27G 3G 9G 8G16G26G 4G 7R 4R 3
 119864770.00746  93401132.56546  22809504.801    22809504.703    22809511.983
        40.000          37.000
 125479519.98246  97776262.44045  23877960.384    23877960.518    23877967.634
        38.000          32.000
 108659817.77048  84669985.39548  20677269.422    20677269.264    20677274.731
        49.000          52.000
 125476036.56745  97773536.57744  23877291.574    23877290.351    23877298.583
        33.000          26.000
 108623279.50347  84641519.44946  20670321.579    20670321.031    20670324.390
        47.000          38.000
 120973533.77646  94265094.62244  23020497.823    23020498.509    23020505.704
        40.000          26.000
 106013266.52048  82607743.56447  20173646.319    20173646.440    20173650.887
        49.000          43.000
 120986529.94447  94275223.59446  23022972.617    23022972.928    23022976.028
        42.000          39.000
 114548901.941 7  89093598.475 7  21391196.574    21391197.492    21391201.010
        46.000          43.000
 102731896.827 8  79902602.670 8  19191181.558    19191181.574    19191184.396
        52.000          49.000
 20  5  4  1 36 30.0000000  0 10G27G 3G 9G 8G16G26G 4G 7R 4R 3
 119857984.49646  93395845.16446  22808213.183    22808213.457    22808220.353
        39.000          38.000
 125657470.25746  97914924.94645  23911822.935    23911823.657    23911830.804
        38.000          32.000
 108680865.69748  84686386.36948  20681274.488    20681274.656    20681279.913
        48.000          51.000
 125443674.42745  97748319.34644  23871131.750    23871132.658    23871140.406
        34.000          27.000
 108744692.19947  84736126.73946  20693425.548    20693425.024    20693428.339
        47.000          38.000
 121139984.41246  94394796.36144  23052172.449    23052172.688    23052179.342
        39.000          24.000
 106102871.51448  82677565.61647  20190697.687    20190697.771    20190702.119
        49.000          43.000
 120985851.85947  94274695.20846  23022843.915    23022843.532    23022847.047
        42.000          39.000
 114518956.168 7  89070307.319 7  21385604.941    21385605.478    21385608.439
        47.000          43.000
 102814932.068 8  79967185.619 8  19206693.056    19206693.227    19206696.163
        52.000          49.000
 20  5  4  1 37  0.0000000  0 10G27G 3G 9G 8G16G26G 4G 7R 4R 3
 119851610.72846  93390878.59946  22807001.157    22807000.654    22807007.587
        41.000          38.000
 125835512.06646  98053658.78145  23945703.776    23945703.871    23945710.917
        37.000          32.000
 108702352.37148  84703129.23148  20685363.443    20685363.389    20685368.613
        50.000          51.000
 125411421.89145  97723187.50344  23864995.588    23864994.797    23865003.105
        35.000          27.000
 108866678.79948  84831181.22246  20716638.991    20716638.158    20716641.902
        48.000          38.000
 121306671.76446  94524682.56944  23083892.392    23083891.632    23083899.190
        39.000          24.000
 106192982.25548  82747781.75747  20207845.144    20207845.136    20207849.611
        50.000          43.000
 120985312.59847  94274275.03746  23022741.640    23022740.883    23022744.421
        42.000          39.000
 114489485.020 7  89047385.316 7  21380101.242    21380101.432    21380105.073
        46.000          43.000
 102898795.531 8  80032412.741 8  19222359.571    19222359.683    19222362.753
        52.000          49.000
 20  5  4  1 37 30.0000000  0 10G27G 3G 9G 8G16G26G 4G 7R 4R 3
 119845648.71247  93386232.88246  22805866.106    22805866.282    22805872.749
        42.000          38.000
 126013639.42846  98192459.26145  23979600.270    23979600.461    23979607.602
        37.000          32.000
 108724276.58948  84720213.03548  20689535.546    20689535.382    20689540.504
        50.000          52.000
 125379278.84345  97698140.98344  23858877.687    23858877.836    23858887.312
        33.000          27.000
 108989233.53148  84926678.40546  20739960.228    20739959.687    20739963.048
        48.000          38.000
 121473590.14446  94654748.78444  23115656.072    23115656.472    23115663.171
        40.000          24.000
 106283595.88848  82818389.76747  20225088.333    20225088.317    20225092.702
        49.000          43.000
 120984909.76047  94273961.13946  23022664.627    23022664.142    23022667.791
        42.000          38.000
 114460489.372 7  89024833.149 7  21374686.555    21374687.071    21374690.253
        47.000          43.000
 102983484.280 8  80098281.751 8  19238180.280    19238180.190    19238183.190
        53.000          49.000
 20  5  4  1 38  0.0000000  0 10G27G 3G 9G 8G16G26G 4G 7R 4R 3
 119840096.81446  93381906.73746  22804809.621    22804809.805    22804816.223
        41.000          39.000
 126191844.58846  98331320.36445  24013511.733    24013511.975    24013518.843
        37.000          32.000
 108746635.45348  84737635.51548  20693790.165    20693790.100    20693795.192
        50.000          51.000
 125347243.97345  97673178.76344  23852782.715    23852782.441    23852790.263
        35.000          28.000
 109112349.32547  85022612.77646  20763388.228    20763387.801    20763391.070
        47.000          38.000
 121640732.31046  94784989.40244  23147462.016    23147462.244    23147469.371
        39.000          24.000
 106374707.89448  82889386.12347  20242426.335    20242426.516    20242430.867
        49.000          43.000
 120984638.70647  94273749.93346  23022612.374    23022612.766    23022616.302
        42.000          39.000
 114431968.233 7  89002650.039 7  21369361.102    21369361.083    21369364.317
        47.000          42.000
 103068993.181 8  80164788.658 8  19254153.889    19254154.001    19254156.966
        52.000          49.000
 20  5  4  1 38 30.0000000  0 10G27G 3G 9G 8G16G26G 4G 7R 4R 3
 119834968.27446  93377910.48046  22803833.918    22803833.790    22803840.703
        41.000          39.000
 126370134.77446  98470247.74045  24047440.436    24047439.736    24047446.513
        38.000          32.000
 108769440.94948  84755406.02748  20698129.792    20698129.751    20698134.964
        49.000          51.000
 125315330.36146  97648311.01244  23846709.720    23846709.258    23846717.034
        36.000          28.000
 109236033.76248  85118990.25046  20786924.725    20786924.248    20786927.481
        48.000          38.000
 121808105.82546  94915410.27243  23179311.972    23179312.306    23179318.573
        39.000          23.000
 106466328.58048  82960778.85047  20259861.137    20259861.381    20259865.810
        49.000          43.000
 120984509.25247  94273649.07146  23022587.998    23022588.268    23022591.485
        43.000          40.000
 114403935.812 7  88980847.037 7  21364125.924    21364126.475    21364129.225
        47.000          42.000
 103155332.575 8  80231941.503 8  19270282.907    19270283.011    19270286.006
        52.000          49.000
 20  5  4  1 39  0.0000000  0 10G27G 3G 9G 8G16G26G 4G 7R 4R 3
 119830259.49746  93374241.30446  22802937.829    22802937.712    22802944.655
        41.000          39.000
 126548500.26146  98609233.77345  24081381.224    24081381.683    24081388.190
        38.000          32.000
 108792688.18948  84773520.75948  20702553.542    20702553.633    20702558.855
        50.000          52.000
 125283534.19146  97623534.81644  23840658.186    23840658.862    23840666.724
        36.000          29.000
 109360277.97548  85215803.91546  20810567.714    20810567.320    20810570.402
        48.000          38.000
 121975701.42946  95046004.21343  23211203.672    23211205.153    23211211.200
        39.000          23.000
 106558451.39548  83032562.84947  20277391.720    20277391.782    20277396.106
        50.000          43.000
 120984515.18747  94273653.71246  23022589.263    23022589.545    23022592.487
        43.000          39.000
 114376389.146 7  88959421.856 4  21358981.544    21358982.089    21358985.517
        47.000          29.000
 103242495.906 8  80299735.188 8  19286565.795    19286565.745    19286568.581
        52.000          49.000
 20  5  4  1 39 30.0000000  0 10G27G 3G 9G 8G16G26G 4G 7R 4R 3
 119825965.89146  93370895.65346  22802120.136    22802120.430    22802127.637
        40.000          39.000
 126726930.59146  98748270.33245  24115335.307    24115335.931    24115342.660
        37.000          32.000
 108816371.42148  84791975.21748  20707060.480    20707060.524    20707065.709
        50.000          52.000
 125251851.02446  97598846.64245  23834630.113    23834630.025    23834638.037
        37.000          30.000
 109485071.58048  85313045.68146  20834315.029    20834314.733    20834317.916
        49.000          38.000
 122143508.98046  95176763.31343  23243137.185    23243137.317    23243143.952
        39.000          23.000
 106651068.95248  83104732.36447  20295016.274    20295016.340    20295020.684
        49.000          43.000
 120984649.01047  94273758.00946  23022614.390    23022614.998    23022617.844
        44.000          39.000
 114349324.472 7  88938371.556 7  21353927.166    21353928.145    21353931.282
        47.000          43.000
 103330474.950 8  80368163.315 8  19303001.640    19303001.192    19303003.941
        53.000          49.000
 20  5  4  1 40  0.0000000  0 10G27G 3G 9G 8G16G26G 4G 7R 4R 3
 119822098.20246  93367881.89046  22801384.412    22801384.478    22801391.318
        40.000          38.000
 126905430.33646  98887360.99245  24149302.894    24149303.490    24149309.870
        37.000          32.000
 108840500.08148  84810776.76548  20711652.359    20711652.193    20711657.322
        50.000          52.000
 125220291.24846  97574254.61445  23828624.312    23828623.542    23828631.967
        37.000          30.000
 109610419.68148  85410719.51746  20858168.389    20858167.783    20858171.122
        48.000          38.000
 122311533.57446  95307691.52843  23275111.337    23275111.369    23275117.918
        38.000          22.000
 106744189.00548  83177293.42347  20312736.438    20312736.365    20312740.771
        48.000          42.000
 120984918.58647  94273968.07846  23022665.861    23022666.302    23022669.029
        43.000          40.000
 114322753.458 7  88917705.208 7  21348965.223    21348966.258    21348969.319
        47.000          42.000
 103419277.613 8  80437232.039 8  19319590.265    19319590.282    19319593.135
        52.000          49.000
 20  5  4  1 40 30.0000000  0 10G27G 3G 9G 8G16G26G 4G 7R 4R 3
 119818664.22346  93365206.07446  22800731.628    22800731.276    22800737.788
        41.000          38.000
 127084001.31846  99026507.16745  24183284.494    24183284.422    24183291.141
        37.000          31.000
 108865080.73748  84829930.51448  20716329.744    20716329.650    20716334.875
        50.000          52.000
 125188863.07346  97549765.14545  23822643.586    23822643.476    23822650.813
        38.000          30.000
 109736324.42347  85508827.09546  20882127.131    20882126.742    20882129.781
        47.000          38.000
 122479777.45246  95438790.59343  23307126.489    23307127.076    23307134.406
        38.000          22.000
 106837816.41748  83250249.83247  20330553.022    20330553.027    20330557.581
        49.000          43.000
 120985328.62947  94274287.59946  23022744.011    23022744.091    23022747.153
        43.000          39.000
 114296684.809 7  88897429.587 7  21344097.536    21344097.861    21344100.776
        47.000          42.000
 103508908.308 8  80506944.790 8  19336333.648    19336333.903    19336336.991
        52.000          49.000
 20  5  4  1 41  0.0000000  0 10G27G 3G 9G 8G16G26G 4G 7R 4R 3
 119815669.48546  93362872.53046  22800161.534    22800161.127    22800168.287
        41.000          38.000
 127262643.12246  99165708.51345  24217278.829    24217279.224    24217285.342
        38.000          31.000
 108890117.66048  84849439.79248  20721094.068    20721094.008    20721099.223
        50.000          52.000
 125157572.16346  97525382.63345  23816689.086    23816688.714    23816696.409
        38.000          31.000
 109862785.87148  85607368.46946  20906191.587    20906191.137    20906194.666
        48.000          38.000
 122648240.50746  95570060.45543  23339184.486    23339184.415    23339191.834
        39.000          22.000
 106931953.79448  83323603.61347  20348466.815    20348466.851    20348471.354
        49.000          43.000
 120985881.61347  94274718.51746  23022849.546    23022849.215    23022852.634
        43.000          40.000
 114271124.856 7  88877549.641 7  21339323.349    21339324.954    21339327.289
        47.000          43.000
 103599369.402 8  80577303.401 8  19353233.112    19353232.949    19353235.837
        52.000          49.000
 20  5  4  1 41 30.0000000  0 10G27G 3G 9G 8G16G26G 4G 7R 4R 3
 119813115.05146  93360882.07346  22799675.170    22799675.472    22799682.419
        41.000          39.000
 127441350.76546  99304961.16545  24251286.063    24251286.113    24251292.031
        38.000          31.000
 108915610.70548  84869304.49948  20725945.324    20725945.195    20725950.322
        50.000          52.000
 125126419.67246  97501107.97645  23810760.362    23810760.403    23810767.927
        38.000          31.000
 109989799.39348  85706340.03246  20930361.498    20930361.088    20930364.404
        48.000          38.000
 122816918.29046  95701497.66343  23371282.811    23371282.237    23371290.020
        38.000          22.000
 107026599.24348  83397353.29547  20366477.549    20366477.546    20366481.780
        49.000          43.000
 120986575.72047  94275259.39346  23022980.827    23022980.980    23022984.891
        43.000          40.000
 114246075.559 7  88858066.854 7  21334645.892    21334646.673    21334649.465
        47.000          43.000
 103690658.764 8  80648306.223 8  19370286.633    19370286.752    19370289.447
        53.000          49.000
 20  5  4  1 42  0.0000000  0 10G27G 3G 9G 8G16G26G 4G 7R 4R 3
 119811002.46746  93359235.92146  22799273.006    22799273.219    22799280.117
        41.000          39.000
 127620119.93346  99444261.74845  24285304.252    24285304.594    24285310.758
        37.000          31.000
 108941560.17048  84889524.85248  20730883.097    20730883.247    20730888.352
        50.000          53.000
 125095406.88646  97476942.18645  23804859.688    23804859.871    23804866.822
        39.000          31.000
 110117361.14647  85805738.78846  20954636.020    20954635.453    20954638.712
        47.000          38.000
 122985806.82646  95833099.08443  23403420.610    23403420.583    23403427.718
        38.000          21.000
 107121751.40348  83471497.82047  20384584.076    20384584.324    20384588.702
        49.000          43.000
 120987409.71747  94275909.24546  23023139.688    23023139.568    23023143.746
        43.000          40.000
 114221539.294 7  88838983.108 5  21330064.190    21330065.420    21330067.582
        47.000          35.000
 103782774.505 8  80719951.791 8  19387494.977    19387494.615    19387497.460
        52.000          49.000
 20  5  4  1 42 30.0000000  0 10G27G 3G 9G 8G16G26G 4G 7R 4R 3
 119809345.89047  93357945.09346  22798958.018    22798958.189    22798964.691
        42.000          39.000
 127798958.71546  99583616.59045  24319336.102    24319336.533    24319342.737
        37.000          31.000
 108967979.00648  84910110.94848  20735910.388    20735910.401    20735915.673
        50.000          52.000
 125064548.14746  97452896.41345  23798986.565    23798986.579    23798995.202
        37.000          32.000
 110245479.30947  85905571.10646  20979016.102    20979015.448    20979018.922
        46.000          38.000
 123154914.73246  95964871.42743  23435600.986    23435601.983    23435608.720
        38.000          22.000
 107217421.48448  83546045.92447  20402789.843    20402789.851    20402794.063
        49.000          43.000
 120988394.54647  94276676.65846  23023326.722    23023326.829    23023331.233
        42.000          40.000
 114197531.194 7  88820310.141 7  21325580.975    21325582.012    21325584.340
        47.000          43.000
 103875727.554 8  80792248.588 8  19404859.168    19404859.146    19404861.924
        52.000          49.000
 20  5  4  1 43  0.0000000  0 10G27G 3G 9G 8G16G26G 4G 7R 4R 3
 119808139.47446  93357005.04846  22798728.831    22798728.469    22798735.049
        41.000          39.000
 127977855.43746  99723016.55645  24353379.421    24353379.505    24353385.686
        37.000          30.000
 108994860.13448  84931057.27348  20741025.809    20741025.710    20741031.038
        50.000          52.000
 125033838.10646  97428966.49945  23793143.254    23793142.966    23793151.511
        38.000          32.000
 110374142.63748  86005828.22646  21003499.589    21003499.135    21003503.058
        48.000          38.000
 123324230.62946  96096805.84743  23467821.281    23467821.074    23467828.734
        38.000          22.000
 107313600.67448  83620990.73047  20421091.947    20421091.988    20421096.462
        49.000          42.000
 120989521.87547  94277555.11046  23023541.167    23023541.155    23023545.622
        43.000          40.000
 114174046.209 7  88802044.045 7  21321195.058    21321196.131    21321198.761
        47.000          43.000
 103969508.493 8  80865189.302 8  19422378.029    19422377.999    19422380.805
        52.000          49.000
 20  5  4  1 43 30.0000000  0 10G27G 3G 9G 8G16G26G 4G 7R 4R 3
 119807389.32346  93356420.53646  22798585.615    22798585.343    22798592.627
        41.000          39.000
 128156810.26946  99862461.82745  24387432.954    24387433.217    24387439.888
        37.000          30.000
 109022208.42748  84952367.61948  20746230.033    20746230.046    20746235.326
        50.000          52.000
 125003282.47346  97405156.90345  23787328.203    23787328.199    23787336.522
        37.000          31.000
 110503351.48248  86106510.43546  21028087.341    21028086.987    21028090.338
        48.000          38.000
 123493755.17546  96228902.84343  23500080.889    23500079.948    23500087.860
        38.000          22.000
 107410292.16448  83696334.72447  20439491.772    20439491.868    20439496.239
        48.000          42.000
 120990794.84647  94278547.03446  23023783.552    23023783.557    23023787.818
        42.000          39.000
 114151091.408 7  88784190.320 7  21316908.616    21316909.616    21316912.461
        47.000          43.000
 104064120.050 8  80938776.052 8  19440052.344    19440052.187    19440055.330
        52.000          49.000
 20  5  4  1 44  0.0000000  0 10G27G 3G 9G 8G16G26G 4G 7R 4R 3
 119807091.83046  93356188.73446  22798529.093    22798529.014    22798535.518
        41.000          38.000
 128335813.71746 100001944.97945  24421496.230    24421496.845    24421502.962
        37.000          30.000
 109050019.09848  84974038.26348  20751522.429    20751522.342    20751527.548
        50.000          53.000
 124972877.98346  97381465.09545  23781542.564    23781542.828    23781549.749
        37.000          32.000
 110633096.80347  86207610.66946  21052777.034    21052776.735    21052780.167
        47.000          38.000
 123663479.29546  96361155.36543  23532377.350    23532378.539    23532385.773
        38.000          23.000
 107507489.33848  83772072.76647  20457987.815    20457987.855    20457992.245
        49.000          42.000
 120992207.12747  94279647.53546  23024052.344    23024052.374    23024056.189
        43.000          40.000
 114128664.023 8  88766746.800 7  21312720.058    21312721.613    21312724.183
        48.000          43.000
 104159554.998 8  81013003.215 8  19457880.180    19457880.262    19457883.447
        52.000          49.000
 20  5  4  1 44 30.0000000  0 10G27G 3G 9G 8G16G26G 4G 7R 4R 3
 119807239.28546  93356303.65046  22798557.240    22798557.256    22798563.521
        41.000          39.000
 128514852.16746 100141455.38945  24455565.813    24455566.961    24455572.948
        37.000          30.000
 109078283.21148  84996062.24148  20756900.813    20756900.877    20756906.035
        50.000          52.000
 124942617.20346  97357885.25545  23775784.509    23775784.525    23775791.797
        37.000          32.000
 110763365.32848  86309118.58846  21077566.400    21077565.876    21077569.317
        48.000          38.000
 123833389.81446  96493553.11543  23564711.140    23564710.921    23564718.111
        39.000          23.000
 107605181.56148  83848196.55447  20476577.847    20476578.055    20476582.492
        49.000          42.000
 120993748.13347  94280848.32446  23024345.904    23024345.897    23024349.498
        43.000          40.000
 114106756.679 8  88749707.750 7  21308630.040    21308630.689    21308633.092
        48.000          43.000
 104255802.291 8  81087862.207 8  19475859.942    19475859.888    19475863.230
        52.000          49.000
 20  5  4  1 45  0.0000000  0 10G27G 3G 9G 8G16G26G 4G 7R 4R 3
 119807844.75646  93356775.47046  22798672.095    22798672.108    22798678.897
        41.000          39.000
 128693932.77446 100280998.66744  24489643.597    24489644.801    24489651.148
        37.000          29.000
 109107012.63448  85018448.79948  20762367.994    20762367.905    20762373.104
        50.000          52.000
 124912513.15146  97334427.56745  23770056.043    23770055.956    23770063.510
        38.000          33.000
 110894164.50647  86411040.01046  21102456.778    21102456.334    21102459.881
        47.000          38.000
 124003494.34346  96626102.06943  23597080.576    23597081.335    23597087.709
        38.000          22.000
 107703378.95248  83924713.98147  20495264.106    20495264.348    20495268.732
        49.000          42.000
 120995427.97447  94282157.30446  23024665.800    23024665.788    23024669.002
        43.000          40.000
 114085383.792 8  88733084.404 7  21304637.653    21304639.034    21304642.003
        48.000          43.000
 104352871.302 8  81163360.309 8  19493993.663    19493993.525    19493996.515
        52.000          49.000
 20  5  4  1 45 30.0000000  0 10G27G 3G 9G 8G16G26G 4G 7R 4R 3
 119808926.36446  93357618.29346  22798877.901    22798877.887    22798884.640
        40.000          39.000
 128873068.00446 100420584.49044  24523731.904    24523733.071    24523739.364
        36.000          29.000
 109136224.31348  85041211.13648  20767926.517    20767926.568    20767931.897
        50.000          52.000
 124882584.60646  97311106.63545  23764360.711    23764360.508    23764369.205
        37.000          34.000
 111025506.62547  86513384.50346  21127450.300    21127449.552    21127453.370
        47.000          37.000
 124173805.68246  96758812.12943  23629490.621    23629490.823    23629497.888
        38.000          22.000
 107802096.65748  84001636.85247  20514049.557    20514049.752    20514054.165
        49.000          42.000
 120997261.74147  94283586.22546  23025014.332    23025014.881    23025017.938
        44.000          40.000
 114064564.600 7  88716891.697 7  21300750.390    21300750.780    21300753.760
        47.000          43.000
 104450777.076 8  81239509.232 8  19512283.243    19512283.407    19512286.153
        52.000          49.000
 20  5  4  1 46  0.0000000  0 10G27G 3G 9G 8G16G26G 4G 7R 4R 3
 119810486.92746  93358834.32346  22799175.431    22799175.270    22799181.951
        41.000          39.000
 129052254.60146 100560210.35144  24557830.740    24557830.654    24557837.556
        37.000          29.000
 109165919.75948  85064350.44048  20773577.377    20773577.404    20773582.707
        50.000          53.000
 124852833.99646  97287924.34745  23758699.964    23758699.594    23758707.289
        38.000          34.000
 111157388.77847  86616149.79646  21152546.861    21152546.226    21152549.639
        46.000          38.000
 124344321.13046  96891681.26743  23661937.805    23661937.705    23661945.111
        37.000          21.000
 107901334.48148  84078965.00247  20532934.017    20532934.200    20532938.655
        49.000          42.000
 120999249.77247  94285135.35246  23025393.165    23025393.239    23025396.361
        43.000          40.000
 114044302.814 7  88701132.535 7  21296966.172    21296967.296    21296970.403
        47.000          43.000
 104549518.621 8  81316308.193 8  19530729.112    19530729.231    19530731.837
        53.000          49.000
 20  5  4  1 46 30.0000000  0 10G27G 3G 9G 8G16G26G 4G 7R 4R 3
 118237105.07247  92132822.51246  22499771.031    22499770.636    22499777.228
        42.000          39.000
 127656071.48646  99472275.38244  24292146.067    24292146.003    24292152.389
        36.000          28.000
 107620677.48748  83860265.53948  20479527.677    20479527.575    20479532.930
        50.000          52.000
 123247839.43946  96037279.24545  23453278.777    23453279.011    23453286.412
        38.000          33.000
 109714388.68447  85491734.12446  20877953.042    20877952.461    20877955.981
        47.000          37.000
 122939619.67346  95797108.67143  23394632.207    23394632.323    23394638.926
        37.000          20.000
 106425671.38948  82929097.63947  20252124.560    20252124.616    20252129.296
        49.000          42.000
 119425967.84147  93059201.38846  22726006.930    22726007.566    22726010.607
        43.000          41.000
 112419222.318 7  87437181.033 7  20993494.282    20993494.969    20993497.605
        47.000          43.000
 103044281.817 8  80145568.440 8  19249538.164    19249538.170    19249540.969
        52.000          49.000
 20  5  4  1 47  0.0000000  0 10G27G 3G 9G 8G16G26G 4G 7R 4R 3
 118239623.36746  92134784.81846  22500249.663    22500249.611    22500256.448
        41.000          39.000
 127835343.49046  99611967.80244  24326259.903    24326260.283    24326266.776
        37.000          29.000
 107651336.90148  83884155.98748  20485362.051    20485361.814    20485367.177
        49.000          52.000
 123218445.70346  96014375.06245  23447685.467    23447685.727    23447693.021
        38.000          33.000
 109847334.46947  85595328.23046  20903251.838    20903251.454    20903254.638
        46.000          37.000
 123110527.20246  95930283.31743  23427154.824    23427155.004    23427164.090
        37.000          20.000
 106525940.41948  83007229.32647  20271205.133    20271205.361    20271209.923
        48.000          42.000
 119428255.93547  93060984.33246  22726443.201    22726443.141    22726445.963
        44.000          40.000
 112400077.772 8  87422290.836 7  20989919.251    20989920.052    20989922.571
        48.000          43.000
 103144683.903 8  80223658.936 8  19268294.136    19268294.063    19268296.868
        52.000          49.000
 20  5  4  1 47 30.0000000  0 10G27G 3G 9G 8G16G26G 4G 7R 4R 3
 118242625.44546  92137124.11846  22500821.117    22500821.072    22500827.680
        41.000          39.000
 128014654.49846  99751690.60644  24360382.013    24360381.976    24360389.078
        37.000          29.000
 107682481.40548  83908424.42248  20491288.609    20491288.466    20491293.758
        50.000          53.000
 123189235.64646  95991613.98845  23442127.188    23442127.042    23442134.659
        37.000          33.000
 109980808.63847  85699334.06146  20928650.998    20928650.518    20928653.974
        47.000          37.000
 123281627.68846  96063608.35043  23459714.500    23459715.024    23459722.496
        37.000          19.000
 106626725.56648  83085763.19147  20290383.912    20290384.241    20290388.602
        48.000          42.000
 119430694.73647  93062884.72746  22726907.064    22726906.892    22726909.985
        43.000          41.000
 112381498.121 7  87407839.994 7  20986449.994    20986450.513    20986453.263
        47.000          43.000
 103245915.951 8  80302394.949 8  19287204.904    19287205.089    19287207.900
        52.000          49.000
 20  5  4  1 48  0.0000000  0 10G27G 3G 9G 8G16G26G 4G 7R 4R 3
 118246110.17747  92139839.50146  22501484.030    22501483.973    22501490.631
        42.000          39.000
 128193997.52846  99891438.36244  24394509.945    24394510.171    24394516.873
        36.000          28.000
 107714108.71948  83933069.07348  20497306.931    20497306.972    20497312.204
        51.000          52.000
 123160208.50246  95968995.44345  23436603.640    23436603.443    23436610.595
        39.000          33.000
 110114804.63747  85803746.51546  20954149.381    20954149.096    20954152.715
        47.000          37.000
 123452914.62546  96197078.63743  23492309.405    23492308.926    23492316.557
        37.000          20.000
 106728022.65448  83164695.96347  20309660.524    20309660.514    20309664.935
        48.000          42.000
 119433280.58247  93064899.67946  22727398.830    22727398.750    22727402.065
        44.000          40.000
 112363483.134 8  87393828.346 7  20983085.612    20983086.660    20983089.114
        48.000          44.000
 103347972.608 8  80381772.336 8  19306270.304    19306270.327    19306272.961
        53.000          49.000
 20  5  4  1 48 30.0000000  0 10G27G 3G 9G 8G16G26G 4G 7R 4R 3
 118250081.21146  92142933.82646  22502239.445    22502239.584    22502246.186
        40.000          39.000
 128373370.57546 100031209.52344  24428643.403    24428643.583    24428650.570
        37.000          29.000
 107746221.35548  83958091.89448  20503417.952    20503417.804    20503423.100
        50.000          52.000
 123131368.17546  95946522.50145  23431115.036    23431115.499    23431122.772
        37.000          33.000
 110249320.03147  85908563.68746  20979747.140    20979746.566    20979750.026
        47.000          37.000
 123624386.44746  96330693.00843  23524939.383    23524939.417    23524945.878
        37.000          20.000
 106829832.39548  83244028.21147  20329034.113    20329034.166    20329038.640
        49.000          42.000
 119436014.12647  93067029.72046  22727918.576    22727918.714    22727922.257
        43.000          40.000
 112346037.363 8  87380259.412 4  20979827.704    20979828.729    20979831.385
        48.000          29.000
 103450854.007 8  80461791.186 8  19325489.107    19325489.548    19325492.092
        52.000          49.000
 20  5  4  1 49  0.0000000  0 10G27G 3G 9G 8G16G26G 4G 7R 4R 3
 118254544.85546  92146412.01046  22503089.467    22503088.951    22503095.793
        41.000          39.000
 128552774.20746 100171004.49644  24462782.571    24462783.157    24462789.749
        36.000          29.000
 107778824.39648  83983496.85648  20509621.789    20509621.860    20509627.225
        51.000          52.000
 123102721.61846  95924200.53045  23425664.057    23425664.011    23425671.443
        37.000          33.000
 110384355.89948  86013786.42446  21005443.534    21005442.893    21005446.612
        48.000          37.000
 123796044.21746  96464452.25943  23557604.483    23557604.920    23557612.140
        37.000          20.000
 106932158.09048  83323762.49047  20348505.765    20348506.105    20348510.722
        49.000          42.000
 119438899.36947  93069277.97446  22728467.878    22728467.836    22728471.442
        43.000          41.000
 112329168.037 7  87367138.825 7  20976676.648    20976677.948    20976681.150
        47.000          44.000
 103554562.946 8  80542453.669 8  19344863.100    19344863.085    19344865.986
        53.000          49.000
 20  5  4  1 49 30.0000000  0 10G27G 3G 9G 8G16G26G 4G 7R 4R 3
 118259499.13947  92150272.49746  22504031.819    22504031.705    22504038.320
        42.000          39.000
 128732200.73346 100310817.29544  24496926.171    24496926.895    24496933.375
        36.000          28.000
 107811914.64948  84009281.46348  20515919.094    20515918.713    20515924.148
        51.000          53.000
 123074266.61146  95902027.84045  23420249.219    23420248.935    23420256.350
        37.000          33.000
 110519904.91947  86119409.02546  21031237.550    21031237.292    21031240.368
        47.000          37.000
 123967880.56246  96598350.66943  23590304.023    23590304.359    23590311.808
        38.000          21.000
 107034994.74548  83403894.93147  20368075.230    20368075.292    20368079.853
        49.000          42.000
 119441931.52447  93071640.70146  22729045.134    22729044.762    22729048.252
        43.000          40.000
 112312874.153 7  87354465.809 7  20973634.014    20973634.915    20973638.182
        47.000          44.000
 103659093.547 8  80623755.227 8  19364390.268    19364390.442    19364393.267
        52.000          49.000
 20  5  4  1 50  0.0000000  0 10G27G 3G 9G 8G16G26G 4G 7R 4R 3
 118264962.41547  92154529.61646  22505071.225    22505071.181    22505078.185
        42.000          40.000
 128911662.86645 100450657.85644  24531078.314    24531077.301    24531083.905
        35.000          28.000
 107845509.43648  84035459.21048  20522311.584    20522311.569    20522316.998
        50.000          53.000
 123046021.79546  95880018.91045  23414874.147    23414873.974    23414881.463
        37.000          33.000
 110655979.36047  86225441.04546  21057131.845    21057131.614    21057134.596
        47.000          37.000
 124139908.76746  96732398.56743  23623039.361    23623040.867    23623048.542
        38.000          21.000
 107138357.83048  83484437.57647  20387744.491    20387744.877    20387749.180
        49.000          42.000
 119445126.44747  93074130.26146  22729652.976    22729652.698    22729656.224
        42.000          40.000
 112297175.322 7  87342255.600 7  20970702.930    20970703.291    20970706.814
        47.000          44.000
 103764460.628 8  80705707.382 8  19384074.078    19384073.567    19384076.593
        52.000          49.000
 20  5  4  1 50 30.0000000  0 10G27G 3G 9G 8G16G26G 4G 7R 4R 3
 118270924.94947  92159175.75146  22506205.927    22506206.235    22506212.865
        42.000          40.000
 129091145.13445 100590514.14444  24565231.572    24565231.715    24565238.392
        35.000          28.000
 107879597.72948  84062021.50248  20528798.470    20528798.368    20528803.834
        50.000          52.000
 123017977.88846  95858166.51545  23409538.196    23409537.309    23409545.657
        37.000          32.000
 110792564.09447  86331870.69446  21083122.792    21083122.451    21083125.803
        47.000          36.000
 124312113.75346  96866584.23043  23655810.598    23655810.137    23655817.636
        38.000          22.000
 107242234.53948  83565380.44747  20407511.364    20407511.741    20407516.154
        49.000          42.000
 119448471.04147  93076736.44646  22730288.882    22730289.009    22730292.926
        43.000          40.000
 112282062.429 7  87330501.125 7  20967880.827    20967881.262    20967884.328
        47.000          44.000
 103870650.238 8  80788299.286 8  19403910.832    19403910.945    19403913.827
        53.000          49.000
 20  5  4  1 51  0.0000000  0 10G27G 3G 9G 8G16G26G 4G 7R 4R 3
 118277395.65547  92164217.87546  22507436.720    22507437.025    22507444.223
        42.000          40.000
 129270650.86346 100730388.65544  24599390.099    24599390.437    24599398.158
        36.000          28.000
 107914187.41448  84088974.49048  20535380.895    20535380.670    20535386.000
        51.000          53.000
 122990144.42246  95836478.10845  23404240.372    23404241.013    23404249.329
        37.000          33.000
 110929662.16547  86438700.34446  21109212.047    21109211.609    21109214.850
        47.000          36.000
 124484499.31846  97000910.61543  23688614.674    23688613.951    23688620.865
        38.000          21.000
 107346630.82648  83646728.18147  20427377.719    20427377.675    20427382.167
        49.000          42.000
 119451972.34247  93079464.74046  22730955.515    22730955.308    22730959.423
        43.000          41.000
 112267545.511 7  87319210.191 7  20965169.860    20965170.843    20965172.951
        47.000          44.000
 103977667.747 8  80871535.103 8  19423903.049    19423902.439    19423905.497
        52.000          49.000
 20  5  4  1 51 30.0000000  0 10G27G 3G 9G 8G16G26G 4G 7R 4R 3
 118284382.52247  92169662.20146  22508767.322    22508766.991    22508773.746
        42.000          41.000
 129450182.46045 100870283.34044  24633553.915    24633554.802    24633561.338
        35.000          28.000
 107949285.22548  84116323.42948  20542059.748    20542059.762    20542064.927
        50.000          53.000
 122962529.68146  95814960.14045  23398985.214    23398985.546    23398993.722
        37.000          32.000
 111067276.45547  86545932.25146  21135399.063    21135398.630    21135401.581
        47.000          37.000
 124657068.26646  97135379.86043  23721452.454    23721453.639    23721461.034
        37.000          21.000
 107451551.68548  83728484.67347  20447343.195    20447343.489    20447348.028
        48.000          42.000
 119455635.58647  93082319.23546  22731652.321    22731652.588    22731656.424
        43.000          41.000
 112253633.442 8  87308389.694 7  20962571.830    20962572.665    20962574.904
        48.000          44.000
 104085517.252 8  80955418.038 8  19444049.880    19444049.793    19444052.770
        52.000          49.000
 20  5  4  1 52  0.0000000  0 10G27G 3G 9G 8G16G26G 4G 7R 4R 3
 118291879.15347  92175503.73346  22510193.586    22510193.252    22510200.092
        42.000          40.000
 129629727.92346 101010188.82544  24667720.342    24667721.094    24667727.638
        36.000          28.000
 107984883.67448  84144062.47148  20548833.937    20548833.929    20548839.041
        50.000          53.000
 122935127.42446  95793607.72445  23393771.376    23393771.641    23393779.826
        38.000          34.000
 111205394.71747  86653556.86046  21161682.212    21161681.688    21161685.047
        47.000          36.000
 124829809.09746  97269983.06943  23754323.218    23754323.545    23754331.613
        37.000          21.000
 107556987.73648  83810642.61347  20467407.127    20467407.268    20467411.867
        48.000          42.000
 119459451.70647  93085292.85246  22732378.621    22732378.733    22732382.574
        44.000          41.000
 112240320.854 7  87298035.461 7  20960085.996    20960086.576    20960089.000
        47.000          43.000
 104194188.256 8  81039939.909 8  19464350.251    19464350.433    19464353.374
        52.000          49.000
 20  5  4  1 52 30.0000000  0 10G27G 3G 9G 8G16G26G 4G 7R 4R 3
 118299892.81947  92181748.16546  22511718.296    22511718.669    22511724.839
        42.000          41.000
 129809288.90445 101150106.39844  24701889.008    24701889.660    24701897.201
        35.000          27.000
 108020988.95548  84172196.44848  20555704.507    20555704.502    20555709.631
        51.000          53.000
 122907945.63946  95772427.14245  23388599.986    23388598.684    23388607.022
        38.000          33.000
 111344019.08647  86761575.84546  21188061.710    21188060.897    21188064.297
        47.000          36.000
 125002723.86846  97404721.79043  23787228.855    23787228.494    23787236.532
        37.000          21.000
 107662943.27448  83893205.35046  20487569.999    20487570.149    20487574.505
        49.000          41.000
 119463425.23347  93088389.12246  22733134.891    22733134.934    22733138.493
        43.000          41.000
 112227615.828 8  87288153.767 7  20957713.022    20957713.811    20957716.325
        48.000          44.000
 104303684.257 8  81125103.444 8  19484804.928    19484804.842    19484808.239
        52.000          49.000
 20  5  4  1 53  0.0000000  0 10G27G 3G 9G 8G16G26G 4G 7R 4R 3
 118308420.17047  92188392.87046  22513341.388    22513341.268    22513347.826
        43.000          41.000
 129988856.61145 101290029.21344  24736059.458    24736060.625    24736068.108
        35.000          27.000
 108057596.51448  84200721.81248  20562670.705    20562670.690    20562675.773
        51.000          52.000
 122880981.15946  95751415.86145  23383467.967    23383467.968    23383475.883
        38.000          34.000
 111483140.53547  86869982.15046  21214535.249    21214534.814    21214538.153
        47.000          36.000
 125175804.25646  97539589.57743  23820165.569    23820164.994    23820173.361
        37.000          21.000
 107769411.95448  83976167.94246  20507830.132    20507830.330    20507834.915
        48.000          41.000
 119467550.22947  93091603.42146  22733920.158    22733919.974    22733923.334
        44.000          41.000
 112215516.107 7  87278742.872 7  20955453.451    20955453.765    20955456.990
        47.000          44.000
 104413997.938 8  81210902.956 8  19505412.654    19505412.743    19505415.832
        52.000          49.000
 20  5  4  1 53 30.0000000  0 10G27G 3G 9G 8G16G26G 4G 7R 4R 3
 118317467.02847  92195442.38046  22515062.647    22515062.580    22515069.042
        42.000          40.000
 130168431.18245 101429957.40644  24770232.306    24770232.530    24770239.449
        35.000          28.000
 108094711.05148  84229642.22448  20569733.266    20569733.402    20569738.488
        51.000          53.000
 122854240.19946  95730578.76445  23378379.658    23378379.231    23378387.375
        38.000          33.000
 111622759.16847  86978775.87446  21241104.048    21241103.353    21241106.654
        46.000          36.000
 125349051.00946  97674586.98343  23853132.739    23853132.478    23853139.391
        37.000          20.000
 107876396.59147  84059532.57846  20528188.521    20528188.785    20528193.399
        47.000          41.000
 119471830.48347  93094938.70046  22734734.829    22734734.546    22734737.877
        44.000          41.000
 112204028.476 7  87269808.048 7  20953307.859    20953308.894    20953311.635
        47.000          44.000
 104525131.259 8  81297339.965 8  19526173.387    19526173.404    19526176.595
        52.000          49.000
 20  5  4  1 54  0.0000000  0 10G27G 3G 9G 8G16G26G 4G 7R 4R 3
 118327043.25747  92202904.38346  22516885.608    22516885.161    22516891.619
        43.000          41.000
 130348017.09945 101569894.39544  24804406.111    24804406.590    24804413.989
        35.000          27.000
 108132341.29448  84258964.48448  20576893.988    20576894.028    20576899.266
        51.000          52.000
 122827733.30946  95709924.05245  23373335.386    23373334.945    23373343.152
        39.000          33.000
 111762879.32347  87087960.40546  21267767.817    21267767.436    21267770.541
        47.000          36.000
 125522468.77246  97809717.65743  23886133.387    23886133.652    23886140.135
        37.000          20.000
 107983904.04448  84143304.60346  20548646.858    20548646.864    20548651.456
        48.000          41.000
 119476273.03747  93098400.43947  22735579.831    22735579.876    22735583.072
        44.000          42.000
 112193163.815 7  87261357.744 7  20951279.635    20951280.201    20951283.055
        47.000          44.000
 104637089.922 8  81384418.905 8  19547088.330    19547088.200    19547091.302
        52.000          49.000
 20  5  4  1 54 30.0000000  0 10G27G 3G 9G 8G16G26G 4G 7R 4R 3
 118337145.51647  92210776.28246  22518806.903    22518807.265    22518813.953
        42.000          41.000
 130527605.44046 101709833.30944  24838580.850    24838581.310    24838589.229
        36.000          28.000
 108170482.81648  84288685.14248  20584152.210    20584152.126    20584157.403
        50.000          53.000
 122801457.79446  95689449.63845  23368334.810    23368334.505    23368343.140
        39.000          33.000
 111903492.18947  87197528.85746  21294525.620    21294525.129    21294528.515
        46.000          36.000
 125696049.33146  97944975.22143  23919164.093    23919164.588    23919171.749
        38.000          20.000
 108091928.00748  84227479.09846  20569202.895    20569203.109    20569207.716
        48.000          41.000
 119480871.46547  93101983.64146  22736455.041    22736454.931    22736458.171
        44.000          41.000
 112182919.688 8  87253390.090 7  20949366.506    20949367.485    20949369.984
        48.000          44.000
 104749866.610 8  81472134.090 8  19568155.907    19568155.878    19568158.971
        52.000          49.000
 20  5  4  1 55  0.0000000  0 10G27G 3G 9G 8G16G26G 4G 7R 4R 3
 118347776.75647  92219060.37146  22520830.222    22520830.406    22520836.944
        42.000          41.000
 130707193.82646 101849772.24044  24872755.674    24872756.091    24872763.142
        36.000          28.000
 108209137.48148  84318805.64748  20591507.889    20591507.924    20591513.286
        51.000          53.000
 122775416.90346  95669158.04245  23363379.636    23363379.794    23363387.094
        39.000          34.000
 112044595.61847  87307479.56346  21321376.777    21321376.190    21321379.964
        47.000          36.000
 125869790.67646  98080358.03943  23952226.053    23952226.031    23952235.020
        38.000          20.000
 108200468.46247  84312056.05546  20589857.499    20589857.603    20589862.352
        47.000          41.000
 119485627.38147  93105689.56847  22737360.144    22737359.773    22737363.030
        44.000          42.000
 112173300.078 8  87245908.170 7  20947570.376    20947571.368    20947573.603
        48.000          44.000
 104863460.221 8  81560484.657 8  19589376.047    19589376.150    19589379.165
        52.000          49.000
 20  5  4  1 55 30.0000000  0  9G27G 9G 8G16G26G 4G 7R 4R 3
 118358947.15047  92227764.58546  22522956.138    22522956.088    22522962.730
        43.000          41.000
 108248314.30448  84349333.02948  20598962.933    20598962.971    20598968.441
        51.000          52.000
 122749620.82246  95649057.21945  23358470.576    23358470.786    23358478.285
        39.000          34.000
 112186193.99547  87417815.94346  21348322.134    21348321.589    21348324.880
        47.000          36.000
 126043697.86046  98215870.09243  23985319.456    23985318.565    23985328.108
        38.000          20.000
 108309532.56248  84397041.04646  20610611.692    20610611.722    20610616.335
        48.000          41.000
 119490547.88747  93109523.72647  22738296.529    22738296.128    22738299.344
        45.000          42.000
 112164316.361 8  87238920.830 7  20945892.567    20945893.626    20945895.773
        48.000          44.000
 104977876.803 8  81649475.311 8  19610750.073    19610750.048    19610753.266
        52.000          49.000
 20  5  4  1 56  0.0000000  0  9G27G 9G 8G16G26G 4G 7R 4R 3
 118370650.39047  92236884.00146  22525183.276    22525183.263    22525189.751
        43.000          41.000
 108288005.88648  84380261.52148  20606515.993    20606516.081    20606521.515
        50.000          53.000
 122724064.33346  95629143.06445  23353607.069    23353607.754    23353615.271
        39.000          34.000
 112328275.61547  87528528.88546  21375359.790    21375358.986    21375362.108
        47.000          36.000
 126217759.65946  98351502.62343  24018443.354    24018442.494    24018449.897
        38.000          20.000
 108419110.99648  84482426.81346  20631463.699    20631463.915    20631468.678
        48.000          41.000
 119495623.98147  93113479.12946  22739262.246    22739262.139    22739265.411
        45.000          41.000
 112155962.711 8  87232423.541 7  20944332.931    20944333.371    20944335.972
        48.000          44.000
 105093105.968 8  81739097.974 8  19632275.861    19632275.949    19632278.924
        52.000          49.000
 20  5  4  1 56 30.0000000  0  9G27G 9G 8G16G26G 4G 7R 4R 3
 118382886.08747  92246418.32446  22527511.987    22527511.492    22527518.050
        43.000          41.000
 108328210.75748  84411589.98048  20614166.899    20614166.885    20614172.230
        51.000          53.000
 122698747.59846  95609415.76445  23348789.996    23348790.038    23348797.677
        39.000          34.000
 112470834.30847  87639613.56946  21402487.251    21402487.036    21402490.477
        47.000          36.000
 126391970.80446  98487251.51243  24051593.687    24051594.437    24051601.115
        37.000          20.000
 108529200.45748  84568210.79346  20652412.977    20652413.228    20652417.990
        48.000          41.000
 119500853.26347  93117553.91147  22740257.516    22740257.223    22740260.527
        45.000          42.000
 112148239.948 8  87226416.947 7  20942890.103    20942891.261    20942894.027
        48.000          44.000
 105209143.254 8  81829349.180 8  19653952.785    19653952.516    19653955.676
        52.000          49.000
 20  5  4  1 57  0.0000000  0  9G27G 9G 8G16G26G 4G 7R 4R 3
 118395657.93847  92256370.42346  22529941.766    22529942.107    22529948.653
        43.000          41.000
 108368931.53148  84443320.43848  20621915.733    20621915.798    20621921.185
        51.000          53.000
 122673674.50546  95589878.29545  23344018.693    23344018.987    23344026.024
        39.000          34.000
 112613868.61447  87751068.85646  21429706.178    21429705.625    21429708.931
        47.000          36.000
 126566330.06846  98623115.83743  24084773.049    24084773.907    24084780.140
        37.000          20.000
 108639801.56448  84654393.45746  20673459.720    20673459.860    20673464.740
        48.000          40.000
 119506236.70347  93121748.80547  22741281.878    22741281.762    22741285.067
        45.000          42.000
 112141152.767 8  87220904.686 7  20941567.422    20941567.867    20941570.177
        49.000          44.000
 105325988.205 8  81920228.565 8  19675780.352    19675780.111    19675783.216
        52.000          48.000
 20  5  4  1 57 30.0000000  0  9G27G 9G 8G16G26G 4G 7R 4R 3
 118408980.95147  92266752.00446  22532477.162    22532477.188    22532483.822
        43.000          41.000
 108410182.14948  84475463.76248  20629765.590    20629765.567    20629770.846
        50.000          53.000
 122648860.95846  95570543.07845  23339297.037    23339296.671    23339304.460
        40.000          34.000
 112757387.84247  87862902.00845  21457016.791    21457016.137    21457019.658
        46.000          35.000
 126740847.58046  98759103.46543  24117982.736    24117983.583    24117989.945
        37.000          20.000
 108750926.43947  84740984.24246  20694606.098    20694606.415    20694611.152
        47.000          40.000
 119511787.65347  93126074.23347  22742338.111    22742338.058    22742341.419
        44.000          42.000
 112134717.369 8  87215899.379 7  20940365.414    20940366.105    20940368.480
        48.000          45.000
 105443651.772 8  82011744.653 8  19697760.958    19697760.906    19697763.735
        52.000          49.000
 20  5  4  1 58  0.0000000  0  9G27G 9G 8G16G26G 4G 7R 4R 3
 116847426.43847  91049956.28646  22235323.495    22235323.601    22235329.696
        43.000          41.000
 106876533.68048  83280412.99648  20337922.124    20337922.031    20337927.328
        51.000          53.000
 121048877.59846  94323802.79745  23034830.031    23034830.303    23034837.326
        39.000          35.000
 111325962.44647  86747505.57946  21184625.590    21184624.899    21184628.414
        46.000          36.000
 125340095.10646  97667607.99543  23851428.035    23851428.518    23851437.196
        36.000          19.000
 107287146.55848  83600376.51946  20416058.067    20416058.329    20416063.154
        48.000          41.000
 117942074.26047  91902920.94647  22443631.375    22443631.574    22443634.762
        44.000          42.000
 110523550.227 8  85962769.366 7  20639491.346    20639492.165    20639494.319
        48.000          45.000
 103957311.785 8  80855702.415 8  19420100.135    19420100.139    19420103.063
        53.000          49.000
 20  5  4  1 58 30.0000000  0  9G27G 9G 8G16G26G 4G 7R 4R 3
 116861833.36747  91061182.47846  22238065.150    22238065.100    22238071.338
        44.000          41.000
 106918822.29448  83313365.14848  20345969.231    20345969.313    20345974.584
        51.000          53.000
 121024566.34146  94304858.97045  23030204.123    23030203.882    23030211.813
        38.000          35.000
 111470417.28747  86860067.77845  21212114.368    21212113.932    21212117.120
        47.000          35.000
 125514896.18146  97803816.58143  23884692.829    23884692.008    23884700.184
        36.000          19.000
 107399291.50847  83687762.17146  20437398.393    20437398.893    20437403.782
        47.000          40.000
 117947933.88147  91907486.89247  22444746.560    22444746.463    22444749.755
        44.000          42.000
 110518402.422 8  85958765.519 7  20638529.898    20638530.992    20638533.012
        48.000          44.000
 104076581.271 8  80948467.559 8  19442380.634    19442380.656    19442383.384
        52.000          48.000
 20  5  4  1 59  0.0000000  0  9G27G 9G 8G16G26G 4G 7R 4R 3
 116876797.29447  91072842.70046  22240912.709    22240912.663    22240918.635
        44.000          41.000
 106961643.33248  83346732.18348  20354117.925    20354117.849    20354123.143
        51.000          53.000
 121000522.30046  94286123.36546  23025627.968    23025628.625    23025636.397
        39.000          36.000
 111615346.68847  86972999.76245  21239693.404    21239693.332    21239696.042
        47.000          35.000
 125689846.86545  97940141.72843  23917983.307    23917984.322    23917993.279
        35.000          19.000
 107511957.04547  83775553.47846  20458838.110    20458838.284    20458843.208
        47.000          41.000
 117953959.10147  91912181.88147  22445893.092    22445893.039    22445896.164
        43.000          42.000
 110513915.307 8  85955275.534 7  20637692.122    20637692.430    20637695.213
        48.000          45.000
 104196662.776 8  81041864.264 8  19464812.902    19464812.679    19464815.887
        52.000          49.000
 20  5  4  1 59 30.0000000  0  9G27G 9G 8G16G26G 4G 7R 4R 3
 116892310.94747  91084931.27946  22243864.509    22243864.523    22243870.588
        43.000          41.000
 107004988.42448  83380507.56748  20362366.231    20362366.215    20362371.435
        51.000          53.000
 120976738.91346  94267590.85145  23021102.633    23021102.615    23021110.694
        39.000          35.000
 111760738.19447  87086291.83245  21267360.699    21267360.251    21267363.245
        46.000          35.000
 125864935.02046  98076573.96943  23951302.116    23951301.857    23951310.758
        36.000          19.000
 107625132.91348  83863742.44646  20480374.958    20480375.027    20480379.846
        48.000          40.000
 117960140.54747  91916998.60747  22447069.025    22447069.437    22447072.424
        44.000          42.000
 110510082.264 8  85952294.278 7  20636976.040    20636977.156    20636979.556
        49.000          45.000
 104317544.272 8  81135883.186 8  19487394.183    19487394.688    19487397.639
        52.000          48.000
 20  5  4  2  0  0.0000000  0  9G27G 9G 8G16G26G 4G 7R 4R 3
 116908384.70247  91097456.29446  22246923.213    22246923.389    22246929.543
        43.000          41.000
 107048866.95948  83414698.62648  20370716.201    20370715.949    20370721.152
        51.000          53.000
 120953227.06746  94249269.95446  23016628.861    23016628.445    23016636.557
        39.000          36.000
 111906596.72447  87199947.81045  21295116.614    21295116.386    21295119.379
        47.000          34.000
 126040166.42846  98213117.85943  23984647.150    23984647.823    23984655.721
        36.000          18.000
 107738826.58148  83952334.89646  20502010.053    20502010.392    20502015.018
        48.000          40.000
 117966486.51747  91921943.56047  22448277.138    22448277.101    22448280.229
        45.000          42.000
 110506914.912 8  85949830.782 7  20636384.482    20636385.155    20636387.979
        48.000          45.000
 104439232.364 8  81230529.459 8  19510126.816    19510126.654    19510129.983
        52.000          49.000
 20  5  4  2  0 30.0000000  0  9G27G 9G 8G16G26G 4G 7R 4R 3
 116925015.97147  91110415.74046  22250087.812    22250087.635    22250094.459
        42.000          41.000
 107093275.30448  83449302.52348  20379166.505    20379166.528    20379171.777
        51.000          53.000
 120929984.83946  94231159.14245  23012205.453    23012205.679    23012213.388
        39.000          35.000
 112052914.47647  87313961.62745  21322960.063    21322959.223    21322962.727
        47.000          34.000
 126215533.65646  98349767.59443  24018019.591    24018018.600    24018027.341
        36.000          19.000
 107853032.44348  84041326.45246  20523742.896    20523742.933    20523747.771
        48.000          40.000
 117972991.69847  91927012.54047  22449514.981    22449514.983    22449518.385
        45.000          42.000
 110504411.469 8  85947883.606    20635916.372    20635917.456    20635921.407
        48.000           3.000
 104561719.773 8  81325797.392    19533008.604    19533008.453    19533012.769
        52.000           5.000
 20  5  4  2  1  0.0000000  0  9G27G 9G 8G16G26G 4G 7R 4R 3
 116942207.86447  91123812.04146  22253359.347    22253359.514    22253365.959
        42.000          41.000
 107138215.47448  83484320.83849  20387718.451    20387718.285    20387723.655
        51.000          54.000
 120907016.04246  94213261.39745  23007834.470    23007834.140    23007842.294
        38.000          35.000
 112199689.05547  87428331.41045  21350890.026    21350889.717    21350893.146
        46.000          34.000
 126391035.22246  98486522.00243  24051415.809    24051416.652    24051423.800
        37.000          20.000
 107967750.65648  84130717.24546  20545572.774    20545573.137    20545577.691
        48.000          40.000
 117979657.59947  91932206.76447  22450783.303    22450783.441    22450786.864
        45.000          42.000
 110502576.166 8                  20635573.978
        48.000
 104685005.411 8                  19556039.189
        52.000
 20  5  4  2  1 30.0000000  0  9G27G 9G 8G16G26G 4G 7R 4R 3
 116959965.02547  91137648.82246  22256738.669    22256738.502    22256744.759
        42.000          41.000
 107183691.10548  83519756.38448  20396371.982    20396371.996    20396377.512
        51.000          53.000
 120884326.13646  94195580.97945  23003517.284    23003516.703    23003525.029
        38.000          35.000
 112346919.60947  87543056.50245  21378907.209    21378906.739    21378910.029
        46.000          34.000
 126566671.04146  98623381.04043  24084837.630    24084838.638    24084845.933
        37.000          19.000
 108082982.89947  84220508.59046  20567501.024    20567501.063    20567505.748
        47.000          40.000
 117986486.41947  91937527.93747  22452082.677    22452082.889    22452086.280
        44.000          42.000
 110501414.658 8                  20635356.888
        48.000
 104809089.764 8                  19579219.515
        52.000
 20  5  4  2  2  0.0000000  0  9G27G 9G 8G16G26G 4G 7R 4R 3
 116978289.40147  91151927.56846  22260225.358    22260225.535    22260232.051
        43.000          41.000
 107229703.09948  83555609.88148  20405127.768    20405127.784    20405133.324
        51.000          53.000
 120861917.63446  94178119.83445  22999252.819    22999252.714    22999260.346
        38.000          35.000
 112494602.90947  87658134.38145  21407010.486    21407009.849    21407013.350
        46.000          34.000
 126742438.39846  98760342.58643  24118286.433    24118285.817    24118292.430
        37.000          18.000
 108198728.14948  84310699.67846  20589526.770    20589526.641    20589531.329
        48.000          40.000
 117993477.96347  91942975.90947  22453413.314    22453413.416    22453416.845
        45.000          43.000
 110500929.980 8                  20635266.442
        49.000
 104933970.554 8                  19602548.030
        52.000
 20  5  4  2  2 30.0000000  0  9G27G 9G 8G16G26G 4G 7R 4R 3
 116997186.88247  91166652.89846  22263821.497    22263821.298    22263828.126
        43.000          41.000
 107276256.30448  83591885.09949  20413986.706    20413986.503    20413992.138
        50.000          54.000
 120839797.15346  94160883.11446  22995043.615    22995043.365    22995050.287
        40.000          36.000
 112642739.69647  87773565.61945  21435200.029    21435199.426    21435203.248
        47.000          34.000
 126918338.60346  98897407.62143  24151758.638    24151758.724    24151766.019
        37.000          19.000
 108314989.31848  84401292.77546  20611650.470    20611650.537    20611655.187
        48.000          40.000
 118000635.77147  91948553.44647  22454775.341    22454775.274    22454778.908
        44.000          43.000
 110501128.950 8                  20635303.767
        48.000
 105059649.140 8                  19626025.896
        52.000
 20  5  4  2  3  0.0000000  0  9G27G 9G 8G16G26G 4G 7R 4R 3
 117016647.45547  91181817.00646  22267524.654    22267524.764    22267531.264
        43.000          41.000
 107323339.73948  83628573.48549  20422946.517    20422946.312    20422951.764
        51.000          54.000
 120817955.57646  94143863.75646  22990887.430    22990887.133    22990894.722
        39.000          36.000
 112791314.66347  87889338.29845  21463472.649    21463472.338    21463475.969
        46.000          34.000
 127094357.13846  99034564.86743  24185253.951    24185253.051    24185261.635
        36.000          18.000
 108431753.49848  84492277.83246  20633869.804    20633870.052    20633874.800
        48.000          40.000
 118007947.43847  91954250.85647  22456166.418    22456166.555    22456170.246
        44.000          43.000
 110502002.482 8                  20635466.692
        48.000
 105186110.861 8  81811440.839 8  19649649.973    19649650.094    19649653.355
        52.000          49.000
 20  5  4  2  3 30.0000000  0  9G27G 9G 8G16G26G 4G 7R 4R 3
 117036680.39347  91197427.11646  22271336.922    22271336.878    22271343.378
        43.000          41.000
 107370961.66148  83665681.47148  20432008.469    20432008.414    20432013.857
        51.000          53.000
 120796403.32146  94127069.81746  22986785.768    22986785.709    22986793.333
        40.000          36.000
 112940331.65147  88005455.41445  21491829.741    21491829.402    21491833.054
        45.000          35.000
 127270498.64546  99171817.95942  24218773.092    24218772.640    24218780.505
        36.000          17.000
 108549026.98347  84583659.74546  20656185.997    20656186.474    20656191.052
        47.000          40.000
 118015420.78547  91960074.26647  22457588.862    22457588.754    22457592.209
        45.000          43.000
 110503560.853 8  85947224.055 7  20635758.064    20635758.296    20635761.608
        48.000          45.000
 105313360.751 8  81910412.957 8  19673421.555    19673421.362    19673424.820
        52.000          49.000
 20  5  4  2  4  0.0000000  0 10G27G30G 9G 8G16G26G 4G 7R 4R 3
 117057290.65747  91213487.09046  22275258.457    22275258.986    22275265.364
        44.000          41.000
 130857729.33945 101967065.62044  24901396.407    24901395.357    24901402.956
        34.000          26.000
 107419125.96448  83703212.09949  20441173.891    20441173.869    20441179.182
        50.000          54.000
 120775145.59046  94110505.39846  22982740.258    22982740.316    22982747.818
        40.000          36.000
 113089790.67247  88121916.96945  21520271.152    21520270.686    21520273.940
        47.000          35.000
 127446763.51145  99309167.14942  24252314.273    24252314.455    24252321.640
        35.000          17.000
 108666811.74648  84675440.06446  20678599.739    20678600.194    20678604.819
        48.000          40.000
 118023058.47047  91966025.72847  22459042.153    22459042.275    22459045.480
        45.000          42.000
 110505810.194 8  85948973.544 7  20636178.162    20636178.730    20636181.989
        48.000          45.000
 105441399.613 8  82009998.717 8  19697340.459    19697340.440    19697343.406
        52.000          48.000
 20  5  4  2  4 30.0000000  0 10G27G30G 9G 8G16G26G 4G 7R 4R 3
 117078476.83047  91229995.81847  22279290.482    22279290.638    22279296.812
        44.000          42.000
 130842464.42945 101955170.89444  24898491.356    24898490.575    24898498.320
        34.000          25.000
 107467830.27348  83741163.50748  20450442.056    20450441.916    20450447.240
        51.000          53.000
 120754182.18746  94094170.31646  22978751.888    22978751.697    22978758.662
        40.000          37.000
 113239684.45547  88238717.30145  21548794.767    21548794.574    21548798.337
        47.000          35.000
 127623145.92946  99446607.93443  24285879.493    24285879.722    24285887.033
        37.000          18.000
 108785103.48148  84767615.42346  20701110.202    20701110.352    20701114.978
        48.000          40.000
 118030856.90247  91972102.44147  22460526.206    22460526.258    22460529.451
        45.000          43.000
 110508749.923 8  85951259.989 7  20636727.224    20636728.266    20636730.903
        49.000          45.000
 105570221.374 8  82110193.403 8  19721405.299    19721405.289    19721408.442
        52.000          48.000
 20  5  4  2  5  0.0000000  0 10G27G30G 9G 8G16G26G 4G 7R 4R 3
 117100255.92947  91246966.56547  22283435.144    22283434.790    22283441.347
        42.000          42.000
 130827283.24345 101943341.38244  24895602.569    24895601.428    24895608.572
        35.000          25.000
 107517090.61048  83779548.18048  20459816.084    20459815.880    20459821.223
        49.000          53.000
 120733530.51146  94078078.13646  22974821.389    22974821.353    22974828.749
        40.000          37.000
 113390025.26447  88355865.96545  21577403.590    21577403.322    21577406.969
        45.000          34.000
 127799658.41746  99584150.09643  24319468.660    24319469.186    24319474.853
        36.000          18.000
 108903916.28947  84860196.80646  20723719.467    20723719.557    20723724.402
        47.000          40.000
 118038831.21447  91978316.21047  22462043.451    22462043.416    22462046.778
        44.000          42.000
 110512398.464 8  85954097.734 7  20637408.516    20637409.565    20637412.118
        49.000          45.000
 105699838.913 8  82211007.026 8  19745618.952    19745618.975    19745622.172
        52.000          49.000
 20  5  4  2  5 30.0000000  0 10G27G30G 9G 8G16G26G 4G 7R 4R 3
 117122620.32147  91264393.38547  22287690.723    22287690.683    22287696.906
        44.000          42.000
 130812176.04145 101931569.53644  24892727.075    24892726.833    24892734.684
        34.000          26.000
 107566898.38448  83818359.43049  20469294.153    20469294.001    20469299.460
        51.000          54.000
 120713184.56146  94062224.19646  22970950.145    22970949.497    22970957.031
        40.000          37.000
 113540800.21547  88473352.91945  21606095.284    21606094.966    21606098.144
        45.000          34.000
 127976288.89546  99721784.17443  24353080.270    24353080.671    24353087.615
        36.000          18.000
 109023239.56748  84953175.96546  20746425.989    20746426.201    20746430.890
        48.000          40.000
 118046971.55247  91984659.34547  22463592.294    22463592.403    22463595.919
        46.000          43.000
 110516749.034 8  85957481.504 7  20638220.839    20638221.845    20638224.706
        49.000          45.000
 105830240.050 8  82312430.117 8  19769978.961    19769978.966    19769982.198
        53.000          48.000
 20  5  4  2  6  0.0000000  0 10G27G30G 9G 8G16G26G 4G 7R 4R 3
 117145569.44247  91282275.84347  22292057.624    22292057.979    22292064.079
        44.000          42.000
 130797140.20545 101919853.30944  24889866.884    24889865.406    24889873.562
        35.000          25.000
 107617251.98848  83857596.00149  20478876.110    20478875.931    20478881.425
        51.000          54.000
 120693143.89346  94046608.13346  22967136.117    22967136.119    22967143.518
        41.000          37.000
 113692003.86047  88591173.91945  21634868.376    21634867.772    21634871.756
        47.000          34.000
 128153032.32045  99859506.27242  24386713.187    24386713.987    24386721.994
        35.000          17.000
 109143069.77448  85046550.13946  20769228.785    20769228.996    20769233.793
        48.000          40.000
 118055275.61947  91991130.06147  22465172.669    22465172.571    22465176.247
        45.000          43.000
 110521801.951 8  85961411.545 7  20639164.626    20639165.155    20639168.370
        48.000          45.000
 105961419.772 8  82414458.772 8  19794484.583    19794484.418    19794487.628
        52.000          48.000
 20  5  4  2  6 30.0000000  0 10G27G30G 9G 8G16G26G 4G 7R 4R 3
 117169106.45947  91300616.39347  22296536.481    22296536.894    22296542.934
        43.000          42.000
 130782176.98245 101908193.66644  24887018.728    24887017.822    24887025.660
        35.000          25.000
 107668153.62348  83897259.60848  20488562.333    20488562.244    20488567.658
        51.000          53.000
 120673412.55346  94031233.10246  22963380.984    22963380.837    22963388.571
        40.000          37.000
 113843633.60247  88709326.94345  21663722.557    21663722.011    21663725.292
        45.000          33.000
 128329887.62846  99997315.52643  24420367.868    24420368.147    24420375.833
        36.000          18.000
 109263407.26647  85140319.59046  20792128.493    20792128.502    20792133.408
        46.000          40.000
 118063744.43747  91997729.15447  22466783.930    22466784.091    22466787.871
        45.000          43.000
 110527561.282 8  85965891.021 7  20640240.323    20640241.017    20640243.452
        49.000          45.000
 106093376.428 8  82517091.710 8  19819135.528    19819135.200    19819138.221
        52.000          48.000
 20  5  4  2  7  0.0000000  0 10G27G30G 9G 8G16G26G 4G 7R 4R 3
 117193236.50947  91319419.04747  22301128.545    22301128.433    22301134.575
        44.000          42.000
 130767289.49445 101896593.03444  24884185.154    24884185.030    24884192.967
        35.000          25.000
 107719607.50748  83937353.53449  20498353.630    20498353.550    20498358.948
        50.000          54.000
 120653997.30446  94016104.37746  22959686.291    22959686.408    22959694.082
        41.000          37.000
 113995689.81247  88827812.29145  21692658.055    21692657.749    21692661.267
        46.000          34.000
 128506855.49446 100135212.51943  24454043.851    24454043.103    24454051.290
        36.000          18.000
 109384254.15147  85234485.96946  20815124.585    20815124.850    20815129.766
        46.000          39.000
 118072381.07547  92004459.01147  22468427.423    22468427.806    22468431.351
        46.000          43.000
 110534033.446 8  85970924.921 7  20641449.074    20641449.733    20641452.080
        49.000          45.000
 106226111.069 8  82620329.750 8  19843931.124    19843931.180    19843934.144
        53.000          48.000
 20  5  4  2  7 30.0000000  0 10G27G30G 9G 8G16G26G 4G 7R 4R 3
 117217963.87547  91338687.13847  22305833.799    22305834.078    22305840.166
        43.000          42.000
 130752480.06345 101885053.20544  24881368.266    24881366.873    24881374.843
        35.000          26.000
 107771616.92948  83977880.34549  20508250.768    20508250.599    20508255.947
        51.000          54.000
 120634902.85146  94001225.63646  22956052.953    22956053.161    22956060.209
        41.000          38.000
 114148171.54447  88946629.21045  21721674.368    21721673.888    21721677.129
        45.000          34.000
 128683935.91146 100273197.20143  24487741.088    24487741.228    24487749.379
        37.000          18.000
 109505611.90747  85329050.42946  20838217.963    20838218.535    20838223.362
        47.000          39.000
 118081188.14147  92011321.65247  22470103.802    22470103.945    22470107.207
        45.000          43.000
 110541223.674 8  85976517.319 7  20642791.544    20642792.748    20642794.865
        49.000          45.000
 106359623.414 8  82724172.673 8  19868872.661    19868872.209    19868875.417
        52.000          48.000
 20  5  4  2  8  0.0000000  0 10G27G30G 9G 8G16G26G 4G 7R 4R 3
 117243271.87447  91358407.66647  22310649.964    22310649.736    22310656.340
        43.000          42.000
 130737730.06845 101873559.71744  24878560.867    24878560.151    24878568.153
        35.000          26.000
 107824164.25548  84018826.30149  20518250.070    20518250.118    20518255.319
        51.000          54.000
 120616113.48446  93986584.60946  22952477.249    22952477.570    22952484.758
        40.000          37.000
 114301057.09647  89065760.78745  21750767.622    21750767.117    21750770.678
        46.000          33.000
 128861107.91446 100411253.23643  24521456.610    24521456.692    24521464.429
        37.000          19.000
 109627460.87747  85423997.66146  20861405.755    20861405.514    20861410.458
        47.000          39.000
 118090146.97847  92018302.57747  22471808.486    22471808.502    22471812.036
        45.000          43.000
 110549115.864 8  85982655.686 7  20644265.773    20644266.086    20644268.580
        49.000          45.000
 106493891.783 8  82828603.606 8  19893955.037    19893954.942    19893957.908
        52.000          48.000
 20  5  4  2  8 30.0000000  0 10G27G30G 9G 8G16G26G 4G 7R 4R 3
 117269181.52647  91378597.01347  22315580.223    22315580.484    22315586.688
        43.000          42.000
 130723058.61445 101862127.43544  24875768.692    24875768.239    24875775.148
        35.000          26.000
 107877269.57048  84060207.06248  20528355.803    20528355.760    20528360.933
        51.000          53.000
 120597651.22146  93972198.47546  22948963.883    22948964.059    22948971.974
        40.000          38.000
 114454362.25647  89185219.33645  21779940.507    21779940.295    21779943.045
        46.000          33.000
 129038388.25646 100549393.72743  24555192.057    24555192.544    24555198.539
        37.000          19.000
 109749819.24747  85519341.82146  20884689.477    20884689.592    20884694.357
        47.000          39.000
 118099277.01947  92025416.90547  22473545.704    22473545.986    22473549.247
        46.000          44.000
 110557732.552 8  85989357.556 7  20645874.610    20645875.448    20645877.682
        49.000          45.000
 106628933.071 8  82933635.702 8  19919181.439    19919181.489    19919184.794
        52.000          48.000
 20  5  4  2  9  0.0000000  0 10G27G30G 9G 8G16G26G 4G 7R 4R 3
 115720272.98747  90171655.30947  22020833.177    22020832.915    22020839.123
        44.000          42.000
 129133042.52446 100623153.86244  24573198.911    24573198.637    24573205.613
        36.000          26.000
 106355512.94148  82874422.67549  20238775.184    20238775.078    20238780.326
        52.000          54.000
 119004095.66746  92730466.92146  22645721.131    22645720.203    22645728.418
        40.000          38.000
 113032666.59247  88077404.50845  21509400.904    21509400.707    21509403.803
        46.000          33.000
 127640357.87846  99460019.37643  24289154.918    24289155.627    24289163.434
        36.000          19.000
 108297267.40147  84387483.22546  20608278.120    20608278.023    20608282.970
        47.000          39.000
 116533155.61247  90805062.57947  22175523.108    22175522.996    22175526.399
        45.000          44.000
 108961699.322 8  84747998.376 7  20347826.934    20347827.627    20347829.951
        50.000          45.000
 105159934.065 8  81791080.899 8  19644760.275    19644760.174    19644763.509
        52.000          48.000
 20  5  4  2  9 30.0000000  0 10G27G30G 9G 8G16G26G 4G 7R 4R 3
 115747380.71347  90192778.22847  22025990.997    22025990.942    22025997.736
        42.000          42.000
 129118517.23146 100611835.46744  24570435.167    24570435.147    24570441.271
        36.000          27.000
 106409726.13748  82916666.71949  20249091.507    20249091.470    20249096.811
        52.000          54.000
 118986285.80346  92716589.12946  22642331.599    22642331.327    22642338.974
        41.000          38.000
 113186790.99047  88197501.42845  21538730.132    21538729.463    21538732.500
        46.000          33.000
 127817837.03346  99598314.76943  24322928.017    24322928.893    24322936.411
        36.000          18.000
 108420630.55947  84483610.33146  20631753.002    20631753.385    20631758.345
        47.000          39.000
 116542616.65447  90812434.82047  22177323.475    22177323.499    22177326.822
        45.000          43.000
 108971762.568 8  84755825.352 7  20349705.718    20349707.045    20349709.502
        50.000          45.000
 105296502.382 8  81897300.685 8  19670272.517    19670272.214    19670275.464
        52.000          48.000
 20  5  4  2 10  0.0000000  0 10G27G30G 9G 8G16G26G 4G 7R 4R 3
 115775094.01947  90214373.01747  22031264.646    22031264.572    22031271.618
        43.000          42.000
 129104068.71346 100600576.88944  24567685.262    24567686.079    24567691.824
        37.000          27.000
 106464498.40848  82959346.40149  20259514.155    20259514.230    20259519.675
        51.000          54.000
 118968809.66946  92702971.39746  22639005.790    22639006.025    22639013.519
        41.000          38.000
 113341323.88247  88317916.64845  21568136.290    21568135.878    21568139.030
        46.000          32.000
 127995415.78945  99736687.75942  24356720.837    24356720.388    24356727.419
        35.000          17.000
 108544498.28847  84580130.62046  20655324.806    20655324.776    20655329.466
        47.000          39.000
 116552246.92147  90819938.93447  22179155.871    22179156.097    22179159.268
        45.000          44.000
 108982557.055 8  84764221.066 7  20351721.656    20351722.970    20351725.284
        49.000          45.000
 105433833.547 8  82004113.796 8  19695926.673    19695927.124    19695930.312
        52.000          48.000
 20  5  4  2 10 30.0000000  0 10G27G30G 9G 8G16G26G 4G 7R 4R 3
 115803410.53347  90236437.84347  22036653.067    22036653.166    22036659.874
        42.000          42.000
 129089692.97246 100589375.02544  24564950.301    24564951.281    24564956.284
        37.000          27.000
 106519826.50248  83002459.19548  20270042.757    20270042.807    20270048.273
        50.000          53.000
 118951666.52046  92689613.11346  22635743.783    22635743.839    22635750.853
        40.000          38.000
 113496258.10947  88438644.59145  21597619.187    21597618.903    21597622.072
        45.000          32.000
 128173087.84145  99875133.47242  24390529.695    24390529.578    24390538.885
        34.000          16.000
 108668865.44647  84677040.07646  20678990.968    20678991.151    20678995.859
        46.000          39.000
 116562042.08447  90827571.53847  22181019.482    22181019.844    22181023.188
        45.000          44.000
 108994081.515 8  84773184.539 7  20353873.509    20353874.486    20353877.305
        49.000          46.000
 105571921.039 8  82111515.164 8  19721722.823    19721722.672    19721726.350
        52.000          48.000
 20  5  4  2 11  0.0000000  0 10G27G30G 9G 8G16G26G 4G 7R 4R 3
 115832332.53147  90258974.48347  22042156.653    22042157.179    22042163.415
        43.000          42.000
 129075390.27046 100578230.06844  24562229.249    24562228.859    24562234.577
        36.000          27.000
 106575711.75248  83046006.13349  20280677.580    20280677.440    20280682.960
        51.000          54.000
 118934859.43746  92676516.71346  22632545.496    22632545.245    22632552.686
        39.000          37.000
 113651590.76747  88559682.99245  21627178.166    21627177.401    21627181.050
        45.000          32.000
 128350851.17945 100013650.28842  24424357.713    24424357.674    24424365.610
        34.000          15.000
 108793731.37547  84774338.17946  20702752.508    20702752.449    20702757.104
        47.000          39.000
 116572003.65647  90835333.82047  22182916.038    22182915.562    22182918.756
        44.000          43.000
 109006339.105 8  84782718.223 7  20356162.669    20356163.752    20356166.307
        49.000          46.000
 105710762.207 8  82219502.718 8  19747659.653    19747659.469    19747662.921
        52.000          48.000
 20  5  4  2 11 30.0000000  0 10G27G30G 9G 8G16G26G 4G 7R 4R 3
 115861856.86747  90281980.46747  22047775.181    22047775.220    22047781.713
        44.000          42.000
 129061155.87246 100567138.35044  24559520.403    24559519.999    24559525.827
        36.000          27.000
 106632150.10848  83089984.06449  20291417.461    20291417.323    20291422.881
        49.000          54.000
 118918386.39246  92663680.60346  22629410.872    22629410.527    22629417.580
        41.000          38.000
 113807313.77247  88681025.57145  21656810.876    21656810.701    21656814.357
        45.000          32.000
 128528698.67345 100152232.66642  24458201.249    24458199.974    24458209.065
        32.000          14.000
 108919090.07547  84872020.26446  20726607.164    20726607.404    20726612.140
        47.000          39.000
 116582126.48147  90843221.74847  22184842.146    22184841.993    22184844.985
        44.000          44.000
 109019327.730 8  84792820.481 7  20358588.166    20358589.208    20358591.682
        50.000          46.000
 105850349.459 8  82328070.568 8  19773735.925    19773735.720    19773738.828
        52.000          48.000
 20  5  4  2 12  0.0000000  0 10G27G30G 9G 8G16G26G 4G 7R 4R 3
 115891994.66047  90305464.47147  22053510.720    22053510.388    22053516.765
        44.000          43.000
 129046999.05246 100556107.08344  24556826.092    24556825.247    24556831.885
        36.000          27.000
 106689151.78848  83134400.95249  20302264.319    20302264.400    20302269.888
        50.000          54.000
 118902259.59546  92651114.28446  22626341.507    22626341.551    22626349.053
        41.000          37.000
 113963433.67547  88802677.41945  21686520.207    21686519.648    21686523.359
        45.000          32.000
 128706637.37645 100290886.11142  24492060.712    24492061.572    24492070.000
        33.000          14.000
 109044949.85747  84970092.80146  20750557.486    20750557.700    20750562.533
        46.000          39.000
 116592419.65747  90851242.41747  22186800.345    22186800.605    22186803.578
        46.000          44.000
 109033059.379 8  84803500.658 7  20361152.342    20361153.119    20361156.194
        49.000          46.000
 105990689.205 8  82437223.686 8  19799952.475    19799952.292    19799955.658
        52.000          48.000
 20  5  4  2 12 30.0000000  0 10G27G30G 9G 8G16G26G 4G 7R 4R 3
 115922748.07647  90329428.18247  22059362.559    22059362.507    22059368.887
        44.000          42.000
 129032920.29645 100545136.63144  24554146.037    24554145.742    24554153.185
        35.000          27.000
 106746718.07548  83179257.79048  20313218.966    20313218.898    20313224.352
        51.000          53.000
 118886482.40946  92638820.40846  22623339.533    22623339.353    22623346.536
        41.000          37.000
 114119947.16547  88924635.95545  21716303.562    21716303.043    21716306.656
        45.000          32.000
 128884665.39145 100429609.17542  24525939.739    24525939.643    24525947.378
        33.000          14.000
 109171309.97147  85068555.21046  20774603.078    20774603.369    20774608.031
        47.000          39.000
 116602883.72447  90859396.24347  22188791.792    22188791.690    22188794.801
        46.000          44.000
 109047537.415 8  84814761.341 7  20363856.332    20363856.878    20363859.716
        50.000          46.000
 106131779.080 8  82546960.236 8  19826309.150    19826309.045    19826312.381
        52.000          48.000
 20  5  4  2 13  0.0000000  0 10G27G30G 9G 8G16G26G 4G 7R 4R 3
 115954119.48647  90353873.45447  22065332.198    22065332.337    22065338.294
        44.000          42.000
 129018920.26846 100534227.54344  24551483.158    24551482.161    24551488.852
        36.000          27.000
 106804850.43448  83224555.73449  20324281.125    20324281.081    20324286.524
        50.000          54.000
 118871058.44246  92626801.75546  22620404.506    22620404.275    22620411.502
        41.000          38.000
 114276851.96647  89046899.42545  21746161.841    21746161.226    21746164.636
        45.000          32.000
 129062781.20145 100568400.65342  24559833.799    24559833.605    24559841.230
        33.000          13.000
 109298169.98947  85167407.15846  20798743.927    20798743.975    20798748.717
        47.000          39.000
 116613519.51947  90867683.89147  22190815.670    22190815.546    22190818.885
        46.000          44.000
 109062765.005 8  84826605.025 7  20366699.669    20366700.947    20366703.519
        49.000          46.000
 106273616.954 8  82657278.568 8  19852806.065    19852805.710    19852808.921
        52.000          48.000
 20  5  4  2 13 30.0000000  0 10G27G30G 9G 8G16G26G 4G 7R 4R 3
 115986107.56547  90378799.25347  22071419.270    22071419.393    22071425.640
        44.000          42.000
 129004996.06646 100523377.52044  24548832.836    24548832.601    24548839.416
        36.000          28.000
 106863546.67248  83270293.06049  20335450.598    20335450.640    20335456.092
        51.000          54.000
 118855987.09147  92615057.87746  22617536.730    22617536.307    22617543.583
        42.000          39.000
 114434141.94447  89169463.01545  21776092.791    21776092.430    21776096.003
        44.000          32.000
 129240979.63345 100707256.52042  24593744.653    24593741.619    24593752.508
        33.000          12.000
 109425525.79247  85266645.42546  20822978.606    20822979.020    20822983.640
        47.000          39.000
 116624323.91047  90876102.90647  22192871.844    22192871.583    22192874.973
        46.000          44.000
 109078742.035 8  84839031.603 7  20369683.082    20369684.673    20369687.252
        49.000          46.000
 106416196.733 8  82768173.937 8  19879440.888    19879440.889    19879444.107
        52.000          48.000
 20  5  4  2 14  0.0000000  0 10G27G30G 9G 8G16G26G 4G 7R 4R 3
 116018718.41547  90404210.32147  22077625.185    22077625.004    22077631.421
        44.000          43.000
 128991152.00846 100512589.95444  24546198.129    24546197.738    24546204.997
        36.000          28.000
 106922812.05348  83316473.87149  20346728.414    20346728.499    20346733.946
        51.000          54.000
 118841276.27647  92603594.92846  22614736.751    22614737.039    22614744.214
        42.000          38.000
 114591818.53547  89292327.87945  21806097.980    21806097.328    21806100.670
        46.000          33.000
 129419262.66445 100846178.26342  24627670.899    24627669.751    24627677.100
        33.000          12.000
 109553380.64547  85366272.57546  20847308.707    20847308.791    20847313.766
        46.000          38.000
 116635301.87647  90884657.17747  22194960.808    22194960.606    22194964.013
        44.000          44.000
 109095475.507 8  84852046.515 7  20372808.445    20372809.121    20372811.939
        49.000          46.000
 106559519.972 8  82879647.552 8  19906214.867    19906214.783    19906218.047
        52.000          48.000
 20  5  4  2 14 30.0000000  0 10G27G30G 9G 8G16G26G 4G 7R 4R 3
 116051948.55347  90430103.95747  22083948.577    22083948.400    22083954.862
        44.000          43.000
 128977383.12546 100501860.98244  24543578.191    24543577.948    24543584.089
        36.000          28.000
 106982642.19748  83363094.75849  20358113.827    20358113.843    20358119.288
        49.000          54.000
 118826923.30447  92592410.82446  22612005.809    22612005.487    22612013.019
        42.000          40.000
 114749873.41147  89415487.50245  21836174.554    21836174.258    21836177.768
        45.000          32.000
 129597623.24645 100985160.48341  24661611.854    24661611.878    24661615.307
        32.000          11.000
 109681728.28247  85466283.69946  20871732.354    20871732.510    20871737.333
        47.000          38.000
 116646447.86847  90893342.40047  22197081.405    22197081.736    22197084.876
        45.000          44.000
 109112963.002 8  84865647.905 7  20376073.379    20376074.545    20376077.564
        49.000          46.000
 106703578.414 8  82991692.992 7  19933126.296    19933126.275    19933129.181
        52.000          47.000
 20  5  4  2 15  0.0000000  0 10G27G30G 9G 8G16G26G 4G 7R 4R 3
 116085801.77047  90456483.10247  22090390.462    22090390.302    22090396.874
        44.000          43.000
 128963691.52346 100491192.22144  24540972.791    24540972.908    24540978.975
        37.000          28.000
 107043040.00648  83410157.97949  20369607.185    20369607.275    20369612.591
        49.000          54.000
 118812933.24447  92581509.50446  22609343.717    22609343.470    22609351.032
        42.000          39.000
 114908305.38847  89538940.96845  21866323.495    21866322.857    21866326.413
        45.000          32.000
 129776060.82245 101124202.67641  24695567.191    24695565.106    24695577.322
        32.000          10.000
 109810569.64347  85566679.54446  20896249.785    20896250.077    20896255.062
        46.000          38.000
 116657764.64847  90902160.68247  22199235.167    22199235.303    22199238.462
        46.000          45.000
 109131209.022 8  84879839.245 7  20379481.282    20379482.142    20379484.890
        49.000          46.000
 106848371.232 8  83104309.616 8  19960174.552    19960174.697    19960177.885
        52.000          48.000
