     2.11           OBSERVATION DATA    M (MIXED)           RINEX VERSION / TYPE
teqc  2008Oct2                          20220524 02:00:50UTCPGM / RUN BY / DATE
MSXP|IAx86-PII|bcc32 5.0|MSWin95->XP|486/DX+                COMMENT
BIT 2 OF LLI FLAGS DATA COLLECTED UNDER A/S CONDITION       COMMENT
-Unknown-                                                   MARKER NAME
-Unknown-           -Unknown-                               OBSERVER / AGENCY
235-1829            TPS E_GGD           2.3 Aug,01,2003 p2  REC # / TYPE / VERS
-Unknown-           -Unknown-                               ANT # / TYPE
  1240234.4577  4530662.4201  4302599.8359                  APPROX POSITION XYZ
        0.0000        0.0000        0.0000                  ANTENNA: DELTA H/E/N
     1     1                                                WAVELENGTH FACT L1/2
     7    L1    L2    C1    P1    P2    S1    S2            # / TYPES OF OBSERV
 SNR is mapped to RINEX snr flag value [0-9]                COMMENT
  L1 & L2: min(max(int(snr_dBHz/6), 0), 9)                  COMMENT
pseudorange smoothing corrections not applied               COMMENT
rx board ID = AGUS451XLHC                                   COMMENT
  2020     5     1     0     0    0.0000000     GPS         TIME OF FIRST OBS
    14                                                      LEAP SECONDS
                                                            END OF HEADER
 20  5  1  0  0  0.0000000  0 10G 9G22G26R 8G16G31G14G 3G 4R 7
 126422346.44446  98510930.56045  24057372.024    24057372.321    24057377.165
        39.000          33.000
 115418897.19647  89936795.02646  21963479.543    21963478.462    21963480.624
        47.000          36.000
 110097796.29448  85790491.15148  20950910.538    20950910.547    20950917.104
        48.000          49.000
 116071048.454 7  90277502.730 7  21721112.751    21721114.147    21721115.245
        46.000          42.000
 113163844.50247  88179630.79745  21534362.288    21534361.961    21534365.399
        45.000          35.000
 118399111.35347  92259049.05646  22530596.167    22530596.387    22530598.980
        43.000          41.000
 124956647.21846  97368816.88542  23778456.286    23778455.560    23778460.268
        36.000          15.000
 109368921.97948  85222525.34148  20812207.696    20812208.238    20812213.863
        49.000          52.000
 112352275.26747  87547224.83445  21379920.429    21379920.961    21379924.858
        46.000          35.000
 103044720.226 8  80145887.061 8  19283408.982    19283408.825    19283411.683
        52.000          49.000
 20  5  1  0  0 30.0000000  0 10G 9G22G26R 8G16G31G14G 3G 4R 7
 126398190.02246  98492107.37145  24052775.901    24052775.284    24052780.466
        37.000          33.000
 115560106.44647  90046828.19446  21990350.860    21990349.745    21990351.587
        47.000          36.000
 110163480.71948  85841673.82248  20963410.084    20963409.756    20963416.327
        48.000          49.000
 116035655.183 7  90249974.658    21714489.530    21714490.274    21714495.514
        46.000           1.000
 113150994.50747  88169617.80445  21531916.920    21531916.595    21531919.804
        46.000          35.000
 118555565.99847  92380961.74446  22560368.597    22560368.852    22560371.603
        43.000          41.000
 125103197.62445  97483011.94442  23806343.588    23806342.563    23806346.077
        35.000          15.000
 109467600.44948  85299417.64048  20830985.587    20830986.091    20830991.738
        49.000          52.000
 112361677.62847  87554551.35946  21381709.878    21381709.998    21381713.942
        46.000          36.000
 103099207.870 8  80188266.323    19293605.448    19293605.371    19293607.477
        52.000           1.000
 20  5  1  0  1  0.0000000  0 10G 9G22G26R 8G16G31G14G 3G 4R 7
 126374085.91446  98473324.94445  24048187.751    24048187.846    24048193.106
        38.000          32.000
 115701721.42147  90157177.51146  22017299.306    22017298.316    22017299.994
        46.000          36.000
 110229799.71748  85893350.96748  20976030.005    20976029.814    20976036.616
        48.000          50.000
 116000485.534 7                  21707907.695
        46.000
 113138639.17247  88159990.27945  21529566.352    21529565.616    21529569.074
        46.000          35.000
 118712169.90947  92502990.74246  22590169.222    22590169.268    22590171.992
        44.000          41.000
 125249920.27046  97597341.20842  23834263.651    23834262.162    23834268.503
        36.000          15.000
 109566873.39748  85376773.17448  20849876.751    20849877.076    20849882.769
        49.000          52.000
 112371316.07047  87562061.82946  21383543.610    21383544.072    21383548.173
        46.000          36.000
 103335428.224 8                  19303920.667
        52.000
 20  5  1  0  1 30.0000000  0 10G 9G22G26R 8G16G31G14G 3G 4R 7
 126350043.31546  98454590.46145  24043612.882    24043612.998    24043618.157
        38.000          33.000
 115843748.01047  90267847.56846  22044325.995    22044325.096    22044326.900
        47.000          36.000
 110296761.42747  85945528.92148  20988772.243    20988772.244    20988778.844
        47.000          49.000
 116209860.548 7                  21701369.520
        46.000
 113126789.94847  88150757.11945  21527310.736    21527310.617    21527314.203
        45.000          35.000
 118868929.52247  92625141.06446  22619999.884    22619999.843    22620002.477
        44.000          41.000
 125396823.11045  97711810.94442  23862218.410    23862218.363    23862222.018
        35.000          15.000
 109666748.31648  85454597.77548  20868882.531    20868882.757    20868888.327
        49.000          51.000
 112381200.01947  87569763.60846  21385424.724    21385424.929    21385428.928
        45.000          36.000
 103391290.099 8                  19314355.768
        52.000
 20  5  1  0  2  0.0000000  0 10G 9G22G26R 8G16G31G14G 3G 4R 7
 126326051.63446  98435895.63845  24039047.543    24039047.595    24039052.301
        38.000          32.000
 115986172.73047  90378827.84246  22071428.560    22071427.501    22071429.344
        47.000          36.000
 110364354.07548  85998198.52048  21001634.833    21001634.835    21001641.233
        48.000          49.000
 116175079.624 7                  21694874.717
        46.000
 113115437.62247  88141911.13945  21525150.171    21525150.203    21525153.808
        45.000          34.000
 119025831.26647  92747402.13946  22649856.658    22649857.188    22649859.926
        43.000          40.000
 125543894.30846  97826411.86242  23890204.865    23890204.394    23890209.098
        36.000          16.000
 109767212.72548  85532881.71848  20888000.067    20888000.500    20888006.075
        49.000          51.000
 112391319.13247  87577648.63946  21387350.222    21387350.308    21387354.499
        45.000          36.000
 103447786.408 8  80459385.921 8  19324910.085    19324909.981    19324911.321
        53.000          49.000
 20  5  1  0  2 30.0000000  0 10G 9G22G26R 8G16G31G14G 3G 4R 7
 126302116.28846  98417244.70345  24034492.709    24034493.082    24034497.963
        38.000          33.000
 116128997.91847  90490120.18346  22098607.217    22098606.441    22098608.163
        47.000          36.000
 110432581.93448  86051363.08348  21014617.860    21014617.844    21014624.647
        48.000          49.000
 116140533.037 7  90331538.337 7  21688423.316    21688424.492    21688426.311
        46.000          42.000
 113104589.41347  88133457.99145  21523086.290    21523085.672    21523089.439
        45.000          35.000
 119182877.88747  92869776.09746  22679742.008    22679742.360    22679745.037
        43.000          41.000
 125691137.69845  97941146.90742  23918224.999    23918224.062    23918228.907
        35.000          14.000
 109868270.08048  85611627.69448  20907230.552    20907231.074    20907236.629
        50.000          51.000
 112401679.04147  87585721.29346  21389321.765    21389321.725    21389326.040
        46.000          36.000
 103504923.354 8  80503825.748 8  19335583.669    19335583.714    19335586.581
        52.000          49.000
 20  5  1  0  3  0.0000000  0 10G 9G22G26R 8G16G31G14G 3G 4R 7
 126278234.56946  98398635.58445  24029948.671    24029948.753    24029953.793
        38.000          33.000
 116272217.58547  90601719.91645  22125861.241    22125860.161    22125861.880
        47.000          35.000
 110501441.17548  86105019.63148  21027721.856    21027721.504    21027728.012
        48.000          49.000
 116106220.661 7  90304850.928 7  21682015.610    21682017.249    21682018.994
        47.000          42.000
 113094244.67247  88125397.15245  21521117.988    21521117.031    21521120.717
        44.000          35.000
 119340064.11647  92992258.84746  22709653.377    22709653.736    22709656.372
        43.000          40.000
 125838549.26446  98056013.01642  23946277.582    23946276.582    23946281.091
        36.000          16.000
 109969915.81448  85690832.15148  20926573.063    20926573.598    20926579.138
        49.000          51.000
 112412277.31747  87593979.69546  21391338.235    21391338.422    21391342.909
        45.000          36.000
 103562699.291 8  80548762.580 8  19346376.810    19346376.540    19346379.344
        52.000          49.000
 20  5  1  0  3 30.0000000  0 10G 9G22G26R 8G16G31G14G 3G 4R 7
 124678982.51846  97152465.13945  23725620.702    23725621.415    23725626.155
        38.000          34.000
 114840409.90047  89486025.59245  21853396.935    21853395.980    21853398.135
        46.000          35.000
 108995509.64048  84931566.48648  20741152.229    20741152.169    20741158.668
        48.000          49.000
 114466764.977 7  89029718.721 7  21375859.638    21375860.614    21375862.337
        47.000          42.000
 111508981.81347  86890127.38945  21219452.102    21219451.878    21219455.267
        45.000          35.000
 117921968.96247  91887249.59846  22439799.113    22439799.409    22439802.189
        43.000          41.000
 124410709.49145  96943410.53942  23674567.960    23674565.909    23674572.125
        35.000          16.000
 108496728.09948  84542893.65648  20646234.958    20646235.368    20646240.945
        49.000          51.000
 110847691.30147  86374821.75946  21093607.554    21093607.775    21093612.248
        45.000          36.000
 102016300.665 8  79346008.079 8  19057496.495    19057496.164    19057499.201
        52.000          49.000
 20  5  1  0  4  0.0000000  0 10G 9G22G26R 8G16G31G14G 3G 4R 7
 124655208.54846  97133939.96445  23721097.533    23721097.082    23721101.984
        38.000          34.000
 114984409.36847  89598232.95545  21880799.451    21880798.354    21880800.217
        46.000          35.000
 109065628.30948  84986204.40848  20754495.480    20754495.547    20754501.927
        48.000          49.000
 114432927.419 7  89003400.608 7  21369540.326    21369541.404    21369543.601
        46.000          42.000
 111499649.80047  86882855.67845  21217676.739    21217676.055    21217679.529
        46.000          35.000
 118079426.05747  92009943.40746  22469762.627    22469762.763    22469765.097
        44.000          41.000
 124558454.08946  97058536.17242  23702682.739    23702681.384    23702688.036
        36.000          16.000
 108599545.02548  84623010.72848  20665800.352    20665800.691    20665806.324
        49.000          51.000
 110858767.41447  86383452.49646  21095715.147    21095715.676    21095719.964
        45.000          36.000
 102075356.534 8  79391940.412 8  19068528.606    19068528.439    19068531.455
        52.000          49.000
 20  5  1  0  4 30.0000000  0 10G 9G22G26R 8G16G31G14G 3G 4R 7
 124631490.22946  97115458.14645  23716583.137    23716583.321    23716588.901
        38.000          34.000
 115128795.80347  89710741.84945  21908275.295    21908274.199    21908276.009
        47.000          35.000
 109136376.50448  85041332.87548  20767958.505    20767958.450    20767964.790
        48.000          50.000
 114399332.315 7  88977271.070 7  21363266.996    21363268.193    21363269.982
        47.000          43.000
 111490828.40547  86875981.85445  21215997.699    21215997.555    21216000.866
        46.000          35.000
 118237015.97547  92132740.72246  22499750.588    22499750.724    22499753.466
        43.000          41.000
 124706364.78946  97173791.22442  23730829.162    23730830.169    23730833.929
        36.000          16.000
 108702946.22048  84703583.07448  20685476.876    20685477.187    20685483.003
        49.000          51.000
 110870084.50947  86392271.01946  21097869.252    21097869.214    21097873.398
        46.000          36.000
 102135055.017 8  79438372.551 8  19079680.930    19079680.673    19079683.847
        53.000          49.000
 20  5  1  0  5  0.0000000  0 10G 9G22G26R 8G16G31G14G 3G 4R 7
 124607835.03646  97097025.52445  23712082.125    23712081.519    23712087.793
        38.000          34.000
 115273573.21847  89823555.40145  21935825.168    21935824.392    21935826.242
        46.000          35.000
 109207760.42148  85096956.69748  20781542.253    20781542.311    20781548.702
        49.000          49.000
 114365989.237 7  88951337.565 7  21357040.303    21357041.532    21357043.482
        47.000          42.000
 111482526.78147  86869513.04845  21214418.250    21214417.590    21214421.234
        46.000          35.000
 118394743.74947  92255645.45146  22529765.536    22529765.624    22529767.965
        43.000          41.000
 124854447.65546  97289180.39842  23759009.199    23759007.766    23759012.512
        37.000          16.000
 108806937.12748  84784614.93548  20705265.505    20705265.879    20705271.795
        49.000          51.000
 110881650.30347  86401283.32446  21100069.823    21100070.117    21100074.126
        45.000          36.000
 102195405.018 8  79485311.431 8  19090954.758    19090954.597    19090957.547
        52.000          50.000
 20  5  1  0  5 30.0000000  0 10G 9G22G26R 8G16G31G14G 3G 4R 7
 124584242.43746  97078641.67145  23707592.489    23707592.229    23707598.323
        38.000          34.000
 115418737.86547  89936670.70145  21963449.559    21963448.089    21963450.389
        46.000          35.000
 109279778.13348  85153074.39648  20795246.906    20795246.833    20795253.186
        48.000          49.000
 114332899.828 7  88925601.351 7  21350860.950    21350862.272    21350863.901
        47.000          42.000
 111474746.12347  86863450.19245  21212937.673    21212937.025    21212940.758
        46.000          35.000
 118552605.79647  92378654.81046  22559805.471    22559805.581    22559808.526
        43.000          41.000
 125002700.80846  97404702.25642  23787219.887    23787220.362    23787225.107
        36.000          15.000
 108911515.13348  84866104.27948  20725166.164    20725166.395    20725172.304
        49.000          51.000
 110893464.52647  86410489.21546  21102318.053    21102318.268    21102322.275
        46.000          36.000
 102256405.844 8  79532756.508 8  19102350.155    19102350.078    19102353.149
        52.000          49.000
 20  5  1  0  6  0.0000000  0 10G 9G22G26R 8G16G31G14G 3G 4R 7
 124560710.79046  97060305.31745  23703113.905    23703114.155    23703120.338
        38.000          34.000
 115564285.08047  90050084.10545  21991145.887    21991144.895    21991146.999
        46.000          35.000
 109352426.65948  85209683.63548  20809071.232    20809071.291    20809077.746
        48.000          49.000
 114300064.991 7  88900063.145 7  21344728.759    21344729.866    21344732.054
        47.000          42.000
 111467486.47647  86857793.32645  21211556.350    21211555.744    21211559.260
        46.000          35.000
 118710597.88947  92501765.51046  22589870.601    22589870.712    22589873.286
        44.000          41.000
 125151121.20845  97520354.46742  23815463.344    23815462.564    23815465.814
        35.000          15.000
 109016676.47548  84948048.16848  20745177.629    20745177.991    20745183.875
        49.000          51.000
 110905525.76247  86419887.57946  21104613.106    21104613.431    21104617.540
        47.000          36.000
 102318056.956 8  79580707.355 8  19113867.137    19113866.884    19113869.970
        52.000          49.000
 20  5  1  0  6 30.0000000  0 10G 9G22G26R 8G16G31G14G 3G 4R 7
 124537247.63946  97042022.33745  23698649.053    23698649.352    23698655.456
        38.000          34.000
 115710219.18147  90163798.97445  22018916.371    22018915.390    22018917.216
        46.000          35.000
 109425712.05148  85266789.13448  20823017.137    20823017.234    20823023.598
        48.000          49.000
 114267494.117 7  88874730.227 7  21338647.330    21338647.589    21338649.650
        47.000          42.000
 111460757.17447  86852549.70646  21210275.627    21210275.245    21210278.609
        46.000          36.000
 118868724.78147  92624981.24446  22619961.560    22619961.390    22619963.628
        44.000          40.000
 125299714.69045  97636141.55442  23843739.856    23843739.328    23843743.051
        35.000          15.000
 109122426.49448  85030450.76448  20765301.351    20765301.631    20765307.385
        48.000          51.000
 110917841.68947  86429484.40046  21106956.853    21106956.986    21106961.008
        46.000          36.000
 102380366.142 8  79629170.045 8  19125507.231    19125506.914    19125509.902
        52.000          49.000
 20  5  1  0  7  0.0000000  0 10G 9G22G26R 8G16G31G14G 3G 4R 7
 124513844.55646  97023786.17645  23694196.198    23694195.890    23694201.769
        39.000          35.000
 115856528.17847  90277805.97345  22046757.865    22046757.013    22046758.825
        46.000          35.000
 109499624.47548  85324383.22348  20837082.071    20837082.043    20837088.741
        48.000          49.000
 114235180.955 7  88849597.782 7  21332612.319    21332613.720    21332615.393
        46.000          42.000
 111454551.09147  86847713.79445  21209094.721    21209094.046    21209097.677
        46.000          35.000
 119026975.32147  92748293.32446  22650075.155    22650075.527    22650077.907
        44.000          41.000
 125448471.61445  97752056.01942  23872047.641    23872047.033    23872053.452
        35.000          15.000
 109228754.62248  85113303.83948  20785534.933    20785535.220    20785540.921
        49.000          51.000
 110930404.13047  86439273.32046  21109347.269    21109347.778    21109351.577
        46.000          36.000
 102443325.608 8  79678138.502 8  19137268.431    19137268.314    19137271.147
        52.000          49.000
 20  5  1  0  7 30.0000000  0 10G 9G22G26R 8G16G31G14G 3G 4R 7
 124490507.26146  97005601.27645  23689755.231    23689755.006    23689760.836
        38.000          35.000
 116003214.45847  90392106.95545  22074671.344    22074670.472    22074672.725
        46.000          35.000
 109574168.03348  85382469.11448  20851267.489    20851267.410    20851273.815
        48.000          49.000
 114203133.406 7  88824671.897 7  21326628.143    21326628.866    21326630.480
        47.000          42.000
 111448875.68647  86843291.39646  21208014.752    21208014.222    21208017.421
        46.000          36.000
 119185352.02847  92871703.70646  22680213.268    22680213.557    22680216.057
        44.000          40.000
 125597396.12445  97868100.98642  23900387.269    23900385.839    23900390.565
        34.000          14.000
 109335664.25648  85196610.03548  20805879.130    20805879.428    20805885.147
        49.000          51.000
 110943218.91547  86449258.86646  21111786.015    21111786.266    21111790.201
        46.000          36.000
 102506941.438 8  79727617.471 8  19149152.280    19149152.191    19149155.067
        52.000          49.000
 20  5  1  0  8  0.0000000  0 10G 9G22G26R 8G16G31G14G 3G 4R 7
 124467228.25446  96987461.78045  23685324.998    23685325.179    23685331.034
        38.000          35.000
 116150267.32747  90506693.59045  22102654.713    22102653.825    22102655.785
        46.000          35.000
 109649333.81648  85441039.85048  20865571.040    20865570.878    20865577.452
        48.000          49.000
 114171345.765 7  88799948.180 7  21320691.958    21320692.541    21320694.420
        46.000          43.000
 111443725.25347  86839278.06946  21207034.555    21207034.118    21207037.525
        46.000          36.000
 119343844.88547  92995204.61646  22710373.314    22710373.816    22710375.982
        43.000          40.000
 125746479.34645  97984269.68942  23928756.181    23928753.435    23928761.526
        34.000          13.000
 109443145.69948  85280361.79748  20826332.314    20826332.581    20826338.269
        48.000          51.000
 110956278.82247  86459435.41146  21114271.436    21114271.407    21114275.246
        46.000          37.000
 102571206.607 8  79777601.481 8  19161157.444    19161157.453    19161160.516
        52.000          49.000
 20  5  1  0  8 30.0000000  0 10G 9G22G26R 8G16G31G14G 3G 4R 7
 124444014.46046  96969373.12645  23680907.757    23680907.706    23680913.292
        39.000          35.000
 116297690.10847  90621568.47545  22130708.512    22130707.613    22130709.520
        47.000          35.000
 109725127.19448  85500099.61648  20879994.034    20879993.994    20880000.359
        48.000          49.000
 114139827.544 7  88775434.007 7  21314805.623    21314806.925    21314808.931
        47.000          43.000
 111439108.09547  86835680.28546  21206156.006    21206155.451    21206159.094
        46.000          36.000
 119502458.21747  93118799.40846  22740556.814    22740556.841    22740558.845
        44.000          39.000
 125895726.64845  98100566.23942  23957157.342    23957157.815    23957160.833
        34.000          13.000
 109551203.66848  85364562.79148  20846895.032    20846895.316    20846901.024
        48.000          51.000
 110969591.02447  86469808.55746  21116804.686    21116804.731    21116808.629
        46.000          37.000
 102636128.694 8  79828096.421 8  19173285.740    19173285.514    19173288.453
        52.000          49.000
 20  5  1  0  9  0.0000000  0 10G 9G22G26R 8G16G31G14G 3G 4R 7
 124420875.22846  96951342.54845  23676504.404    23676504.253    23676510.015
        39.000          34.000
 116445489.00747  90736736.43245  22158833.606    22158832.668    22158834.646
        46.000          34.000
 109801555.85048  85559654.41348  20894537.871    20894537.708    20894544.098
        48.000          49.000
 114108590.396 7  88751138.445 7  21308972.920    21308973.984    21308975.669
        47.000          43.000
 111435034.87947  86832506.33246  21205380.466    21205380.503    21205383.896
        46.000          36.000
 119661198.45847  93242493.08546  22770763.934    22770764.253    22770766.528
        44.000          40.000
 126045146.02945  98216996.87242  23985591.042    23985589.516    23985596.105
        34.000          13.000
 109659845.12348  85449218.45748  20867568.725    20867569.009    20867574.830
        48.000          51.000
 110983164.96847  86480385.64346  21119387.354    21119387.705    21119391.897
        46.000          37.000
 102701717.297 8  79879109.767 8  19185538.433    19185537.992    19185541.043
        52.000          49.000
 20  5  1  0  9 30.0000000  0 10G 9G22G26R 8G16G31G14G 3G 4R 7
 124397796.86946  96933359.41645  23672112.759    23672112.668    23672118.089
        40.000          34.000
 116593646.72847  90852183.99145  22187026.778    22187026.194    22187028.089
        46.000          34.000
 109878604.45847  85619692.28848  20909200.126    20909199.795    20909206.214
        47.000          49.000
 114077622.410 8  88727052.231 7  21303189.094    21303190.997    21303193.173
        48.000          43.000
 111431493.69947  86829746.97346  21204706.904    21204706.436    21204710.179
        46.000          36.000
 119820049.20047  93366272.85146  22800992.377    22800992.433    22800995.096
        44.000          40.000
 126194722.09945  98333549.59442  24014055.226    24014054.789    24014058.615
        35.000          14.000
 109769053.98648  85534316.26048  20888350.297    20888350.745    20888356.553
        48.000          51.000
 110996987.12347  86491156.15946  21122017.937    21122017.925    21122022.148
        47.000          37.000
 102767958.898 8  79930630.994 8  19197912.458    19197912.371    19197915.565
        52.000          49.000
 20  5  1  0 10  0.0000000  0 10G 9G22G26R 8G16G31G14G 3G 4R 7
 124374796.43746  96915437.01945  23667735.804    23667736.003    23667741.095
        38.000          34.000
 116742176.91047  90967921.79145  22215291.464    22215290.473    22215292.303
        46.000          34.000
 109956288.44748  85680225.26148  20923982.390    20923982.421    20923989.021
        48.000          49.000
 114046942.958 8  88703190.422 7  21297461.093    21297461.395    21297463.788
        48.000          43.000
 111428502.94047  86827416.51546  21204137.899    21204137.248    21204140.920
        46.000          36.000
 119979024.40447  93490149.60446  22831244.545    22831244.477    22831246.796
        43.000          40.000
 126344470.48645  98450236.58142  24042551.636    24042551.193    24042553.707
        35.000          13.000
 109878845.04948  85619867.71848  20909243.029    20909243.514    20909249.147
        49.000          51.000
 111011074.83647  86502133.59046  21124698.613    21124698.690    21124702.784
        47.000          37.000
 102834871.416 8  79982674.053 8  19210412.268    19210412.356    19210415.254
        52.000          49.000
 20  5  1  0 10 30.0000000  0 10G 9G22G26R 8G16G31G14G 3G 4R 7
 124351872.93646  96897574.55345  23663373.753    23663373.484    23663378.683
        39.000          35.000
 116891075.44847  91083946.60845  22243625.929    22243624.728    22243626.784
        46.000          34.000
 110034605.12948  85741251.24648  20938885.670    20938885.646    20938892.254
        48.000          49.000
 114016553.403 7  88679554.103 7  21291785.292    21291786.831    21291788.800
        47.000          43.000
 111426062.78147  86825515.08046  21203673.467    21203672.824    21203676.470
        46.000          36.000
 120138120.30047  93614120.40246  22861519.242    22861519.503    22861521.987
        43.000          40.000
 126494388.60245  98567055.81742  24071079.014    24071079.721    24071083.354
        35.000          13.000
 109989214.79848  85705870.10448  20930245.731    20930246.137    20930251.750
        49.000          51.000
 111025427.22847  86513317.26846  21127429.803    21127429.992    21127433.865
        46.000          37.000
 102902453.857 8  80035238.158 8  19223037.118    19223037.279    19223040.391
        52.000          49.000
 20  5  1  0 11  0.0000000  0 10G 9G22G26R 8G16G31G14G 3G 4R 7
 124329009.47646  96879758.86645  23659022.988    23659022.599    23659028.132
        38.000          35.000
 117040321.82547  91200242.46745  22272026.137    22272025.567    22272027.569
        45.000          34.000
 110113535.85247  85802755.70448  20953905.374    20953905.393    20953912.358
        47.000          49.000
 113986438.655 7  88656131.506 7  21286161.442    21286162.648    21286164.860
        47.000          43.000
 111424158.19647  86824030.98346  21203310.822    21203310.408    21203314.053
        46.000          36.000
 120297317.44547  93738170.09846  22891813.250    22891813.398    22891816.203
        43.000          39.000
 126644457.99846  98683992.94542  24099636.231    24099634.470    24099638.336
        36.000          14.000
 110100144.00248  85792308.43348  20951355.086    20951355.348    20951360.901
        48.000          51.000
 111040027.57047  86524694.16046  21130208.450    21130208.413    21130212.343
        46.000          38.000
 102970689.131 8  80088310.024 8  19235784.418    19235784.075    19235787.213
        52.000          49.000
 20  5  1  0 11 30.0000000  0 10G 9G22G26R 8G16G31G14G 3G 4R 7
 124306210.54846  96861993.47245  23654684.306    23654684.035    23654690.049
        38.000          35.000
 117189916.92147  91316810.06045  22300493.504    22300492.440    22300494.682
        46.000          34.000
 110193083.39848  85864740.79948  20969042.866    20969042.935    20969049.751
        48.000          49.000
 113956605.654 7  88632928.060 7  21280590.517    21280591.820    21280593.434
        47.000          43.000
 111422794.95747  86822968.71146  21203051.517    21203051.138    21203054.738
        46.000          36.000
 120456617.53847  93862300.01146  22922127.232    22922127.447    22922130.200
        43.000          40.000
 126794681.74346  98801050.35342  24128224.602    24128223.733    24128226.700
        36.000          13.000
 110211634.67848  85879184.26848  20972570.908    20972571.317    20972576.819
        49.000          51.000
 111054880.56847  86536267.92246  21133034.745    21133034.833    21133038.649
        47.000          37.000
 103039582.520 8  80141893.753 8  19248654.421    19248654.261    19248657.110
        53.000          49.000
 20  5  1  0 12  0.0000000  0 10G 9G22G26R 8G16G31G14G 3G 4R 7
 124283482.72746  96844283.47645  23650359.113    23650359.250    23650365.125
        38.000          35.000
 117339864.17347  91433652.05845  22329027.456    22329026.586    22329028.718
        46.000          34.000
 110273252.46247  85927210.19948  20984298.512    20984298.682    20984305.502
        47.000          49.000
 113927063.066 7  88609950.485 7  21275073.079    21275074.733    21275076.441
        47.000          43.000
 111421981.05347  86822334.49246  21202897.058    21202896.580    21202899.780
        47.000          36.000
 120616024.43547  93986513.14646  22952460.949    22952461.449    22952464.416
        42.000          39.000
 126945064.70146  98918231.83242  24156840.243    24156838.863    24156844.152
        36.000          13.000
 110323690.85048  85966500.75048  20993894.536    20993894.884    20993900.401
        49.000          51.000
 111069992.92347  86548043.78246  21135910.308    21135910.361    21135914.531
        46.000          37.000
 103109140.661 8  80195994.518 8  19261648.151    19261648.179    19261651.249
        52.000          49.000
 20  5  1  0 12 30.0000000  0 10G 9G22G26R 8G16G31G14G 3G 4R 7
 124260826.52646  96826629.30045  23646048.762    23646048.043    23646053.583
        39.000          35.000
 117490160.25347  91550765.87245  22357628.097    22357627.288    22357629.115
        46.000          34.000
 110354041.81248  85990162.93848  20999672.334    20999672.172    20999679.083
        48.000          49.000
 113897813.415 7  88587200.751 7  21269611.961    21269612.613    21269614.263
        47.000          43.000
 111421717.97147  86822129.49346  21202846.610    21202846.136    21202849.738
        46.000          37.000
 120775535.71947  94110807.62246  22982814.833    22982815.363    22982817.952
        42.000          39.000
 127095605.98046  99035536.65342  24185487.578    24185486.399    24185492.149
        36.000          15.000
 110436310.60348  86054256.38448  21015325.289    21015325.691    21015331.255
        49.000          51.000
 111085365.36747  86560022.30646  21138835.733    21138835.345    21138839.771
        46.000          37.000
 103179364.270 8  80250612.862 8  19274766.624    19274766.509    19274769.628
        53.000          49.000
 20  5  1  0 13  0.0000000  0 10G 9G22G26R 8G16G31G14G 3G 4R 7
 124238236.60246  96809026.75345  23641749.385    23641749.127    23641754.727
        39.000          35.000
 117640796.41747  91668144.68345  22386293.399    22386292.196    22386294.395
        46.000          34.000
 110435444.21048  86053593.36848  21015162.459    21015162.670    21015169.246
        48.000          49.000
 113868853.813 8  88564676.615 7  21264203.666    21264204.917    21264206.109
        48.000          43.000
 111422002.08447  86822350.86846  21202900.269    21202900.207    21202903.957
        46.000          37.000
 120935143.28447  94235177.11246  23013187.405    23013187.691    23013190.511
        42.000          38.000
 127246298.66746  99152959.43242  24214161.866    24214163.213    24214167.085
        36.000          14.000
 110549485.96648  86142444.96548  21036861.821    21036862.197    21036867.855
        48.000          51.000
 111100992.64947  86572199.41046  21141809.371    21141809.335    21141813.557
        46.000          37.000
 103250248.024 8  80305744.661 8  19288008.114    19288008.222    19288011.149
        53.000          49.000
 20  5  1  0 13 30.0000000  0 10G 9G22G26R 8G16G31G14G 3G 4R 7
 124215713.38446  96791476.19545  23637463.203    23637462.917    23637468.964
        38.000          35.000
 117791769.55347  91785786.07645  22415022.323    22415021.507    22415023.775
        45.000          34.000
 110517458.12948  86117500.32048  21030769.619    21030769.458    21030776.072
        48.000          49.000
 113840186.533 8  88542379.834 7  21258850.822    21258852.033    21258852.943
        48.000          44.000
 111422834.81047  86822999.74846  21203059.105    21203058.690    21203062.309
        46.000          37.000
 121094844.66847  94359619.71646  23043577.874    23043577.595    23043580.741
        42.000          38.000
 127397141.08346  99270498.95442  24242867.806    24242866.696    24242871.064
        36.000          16.000
 110663214.76648  86231064.79448  21058503.654    21058504.098    21058509.835
        49.000          50.000
 111116875.31847  86584575.51946  21144831.814    21144831.765    21144835.779
        46.000          37.000
 103321791.973 8  80361389.940 8  19301373.268    19301373.249    19301375.887
        52.000          49.000
 20  5  1  0 14  0.0000000  0 10G 9G22G26R 8G16G31G14G 3G 4R 7
 124193279.13746  96773994.96846  23633194.170    23633194.226    23633199.764
        39.000          36.000
 117943098.27047  91903704.53545  22443819.347    22443818.445    22443820.389
        45.000          34.000
 110600104.01547  86181899.70848  21046496.538    21046496.380    21046503.088
        47.000          49.000
 113811836.644 8  88520329.916 7  21253556.521    21253557.593    21253559.050
        48.000          43.000
 111424239.69047  86824094.45846  21203326.429    21203326.101    21203329.753
        47.000          37.000
 121254659.74347  94484150.89046  23073989.623    23073990.101    23073992.850
        42.000          39.000
 127548154.26446  99388171.52442  24271605.293    24271604.461    24271608.606
        36.000          15.000
 110777516.78448  86320131.28548  21080254.614    21080255.092    21080260.831
        48.000          51.000
 111133035.87647  86597168.15646  21147906.887    21147907.145    21147911.149
        46.000          37.000
 103394019.536 8  80417566.914 8  19314866.321    19314866.123    19314868.829
        53.000          49.000
 20  5  1  0 14 30.0000000  0 10G 9G22G26R 8G16G31G14G 3G 4R 7
 124170920.86446  96756572.93346  23628939.769    23628939.802    23628945.449
        40.000          36.000
 118094766.48547  92021887.53545  22472680.849    22472679.848    22472682.024
        46.000          34.000
 110683366.83148  86246779.82248  21062340.847    21062340.932    21062347.459
        48.000          49.000
 113783793.070 8  88498518.233 7  21248319.216    21248320.698    21248322.453
        48.000          44.000
 111426205.00947  86825625.87046  21203700.459    21203700.363    21203703.771
        47.000          37.000
 121414572.62247  94608758.30346  23104420.195    23104420.484    23104423.019
        42.000          39.000
 127699323.70345  99505965.84142  24300371.387    24300370.434    24300374.383
        35.000          15.000
 110892376.24948  86409632.15148  21102111.575    21102112.074    21102117.865
        49.000          51.000
 111149461.42047  86609967.28246  21151032.729    21151032.963    21151036.702
        46.000          37.000
 103466917.028 8  80474264.953 8  19328484.070    19328483.909    19328486.946
        52.000          49.000
 20  5  1  0 15  0.0000000  0 10G 9G22G26R 8G16G31G14G 3G 4R 7
 122573216.49646  95511608.50046  23324907.273    23324906.936    23324912.265
        40.000          36.000
 116671354.00547  90912734.94345  22201814.567    22201813.504    22201815.763
        45.000          33.000
 109191826.08047  85084540.27848  20778509.833    20778509.993    20778516.546
        47.000          49.000
 112150680.704 8  87228319.726 7  20943346.596    20943348.182    20943350.287
        48.000          44.000
 109853310.89647  85599994.09146  20904388.855    20904388.460    20904391.821
        46.000          37.000
 119999164.50947  93505842.85246  22835077.200    22835077.127    22835079.915
        42.000          38.000
 126275231.47245  98396283.50342  24029374.946    24029374.963    24029379.898
        35.000          14.000
 109432373.13448  85271967.36848  20824282.230    20824282.707    20824288.552
        49.000          50.000
 109590731.37247  85395372.43846  20854416.132    20854416.308    20854420.379
        46.000          38.000
 101935673.267 8  79283297.569 8  19042434.739    19042434.661    19042437.808
        52.000          49.000
 20  5  1  0 15 30.0000000  0 10G 9G22G26R 8G16G31G14G 3G 4R 7
 122551012.69446  95494306.83246  23320681.799    23320681.670    23320686.778
        40.000          36.000
 116823692.19947  91031440.00145  22230803.238    22230802.059    22230804.566
        45.000          33.000
 109276319.32448  85150379.16348  20794588.780    20794588.508    20794595.194
        48.000          49.000
 112123258.402 8  87206991.259 7  20938226.126    20938227.036    20938229.443
        48.000          44.000
 109856403.27647  85602403.73846  20904977.183    20904976.968    20904980.372
        47.000          37.000
 120159267.19447  93630598.14546  22865543.335    22865543.542    22865546.367
        42.000          39.000
 126426710.86345  98514319.34442  24058199.917    24058199.310    24058206.198
        35.000          13.000
 109548342.11248  85362332.79348  20846350.509    20846350.892    20846356.692
        48.000          50.000
 109607689.82647  85408586.81346  20857643.314    20857643.469    20857647.583
        47.000          38.000
 102009913.399 8  79341039.879 8  19056303.250    19056303.462    19056306.471
        52.000          49.000
 20  5  1  0 16  0.0000000  0 10G 9G22G26R 8G16G31G14G 3G 4R 7
 122528886.27346  95477065.46346  23316471.136    23316470.971    23316475.958
        39.000          36.000
 116976359.97447  91150401.88745  22259855.050    22259854.296    22259856.609
        45.000          33.000
 109361424.85147  85216695.15748  20810783.496    20810783.594    20810790.226
        47.000          49.000
 112096150.305 8  87185907.179 7  20933163.767    20933165.132    20933167.303
        48.000          44.000
 109860061.06247  85605253.95946  20905673.322    20905672.858    20905676.265
        47.000          37.000
 120319460.49347  93755424.05946  22896027.557    22896027.420    22896030.013
        43.000          38.000
 126578342.76445  98632474.05842  24087056.185    24087056.226    24087060.351
        34.000          13.000
 109664861.95647  85453127.46048  20868523.533    20868523.891    20868529.691
        47.000          50.000
 109624915.13147  85422009.12346  20860921.246    20860921.283    20860925.412
        46.000          38.000
 102084824.919 8  79399304.378 8  19070297.605    19070297.288    19070300.568
        52.000          49.000
 20  5  1  0 16 30.0000000  0 10G 9G22G26R 8G16G31G14G 3G 4R 7
 122506838.70346  95459885.54646  23312275.213    23312274.972    23312280.324
        38.000          36.000
 117129355.62447  91269619.24945  22288969.324    22288968.297    22288970.545
        45.000          33.000
 109447142.07347  85283487.79348  20827094.919    20827094.971    20827101.534
        47.000          48.000
 112069360.053 8  87165070.314 7  20928160.451    20928161.642    20928164.077
        48.000          44.000
 109864286.93247  85608546.84246  20906477.753    20906477.208    20906480.373
        47.000          37.000
 120479743.24347  93880319.67146  22926528.212    22926528.437    22926531.054
        42.000          38.000
 126730127.18145  98750747.54542  24115938.728    24115939.745    24115946.565
        35.000          13.000
 109781931.36447  85544350.35948  20890800.941    20890801.473    20890807.218
        47.000          50.000
 109642408.87647  85435640.60646  20864249.989    20864250.259    20864254.392
        46.000          38.000
 102160408.967 8  79458091.957 8  19084417.368    19084417.126    19084420.213
        52.000          49.000
 20  5  1  0 17  0.0000000  0 10G 9G22G26R 8G16G31G14G 3G 4R 7
 122484869.46546  95442766.65445  23308094.597    23308094.118    23308099.774
        39.000          35.000
 117282674.79347  91389088.71745  22318145.265    22318144.155    22318146.532
        45.000          33.000
 109533468.26347  85350754.95148  20843522.401    20843522.455    20843529.067
        47.000          49.000
 112042889.157 8  87144481.827 7  20923217.518    20923218.823    20923220.595
        48.000          44.000
 109869081.35147  85612282.75646  20907390.042    20907389.395    20907392.701
        46.000          37.000
 120640112.21147  94005282.45946  22957045.352    22957045.639    22957048.301
        42.000          38.000
 126882061.69145  98869138.10142  24144851.525    24144850.402    24144856.711
        34.000          12.000
 109899546.95548  85635998.85948  20913182.600    20913183.064    20913188.783
        49.000          50.000
 109660170.54947  85449480.86446  20867630.536    20867630.474    20867634.195
        46.000          38.000
 102236664.960 8  79517402.158 8  19098662.586    19098662.445    19098665.478
        52.000          49.000
 20  5  1  0 17 30.0000000  0 10G 9G22G26R 8G16G31G14G 3G 4R 7
 122462991.64846  95425719.00545  23303930.810    23303930.742    23303936.443
        39.000          35.000
 117436326.86147  91508817.57545  22347383.938    22347383.202    22347385.315
        45.000          33.000
 109620414.42348  85418505.20448  20860067.881    20860067.634    20860074.318
        48.000          49.000
 112016753.104 8  87124153.783 7  20918336.483    20918338.076    20918339.694
        48.000          44.000
 109874458.26047  85616472.54246  20908412.862    20908412.544    20908416.008
        47.000          37.000
 120800577.76347  94130320.52746  22987580.789    22987581.256    22987583.852
        42.000          37.000
 127034157.67945  98987654.33242  24173794.350    24173793.005    24173797.451
        35.000          13.000
 110017719.07448  85728081.01248  20935670.147    20935670.531    20935676.201
        48.000          50.000
 109678213.52047  85463540.32246  20871063.959    20871063.868    20871067.884
        46.000          38.000
 102313606.056 8  79577245.218 8  19113035.732    19113035.796    19113038.766
        53.000          49.000
 20  5  1  0 18  0.0000000  0 10G 9G22G26R 8G16G31G14G 3G 4R 7
 122441190.35746  95408730.98946  23299782.338    23299781.925    23299788.026
        38.000          36.000
 117590293.19047  91628791.31945  22376682.533    22376681.761    22376684.198
        45.000          33.000
 109707963.47248  85486725.23948  20876727.871    20876727.947    20876734.332
        48.000          49.000
 111990939.059 8  87104076.186 7  20913515.858    20913517.352    20913519.236
        48.000          44.000
 109880404.12547  85621105.68746  20909544.322    20909543.987    20909547.392
        47.000          37.000
 120961122.28747  94255420.12746  23018131.850    23018131.876    23018134.296
        42.000          37.000
 127186398.48545  99106283.52442  24202766.202    24202763.052    24202770.352
        34.000          13.000
 110136430.00248  85820583.01948  20958260.034    20958260.348    20958266.158
        49.000          50.000
 109696522.85647  85477807.33746  20874547.849    20874547.716    20874551.959
        46.000          38.000
 102391216.996 8  79637609.266 8  19127534.548    19127534.165    19127537.231
        53.000          49.000
 20  5  1  0 18 30.0000000  0 10G 9G22G26R 8G16G31G14G 3G 4R 7
 122419463.89346  95391801.27345  23295648.766    23295647.694    23295653.578
        40.000          35.000
 117744568.43447  91749005.77345  22406040.404    22406039.483    22406041.751
        45.000          33.000
 109796111.46748  85555411.98548  20893501.698    20893501.904    20893508.373
        48.000          49.000
 111965447.223 8  87084249.202 7  20908755.200    20908756.980    20908758.485
        48.000          44.000
 109886918.09247  85626181.50346  20910783.868    20910783.415    20910787.046
        47.000          37.000
 121121741.23347  94380577.71446  23048696.798    23048696.713    23048699.256
        43.000          39.000
 127338780.92845  99225023.03141  24231763.492    24231762.792    24231765.409
        34.000          11.000
 110255675.14248  85913501.29648  20980951.700    20980951.953    20980957.742
        48.000          50.000
 109715097.01847  85492280.70046  20878082.141    20878082.361    20878086.501
        47.000          38.000
 102469495.591 8  79698492.605 8  19142157.229    19142157.286    19142160.255
        53.000          49.000
 20  5  1  0 19  0.0000000  0 10G 9G22G26R 8G16G31G14G 3G 4R 7
 122397822.59146  95374937.92646  23291530.617    23291529.707    23291535.580
        40.000          36.000
 117899159.21347  91869466.10845  22435458.201    22435456.931    22435459.447
        44.000          32.000
 109884866.52247  85624571.76448  20910391.469    20910391.295    20910397.910
        47.000          49.000
 111940290.513 8  87064682.863 7  20904058.104    20904059.254    20904060.739
        48.000          44.000
 109894011.42447  85631708.77646  20912133.813    20912133.377    20912136.988
        47.000          37.000
 121282442.24947  94505799.24546  23079276.834    23079277.366    23079279.556
        42.000          38.000
 127491313.62245  99343879.59942  24260788.453    24260787.805    24260790.132
        34.000          12.000
 110375461.97548  86006841.66848  21003746.519    21003746.699    21003752.382
        48.000          50.000
 109733946.45247  85506968.56546  20881669.106    20881669.135    20881673.568
        46.000          38.000
 102548452.076 8  79759903.195 8  19156907.188    19156906.819    19156909.981
        52.000          49.000
 20  5  1  0 19 30.0000000  0 10G 9G22G26R 8G16G31G14G 3G 4R 7
 122376270.26746  95358143.90046  23287429.368    23287428.785    23287434.306
        40.000          36.000
 118054065.69347  91990172.43145  22464935.633    22464934.601    22464937.003
        44.000          32.000
 109974230.15148  85694205.75548  20927396.508    20927396.603    20927403.151
        48.000          49.000
 111915474.805 8  87045381.755 7  20899423.946    20899425.039    20899426.700
        48.000          44.000
 109901689.11647  85637691.38846  20913594.942    20913594.359    20913597.971
        47.000          38.000
 121443226.18147  94631085.40246  23109873.391    23109873.171    23109875.840
        42.000          37.000
 127643998.47745  99462854.76041  24289843.248    24289845.088    24289847.528
        33.000          11.000
 110495791.32148  86100604.77848  21026644.305    21026644.706    21026650.339
        48.000          50.000
 109753075.05847  85521873.97046  20885309.184    20885309.391    20885313.713
        46.000          38.000
 102628090.092 8  79821843.852 8  19171784.169    19171784.032    19171787.148
        52.000          49.000
 20  5  1  0 20  0.0000000  0 10G 9G22G26R 8G16G31G14G 3G 4R 7
 122354797.26346  95341411.68746  23283343.015    23283342.857    23283348.280
        40.000          37.000
 118209274.37447  92111114.23145  22494470.769    22494469.774    22494472.384
        44.000          32.000
 110064190.40147  85764304.65148  20944515.579    20944515.418    20944522.068
        47.000          49.000
 111890992.404 8  87026339.886 7  20894852.447    20894853.261    20894854.989
        48.000          44.000
 109909942.33647  85644122.47246  20915165.500    20915165.030    20915168.591
        47.000          38.000
 121604080.69947  94756426.55646  23140482.723    23140482.674    23140485.453
        42.000          37.000
 127796824.04845  99581939.54041  24318924.589    24318925.883    24318929.719
        33.000          10.000
 110616650.67548  86194780.88248  21049643.371    21049643.497    21049649.113
        48.000          50.000
 109772473.32647  85536989.49746  20889000.793    20889000.640    20889005.020
        46.000          38.000
 102708399.369 8  79884306.604 8  19186786.651    19186786.573    19186789.544
        52.000          49.000
 20  5  1  0 20 30.0000000  0 10G 9G22G26R 8G16G31G14G 3G 4R 7
 122333409.36446  95324745.79046  23279272.785    23279272.853    23279278.258
        40.000          37.000
 118364787.44947  92232293.23245  22524063.669    22524062.811    22524065.777
        44.000          32.000
 110154750.69648  85834871.10648  20961748.512    20961748.534    20961755.200
        48.000          49.000
 111866851.508 8  87007563.627 7  20890343.567    20890345.047    20890347.008
        48.000          44.000
 109918777.58347  85651007.07946  20916846.888    20916846.384    20916849.937
        47.000          38.000
 121765008.91847  94881825.12846  23171106.433    23171106.629    23171109.359
        42.000          37.000
 127949794.39045  99701137.13341  24348035.243    24348032.436    24348040.954
        33.000           9.000
 110738042.74648  86289372.08848  21072743.180    21072743.714    21072749.341
        49.000          50.000
 109792147.04247  85552319.66446  20892743.974    20892744.483    20892748.553
        46.000          38.000
 102789385.250 8  79947295.601 8  19201915.644    19201915.549    19201918.490
        53.000          49.000
 20  5  1  0 21  0.0000000  0 10G 9G22G26R 8G16G31G14G 3G 4R 7
 122312095.27346  95308137.40446  23275217.638    23275217.348    23275222.282
        41.000          38.000
 118520589.85647  92353697.68645  22553712.250    22553710.951    22553713.792
        44.000          32.000
 110245897.39047  85905894.50248  20979093.123    20979093.197    20979099.870
        47.000          48.000
 111843042.693 8  86989045.654 7  20885897.852    20885898.896    20885900.803
        48.000          45.000
 109928184.42147  85658337.08146  20918636.642    20918636.466    20918639.912
        47.000          38.000
 121925996.50847  95007269.96046  23201741.480    23201741.418    23201744.388
        42.000          38.000
 128102896.46745  99820437.3784   24377167.885    24377165.453    24377173.005
        32.000           5.000
 110859953.29848  86384367.30848  21095942.018    21095942.400    21095948.135
        48.000          50.000
 109812085.02847  85567855.75846  20896538.730    20896538.746    20896542.760
        47.000          38.000
 102871035.835 8  80010801.598 8  19217168.726    19217168.422    19217171.363
        53.000          50.000
 20  5  1  0 21 30.0000000  0 10G 9G22G26R 8G16G31G14G 3G 4R 7
 122290868.93046  95291597.39446  23271177.486    23271178.108    23271182.906
        41.000          38.000
 118676691.51147  92475335.31145  22583417.620    22583416.519    22583419.068
        44.000          32.000
 110337641.94248  85977383.76048  20996551.762    20996551.635    20996558.333
        48.000          49.000
 111819582.189 8  86970798.588 7  20881516.677    20881517.776    20881519.790
        48.000          45.000
 109938177.64047  85666124.00546  20920538.384    20920538.125    20920541.450
        47.000          38.000
 122087055.03647  95132770.07146  23232389.772    23232389.784    23232392.532
        42.000          37.000
 128256142.34145  99939849.69541  24406331.481    24406325.855    24406333.335
        30.000           7.000
 110982393.15848  86479774.97248  21119241.598    21119241.934    21119247.635
        49.000          49.000
 109832301.25847  85583608.65646  20900385.518    20900385.744    20900389.739
        47.000          38.000
 102953364.707 8  80074835.147 8  19232548.407    19232548.221    19232551.295
        52.000          49.000
 20  5  1  0 22  0.0000000  0 10G 9G22G26R 8G16G31G14G 3G 4R 7
 122269733.58646  95275128.30346  23267156.213    23267156.175    23267161.090
        41.000          38.000
 118833092.17647  92597205.94145  22613179.627    22613178.908    22613181.238
        45.000          32.000
 110429985.29248  86049339.61348  21014124.059    21014123.930    21014130.621
        48.000          49.000
 111796475.633 8  86952826.814 7  20877201.998    20877203.362    20877204.410
        49.000          44.000
 109948761.24248  85674370.96146  20922552.191    20922551.817    20922555.569
        48.000          38.000
 122248184.71647  95258325.63946  23263051.600    23263051.804    23263054.470
        42.000          37.000
 128409533.48645 100059375.2004   24435519.534    24435527.241    24435522.660
        30.000           4.000
 111105362.63748  86575595.33048  21142641.971    21142642.224    21142647.933
        48.000          50.000
 109852799.11847  85599581.01646  20904286.188    20904286.161    20904290.375
        46.000          38.000
 103036374.714 8  80139398.475 8  19248055.410    19248055.059    19248058.229
        52.000          49.000
 20  5  1  0 22 30.0000000  0 10G 9G22G26R 8G16G31G14G 3G 4R 7
 122248690.83946  95258731.35646  23263151.701    23263151.436    23263156.791
        41.000          38.000
 118989789.42547  92719307.67445  22642998.406    22642997.264    22642999.367
        44.000          32.000
 110522926.46948  86121761.30848  21031810.192    21031810.175    21031816.799
        48.000          49.000
 111773726.818 8  86935133.294 7  20872953.494    20872954.820    20872956.425
        49.000          44.000
 109959937.86747  85683080.02146  20924679.135    20924678.696    20924682.172
        47.000          38.000
 122409384.56047  95383935.87046  23293726.551    23293727.032    23293729.956
        42.000          36.000
 128563069.69245                  24464739.107
        31.000
 111228860.15547  86671827.14148  21166142.571    21166143.015    21166148.796
        47.000          50.000
 109873580.25347  85615774.10646  20908240.632    20908240.617    20908244.958
        45.000          38.000
 103120067.164 8  80204492.583 8  19263689.577    19263689.654    19263692.665
        52.000          49.000
 20  5  1  0 23  0.0000000  0 10G 9G22G26R 8G16G31G14G 3G 4R 7
 122227743.98546  95242409.13546  23259165.352    23259165.385    23259170.829
        41.000          38.000
 119146783.00947  92841640.31745  22672872.729    22672871.911    22672874.189
        44.000          32.000
 110616466.32748  86194649.50548  21049610.060    21049610.109    21049616.921
        48.000          49.000
 111751340.847 8  86917721.979 7  20868772.805    20868774.069    20868775.858
        48.000          44.000
 109971711.30147  85692254.12446  20926919.731    20926918.996    20926922.628
        47.000          38.000
 122570655.07347  95509601.18246  23324415.564    23324415.842    23324418.555
        42.000          36.000
 128716752.41345                  24493981.616
        30.000
 111352885.91648  86768470.57248  21189744.188    21189744.410    21189750.150
        48.000          50.000
 109894647.99247  85632190.52146  20912249.370    20912249.626    20912254.049
        47.000          38.000
 103204444.578 8  80270119.439 8  19279452.250    19279451.792    19279455.057
        52.000          49.000
 20  5  1  0 23 30.0000000  0 10G 9G22G26R 8G16G31G14G 3G 4R 7
 122206885.62246  95226155.86446  23255195.881    23255196.121    23255201.433
        41.000          38.000
 119304061.39047  92964194.87945  22702802.245    22702801.550    22702803.530
        44.000          32.000
 110710594.90847  86267996.44848  21067522.395    21067522.140    21067528.859
        47.000          49.000
 111729312.813 8  86900589.058 7  20864658.720    20864660.161    20864662.102
        48.000          44.000
 109984074.90647  85701888.09446  20929272.087    20929271.749    20929275.435
        47.000          38.000
 122731986.08346  95635313.62246  23355116.135    23355116.203    23355119.066
        41.000          36.000
 128870572.40345                  24523253.479
        30.000
 111477429.37848  86865517.40548  21213444.035    21213444.393    21213450.007
        48.000          50.000
 109915994.96147  85648824.52746  20916311.727    20916311.617    20916316.222
        47.000          38.000
 103289498.733 8  80336272.654 8  19295340.820    19295340.842    19295343.941
        52.000          50.000
 20  5  1  0 24  0.0000000  0 10G 9G22G26R 8G16G31G14G 3G 4R 7
 122186126.43946  95209979.88046  23251245.851    23251246.016    23251250.938
        41.000          38.000
 119461631.44347  93086976.70845  22732786.694    22732786.103    22732788.221
        45.000          32.000
 110805320.36047  86341808.48948  21085547.907    21085547.972    21085554.574
        47.000          49.000
 111707655.596 8  86883744.551 7  20860615.405    20860616.071    20860617.923
        48.000          44.000
 109997040.06347  85711990.80846  20931739.421    20931739.000    20931742.573
        47.000          38.000
 122893385.60746  95761079.44446  23385829.625    23385829.531    23385832.582
        41.000          36.000
 129024538.80345                  24552551.776
        31.000
 111602498.08547  86962973.52348  21237243.812    21237244.254    21237249.721
        47.000          50.000
 109937631.96447  85665684.52446  20920429.032    20920429.122    20920433.536
        46.000          39.000
 103375239.938 8  80402960.236 8  19311358.296    19311358.189    19311361.099
        52.000          49.000
 20  5  1  0 24 30.0000000  0 10G 9G22G26R 8G16G31G14G 3G 4R 7
 122165469.22046  95193883.34146  23247315.167    23247315.060    23247320.102
        41.000          38.000
 119619492.23747  93209985.10345  22762826.758    22762826.082    22762828.258
        45.000          32.000
 110900642.81648  86416085.72848  21103687.344    21103687.301    21103693.914
        48.000          49.000
 111686373.868 8  86867192.091 7  20856641.294    20856642.033    20856643.542
        48.000          44.000
 110010609.94748  85722564.74546  20934321.663    20934321.453    20934324.717
        48.000          39.000
 123054853.52946  95886898.56246  23416556.282    23416555.975    23416558.925
        41.000          36.000
 129178651.81745                  24581876.957
        32.000
 111728091.56648  87060838.55448  21261143.323    21261143.899    21261149.406
        48.000          49.000
 109959561.75447  85682772.67446  20924602.353    20924602.441    20924606.583
        46.000          39.000
 103461670.224 8  80470183.773 8  19327503.841    19327503.776    19327507.100
        52.000          49.000
 20  5  1  0 25  0.0000000  0 10G 9G22G26R 8G16G31G14G 3G 4R 7
 122144913.55046  95177865.93446  23243403.442    23243403.373    23243408.525
        41.000          38.000
 119777639.27547  93333216.54845  22792921.496    22792919.945    22792922.469
        44.000          31.000
 110996559.34547  86490825.87748  21121939.494    21121939.474    21121945.973
        46.000          48.000
 111665469.525 8  86850933.158 7  20852737.091    20852738.529    20852739.868
        49.000          45.000
 110024784.97647  85733610.21946  20937019.365    20937018.759    20937022.460
        47.000          38.000
 123216386.53446  96012768.39346  23447294.333    23447294.835    23447297.574
        41.000          36.000
 129332909.39445                  24611233.640
        31.000
 111854206.29748  87159109.74748  21285142.175    21285142.702    21285148.341
        48.000          49.000
 109981784.04147  85700088.74146  20928831.093    20928831.506    20928835.355
        47.000          39.000
 103548788.787 8  80537942.634 8  19343778.693    19343778.341    19343781.689
        52.000          49.000
 20  5  1  0 25 30.0000000  0 10G 9G22G26R 8G16G31G14G 3G 4R 7
 122124441.89846  95161914.00346  23239507.144    23239507.570    23239513.002
        41.000          38.000
 119936051.48647  93456654.61945  22823065.698    22823065.019    22823067.267
        44.000          31.000
 111093049.74547  86566013.19548  21140301.097    21140301.144    21140307.542
        47.000          49.000
 111644926.941 8  86834955.591 7  20848900.868    20848902.365    20848903.700
        48.000          45.000
 110039548.09847  85745113.95046  20939828.511    20939828.124    20939831.694
        47.000          38.000
 123377964.63946  96138673.37345  23478041.794    23478041.966    23478044.906
        40.000          35.000
 129487292.38545                  24640611.240
        32.000
 111980821.40648  87257770.85348  21309236.319    21309236.785    21309242.416
        48.000          50.000
 110004281.27247  85717619.04646  20933112.086    20933112.337    20933116.436
        46.000          39.000
 103636576.426 8  80606221.889 8  19360177.999    19360177.697    19360181.257
        52.000          49.000
 20  5  1  0 26  0.0000000  0 10G 9G22G26R 8G16G31G14G 3G 4R 7
 122104069.53846  95146039.42446  23235630.439    23235630.948    23235636.631
        41.000          38.000
 120094739.89347  93580307.89845  22853263.534    22853262.413    22853264.703
        44.000          31.000
 111190126.54948  86641657.45848  21158774.361    21158774.339    21158780.766
        48.000          49.000
 111624763.915 8  86819273.234 7  20845135.493    20845137.055    20845138.630
        48.000          45.000
 110054915.43548  85757088.49546  20942752.986    20942752.304    20942755.881
        48.000          38.000
 123539600.43046  96264623.29545  23508799.954    23508800.180    23508803.178
        40.000          35.000
 129641814.15945                  24670015.233
        32.000
 112107948.91448  87356831.22848  21333427.972    21333428.428    21333434.017
        48.000          50.000
 110027068.75747  85735375.52346  20937448.575    20937448.571    20937452.725
        47.000          39.000
 103725048.111 8  80675033.181 8  19376705.412    19376705.199    19376708.381
        53.000          49.000
 20  5  1  0 26 30.0000000  0 10G 9G22G26R 8G16G31G14G 3G 4R 7
 120508372.79446  93902639.36746  22931979.596    22931979.577    22931985.310
        40.000          38.000
 118678283.17347  92476575.37145  22583720.755    22583719.716    22583721.956
        44.000          31.000
 109712367.34847  85490156.77748  20877566.220    20877566.064    20877572.509
        47.000          49.000
 109999603.562 8  85555259.614 4  20541648.866    20541649.795    20541651.617
        49.000          28.000
 108495464.80047  84541932.15746  20645999.136    20645998.809    20646002.240
        46.000          38.000
 122125873.38746  95163017.77245  23239777.004    23239777.047    23239780.072
        41.000          35.000
 128221054.98245                  24399653.915
        32.000
 110660166.82547  86228689.32448  21057924.241    21057924.667    21057930.380
        47.000          49.000
 108474724.25347  84525756.42746  20642047.005    20642047.141    20642051.379
        46.000          39.000
 102209390.287 8  79496188.190 8  19093567.777    19093567.799    19093570.616
        53.000          48.000
 20  5  1  0 27  0.0000000  0 10G 9G22G26R 8G16G31G14G 3G 4R 7
 120488200.80046  93886920.92946  22928140.675    22928140.756    22928146.451
        40.000          37.000
 118837514.59247  92600651.77245  22614021.436    22614020.221    22614022.845
        44.000          31.000
 109810610.83848  85566710.13948  20896261.298    20896261.218    20896267.623
        48.000          49.000
 109980207.691 8  85540173.936 7  20538026.579    20538027.711    20538029.586
        48.000          45.000
 108512043.42648  84554850.56546  20649154.042    20649153.599    20649156.953
        48.000          38.000
 122287617.86846  95289052.37645  23270555.733    23270555.832    23270558.870
        41.000          35.000
 128375850.16145                  24429111.224
        33.000
 110788311.16348  86328542.02948  21082309.553    21082309.765    21082315.551
        48.000          49.000
 108498094.15047  84543966.72746  20646494.049    20646494.312    20646498.751
        47.000          39.000
 102299229.454 8  79566063.080 8  19110350.563    19110350.315    19110353.441
        52.000          49.000
 20  5  1  0 27 30.0000000  0 10G 9G22G26R 8G16G31G14G 3G 4R 7
 120468122.65546  93871275.60346  22924320.266    22924319.755    22924325.580
        40.000          38.000
 118997005.06247  92724930.04545  22644371.678    22644370.346    22644372.860
        43.000          31.000
 109909426.93948  85643709.69948  20915065.202    20915065.256    20915071.523
        48.000          49.000
 109961191.462 8  85525383.536 7  20534474.986    20534476.752    20534478.255
        48.000          45.000
 108529221.71547  84568236.24146  20652422.905    20652422.454    20652426.060
        47.000          38.000
 122449406.34146  95415121.27945  23301343.419    23301343.525    23301346.313
        40.000          35.000
 128530772.65145                  24458592.005
        32.000
 110916952.32447  86428781.87448  21106788.871    21106789.399    21106795.222
        47.000          49.000
 108521748.73447  84562398.86646  20650995.745    20650995.669    20650999.950
        47.000          39.000
 102389744.088 8  79636463.332 8  19127259.188    19127259.288    19127262.526
        52.000          49.000
 20  5  1  0 28  0.0000000  0 10G 9G22G26R 8G16G31G14G 3G 4R 7
 120448146.06646  93855709.43746  22920518.510    22920518.733    22920524.231
        41.000          38.000
 119156758.54047  92849413.24645  22674771.329    22674770.532    22674773.038
        44.000          31.000
 110008820.76047  85721159.41848  20933979.327    20933979.122    20933985.610
        47.000          49.000
 109942565.476 8  85510896.653 7  20530996.796    20530998.220    20531000.231
        49.000          45.000
 108547008.27747  84582095.90246  20655807.660    20655807.377    20655810.617
        47.000          39.000
 122611243.68146  95541228.25346  23332139.912    23332139.934    23332143.018
        40.000          36.000
 128685828.51145                  24488096.542
        32.000
 111046094.83747  86529412.38348  21131363.944    21131364.356    21131370.236
        47.000          49.000
 108545695.85447  84581058.95546  20655552.842    20655552.883    20655556.637
        47.000          39.000
 102480941.338 8  79707394.506 8  19144295.762    19144295.642    19144298.655
        52.000          49.000
 20  5  1  0 28 30.0000000  0 10G 9G22G26R 8G16G31G14G 3G 4R 7
 120428264.67246  93840217.43846  22916735.670    22916735.591    22916740.907
        40.000          38.000
 119316764.60547  92974093.26945  22705219.725    22705218.511    22705221.245
        42.000          30.000
 110108783.24748  85799052.26248  20953001.262    20953001.391    20953007.910
        48.000          48.000
 109924325.423 8  85496709.939 7  20527591.009    20527592.218    20527594.011
        49.000          45.000
 108565396.99548  84596424.77046  20659306.946    20659306.395    20659309.932
        48.000          39.000
 122773120.63346  95667366.10445  23362943.956    23362944.091    23362947.265
        41.000          35.000
 128841009.46245                  24517629.684
        33.000
 111175729.07947  86630426.05948  21156032.621    21156032.855    21156038.753
        47.000          49.000
 108569929.28347  84599942.13946  20660164.056    20660164.360    20660168.296
        47.000          39.000
 102572813.878 8  79778850.904 8  19161458.644    19161458.360    19161461.435
        52.000          49.000
 20  5  1  0 29  0.0000000  0  9G 9G22G26R 8G16G31G 3G 4R 7
 120408490.40646  93824808.93146  22912972.814    22912972.473    22912977.892
        41.000          38.000
 119477030.83347  93098976.02345  22735717.597    22735716.115    22735718.996
        43.000          30.000
 110209323.15047  85877395.03848  20972133.499    20972133.532    20972140.008
        47.000          49.000
 109906484.846 8  85482833.927 7  20524259.297    20524260.758    20524262.386
        49.000          45.000
 108584399.99547  84611232.29646  20662923.148    20662922.773    20662926.210
        47.000          39.000
 122935046.35746  95793541.95246  23393757.731    23393757.472    23393760.764
        40.000          36.000
 111305863.20948  86731829.25348  21180796.086    21180796.537    21180802.493
        48.000          49.000
 108594460.65447  84619057.47846  20664832.508    20664832.558    20664836.685
        47.000          39.000
 102665372.423 8  79850840.864 8  19178748.835    19178749.159    19178752.305
        52.000          49.000
 20  5  1  0 29 30.0000000  0  9G 9G22G26R 8G16G31G 3G 4R 7
 120388820.28246  93809481.55746  22909229.898    22909229.382    22909234.723
        40.000          38.000
 119637550.62047  93224056.35745  22766263.572    22766262.465    22766264.704
        44.000          30.000
 110310434.79647  85956183.33048  20991374.203    20991374.120    20991380.963
        47.000          48.000
 109889043.650 8  85469268.551 7  20521001.928    20521003.317    20521005.196
        48.000          45.000
 108604014.74848  84626516.52046  20666655.743    20666655.221    20666658.886
        48.000          39.000
 123097015.09646  95919751.30445  23424578.606    23424579.267    23424582.476
        41.000          35.000
 111436490.99147  86833617.11548  21205653.764    21205654.298    21205660.114
        47.000          49.000
 108619287.11447  84638402.76646  20669556.586    20669556.878    20669561.018
        47.000          39.000
 102758613.152 8  79923361.408 8  19196167.413    19196167.391    19196170.340
        53.000          49.000
 20  5  1  0 30  0.0000000  0  9G 9G22G26R 8G16G31G 3G 4R 7
 120369250.69046  93794232.51946  22905505.753    22905505.287    22905510.986
        41.000          38.000
 119798316.59047  93349328.51145  22796856.145    22796855.112    22796857.332
        43.000          30.000
 110412111.62047  86035412.01948  21010722.798    21010722.840    21010729.314
        47.000          49.000
 109871999.446 8  85456011.944 7  20517818.672    20517820.366    20517822.367
        48.000          45.000
 108624237.83548  84642274.76746  20670504.215    20670503.497    20670507.252
        48.000          39.000
 123259020.73746  96045989.42445  23455407.907    23455408.280    23455410.996
        39.000          35.000
 111567605.23947  86935784.03948  21230604.094    21230604.441    21230610.331
        47.000          49.000
 108644405.00447  84657975.14046  20674336.386    20674336.541    20674340.722
        47.000          39.000
 102852530.951 8  79996408.569 8  19213711.834    19213711.824    19213714.782
        53.000          49.000
 20  5  1  0 30 30.0000000  0  9G 9G22G26R 8G16G31G 3G 4R 7
 120349791.03646  93779069.16546  22901802.170    22901802.165    22901808.270
        41.000          39.000
 119959333.81247  93474796.45445  22827496.856    22827495.887    22827497.806
        43.000          30.000
 110514360.13647  86115086.17148  21030179.833    21030179.878    21030186.605
        46.000          48.000
 109855364.515 8  85443073.649 7  20514712.779    20514713.935    20514715.789
        49.000          45.000
 108645078.86548  84658514.52746  20674469.763    20674469.329    20674473.017
        48.000          39.000
 123421070.35746  96172261.81245  23486244.050    23486245.075    23486248.122
        39.000          34.000
 111699211.99147  87038334.73448  21255647.615    21255648.232    21255654.246
        47.000          48.000
 108669823.70748  84677781.91346  20679173.461    20679173.581    20679177.662
        48.000          39.000
 102947134.375 8  80069988.989 8  19231384.446    19231384.587    19231387.719
        52.000          49.000
 20  5  1  0 31  0.0000000  0  9G 9G22G26R 8G16G31G 3G 4R 7
 120330444.55546  93763993.98846  22898121.447    22898120.868    22898126.589
        41.000          39.000
 120120601.39947  93600459.49045  22858185.097    22858183.935    22858186.250
        43.000          30.000
 110617180.59647  86195206.00948  21049746.104    21049746.161    21049752.659
        47.000          48.000
 109839143.845 8  85430457.570 7  20511683.419    20511684.771    20511686.716
        48.000          45.000
 108666541.46748  84675238.63146  20678553.958    20678553.595    20678557.226
        48.000          39.000
 123583163.62446  96298568.21045  23517090.144    23517090.253    23517093.283
        40.000          34.000
 111831310.89648  87141268.91948  21280785.546    21280785.740    21280791.838
        48.000          49.000
 108695546.41447  84697825.56846  20684068.097    20684068.566    20684072.422
        46.000          40.000
 103042425.495 8  80144104.282 8  19249185.858    19249185.820    19249189.027
        52.000          49.000
 20  5  1  0 31 30.0000000  0  9G 9G22G26R 8G16G31G 3G 4R 7
 120311205.44846  93749002.46246  22894459.652    22894459.880    22894465.446
        41.000          39.000
 120282109.57047  93726309.98744  22888918.789    22888918.099    22888919.860
        43.000          29.000
 110720564.18747  86275764.64248  21069419.555    21069419.422    21069426.029
        47.000          48.000
 109823333.762 8  85418160.841 7  20508731.508    20508732.276    20508734.163
        48.000          45.000
 108688619.83748  84692442.55446  20682755.532    20682755.109    20682758.524
        48.000          40.000
 123745292.23846  96424902.18045  23547942.144    23547942.319    23547945.480
        40.000          34.000
 111963892.58447  87244579.30348  21306014.897    21306015.110    21306021.391
        47.000          48.000
 108721567.27847  84718101.56146  20689019.891    20689020.136    20689023.995
        47.000          39.000
 103138397.175 8  80218748.903 8  19267113.964    19267114.168    19267117.403
        53.000          49.000
 20  5  1  0 32  0.0000000  0  9G 9G22G26R 8G16G31G 3G 4R 7
 120292064.47247  93734087.41946  22890817.981    22890817.953    22890823.241
        42.000          40.000
 120443845.13147  93852337.66044  22919696.343    22919694.994    22919697.859
        43.000          29.000
 110824498.66947  86356752.54448  21089197.770    21089197.423    21089204.059
        47.000          48.000
 109807926.689 8  85406177.558 7  20505854.363    20505855.095    20505857.046
        49.000          45.000
 108711304.88048  84710119.20746  20687072.252    20687071.954    20687075.352
        48.000          39.000
 123907444.45846  96551254.51545  23578799.027    23578799.027    23578802.169
        40.000          33.000
 112096944.28747  87348255.93248  21331333.798    21331334.132    21331340.361
        47.000          48.000
 108747877.00447  84738602.64646  20694026.453    20694026.564    20694030.562
        47.000          39.000
 103235038.582 8  80293914.416 8  19285167.830    19285167.795    19285170.737
        53.000          49.000
 20  5  1  0 32 30.0000000  0  9G 9G22G26R 8G16G31G 3G 4R 7
 120273033.75747  93719258.28846  22887196.455    22887196.574    22887201.487
        42.000          40.000
 120605816.01647  93978548.71244  22950518.052    22950517.039    22950519.552
        43.000          29.000
 110928993.09647  86438176.76448  21109081.973    21109082.237    21109088.658
        47.000          48.000
 109792937.182 8  85394519.051 7  20503054.859    20503056.075    20503057.738
        48.000          45.000
 108734608.90748  84728278.19046  20691507.004    20691506.447    20691509.992
        48.000          39.000
 124069629.42046  96677632.37045  23609662.281    23609661.990    23609664.996
        39.000          33.000
 112230474.45847  87452305.39248  21356743.753    21356744.144    21356750.353
        47.000          49.000
 108774487.66247  84759338.21746  20699090.300    20699090.418    20699094.540
        47.000          40.000
 103332360.856 8  80369609.498 8  19303348.305    19303348.163    19303351.398
        53.000          49.000
 20  5  1  0 33  0.0000000  0  9G 9G22G26R 8G16G31G 3G 4R 7
 120254117.58847  93704518.40746  22883596.570    22883596.745    22883602.035
        42.000          40.000
 120768022.63547  94104943.46044  22981384.971    22981383.763    22981386.024
        43.000          29.000
 111034048.70247  86520038.26548  21129073.553    21129073.558    21129080.208
        47.000          48.000
 109778371.598 8  85383190.254 7  20500334.455    20500335.632    20500337.693
        49.000          46.000
 108758536.35048  84746922.94846  20696060.408    20696059.837    20696063.183
        48.000          39.000
 124231848.91946  96804037.13145  23640530.746    23640530.888    23640534.134
        38.000          32.000
 112364483.86247  87556728.28148  21382245.062    21382245.341    21382251.452
        47.000          49.000
 108801403.45747  84780311.55446  20704211.985    20704212.450    20704216.387
        47.000          40.000
 103430366.848 8  80445836.360 8  19321656.674    19321656.582    19321659.726
        53.000          49.000
 20  5  1  0 33 30.0000000  0  9G 9G22G26R 8G16G31G 3G 4R 7
 120235317.13446  93689868.69946  22880019.355    22880019.144    22880024.496
        41.000          40.000
 120930461.90647  94231519.48344  23012296.726    23012294.653    23012297.509
        43.000          29.000
 111139663.54847  86602335.54148  21149171.592    21149171.548    21149178.020
        47.000          48.000
 109764233.048 8  85372193.595 7  20497694.442    20497695.799    20497697.452
        49.000          46.000
 108783088.39448  84766054.40946  20700732.284    20700731.884    20700735.305
        48.000          39.000
 124394101.27646  96930467.49645  23671406.941    23671406.747    23671409.560
        37.000          32.000
 112498969.93647  87661522.59948  21407837.190    21407837.227    21407843.309
        47.000          48.000
 108828625.48747  84801523.52246  20709392.342    20709392.592    20709396.680
        46.000          40.000
 103529056.521 8  80522594.978 8  19340092.826    19340092.608    19340095.748
        52.000          49.000
 20  5  1  0 34  0.0000000  0  9G 9G22G26R 8G16G31G 3G 4R 7
 120216617.17647  93675297.30946  22876460.281    22876460.461    22876466.128
        42.000          40.000
 121093114.67547  94358261.87844  23043247.658    23043246.926    23043248.970
        43.000          29.000
 111245819.16447  86685054.18748  21169372.233    21169372.012    21169378.699
        47.000          48.000
 109750508.044 8  85361518.592 7  20495131.409    20495132.760    20495134.594
        48.000          46.000
 108808249.78948  84785660.69146  20705520.353    20705519.911    20705523.337
        49.000          40.000
 124556368.43046  97056909.37245  23702284.945    23702285.295    23702288.359
        38.000          33.000
 112633913.72347  87766673.58148  21433515.772    21433516.223    21433522.261
        47.000          48.000
 108856138.34847  84822962.10746  20714628.127    20714628.043    20714632.041
        47.000          39.000
 103628412.700 8  80599871.995 8  19358653.180    19358653.161    19358656.395
        52.000          49.000
 20  5  1  0 34 30.0000000  0  9G 9G22G26R 8G16G31G 3G 4R 7
 120198031.76747  93660815.17246  22872924.138    22872923.603    22872929.293
        42.000          40.000
 121255990.83947  94485178.34744  23074242.153    23074241.405    23074244.184
        43.000          29.000
 111352526.67947  86768202.89548  21189677.783    21189677.804    21189684.405
        47.000          48.000
 109737213.088 8  85351178.062 7  20492649.022    20492649.744    20492651.633
        49.000          46.000
 108834034.77048  84805752.88146  20710427.238    20710426.506    20710429.987
        48.000          39.000
 124718661.90346  97183371.76345  23733168.517    23733169.014    23733171.787
        38.000          33.000
 112769325.81047  87872189.47348  21459283.947    21459284.398    21459290.381
        47.000          48.000
 108883956.22247  84844638.36346  20719921.493    20719921.707    20719925.633
        47.000          39.000
 103728448.280 8  80677677.426 8  19377340.742    19377340.811    19377343.888
        53.000          49.000
 20  5  1  0 35  0.0000000  0  9G 9G22G26R 8G16G31G 3G 4R 7
 120179565.72747  93646426.05046  22869409.845    22869409.759    22869415.487
        42.000          40.000
 121419090.81147  94612269.20244  23105278.737    23105277.969    23105280.509
        42.000          28.000
 111459787.61948  86851782.84548  21210089.128    21210089.110    21210095.508
        48.000          48.000
 109724355.068 8  85341177.378 7  20490247.477    20490248.830    20490250.704
        48.000          46.000
 108860447.85547  84826334.51046  20715453.270    20715452.873    20715456.385
        47.000          39.000
 124880983.70846  97309856.25745  23764057.700    23764057.488    23764060.467
        38.000          32.000
 112905207.16947  87978071.02748  21485141.530    21485141.922    21485147.723
        47.000          48.000
 108912083.72547  84866555.88746  20725274.161    20725274.232    20725278.292
        47.000          40.000
 103829166.849 8  80756014.071 8  19396155.854    19396155.814    19396158.828
        53.000          49.000
 20  5  1  0 35 30.0000000  0  9G 9G22G26R 8G16G31G 3G 4R 7
 120161211.57547  93632124.11546  22865917.059    22865917.278    22865923.050
        42.000          41.000
 121582403.25947  94739525.63244  23136356.173    23136355.064    23136358.037
        42.000          28.000
 111567591.27247  86935785.68748  21230603.375    21230603.229    21230609.940
        47.000          48.000
 109711928.461 8  85331512.233 7  20487927.330    20487928.410    20487930.091
        48.000          46.000
 108887481.48448  84847399.67346  20720597.866    20720597.252    20720600.708
        48.000          40.000
 125043323.47846  97436354.74045  23794950.388    23794949.842    23794952.688
        39.000          31.000
 113041546.56847  88084309.50248  21511085.793    21511086.473    21511092.335
        47.000          48.000
 108940513.27048  84888708.77246  20730683.758    20730684.012    20730688.132
        48.000          40.000
 103930559.082 8  80834874.674 8  19415096.734    19415096.688    19415099.921
        53.000          49.000
 20  5  1  0 36  0.0000000  0  9G 9G22G26R 8G16G31G 3G 4R 7
 120142980.59047  93617918.15246  22862448.268    22862448.030    22862453.718
        43.000          41.000
 121745935.56747  94866953.37944  23167475.311    23167474.698    23167476.918
        42.000          28.000
 111675945.67447  87020217.67648  21251222.444    21251222.474    21251229.242
        46.000          48.000
 109699946.453 8  85322192.883 7  20485689.865    20485690.934    20485692.835
        50.000          46.000
 108915146.92148  84868957.15646  20725862.166    20725861.770    20725865.349
        49.000          40.000
 125205690.09846  97562874.16345  23825846.814    23825847.639    23825850.018
        39.000          32.000
 113178351.53647  88190910.74548  21537119.101    21537119.548    21537125.468
        47.000          48.000
 108969255.97847  84911105.68146  20736153.447    20736153.575    20736157.616
        47.000          39.000
 104032634.565 8  80914266.695 8  19434165.249    19434165.054    19434168.577
        52.000          49.000
 20  5  1  0 36 30.0000000  0  9G 9G22G26R 8G16G31G 3G 4R 7
 120124877.89447  93603812.14746  22859003.330    22859003.196    22859008.956
        42.000          40.000
 121909688.38547  94994552.95944  23198636.835    23198635.285    23198638.031
        42.000          28.000
 111784852.72447  87105080.31348  21271946.950    21271946.633    21271953.367
        47.000          48.000
 109688416.547 8  85313225.177 7  20483536.193    20483537.542    20483539.594
        49.000          46.000
 108943449.01448  84891010.73746  20731248.069    20731247.571    20731250.987
        48.000          39.000
 125368085.67646  97689416.13545  23856750.458    23856749.959    23856752.643
        39.000          31.000
 113315623.41048  88297875.81548  21563241.191    21563241.415    21563247.455
        48.000          48.000
 108998316.90847  84933750.55646  20741683.643    20741683.691    20741687.801
        47.000          40.000
 104135397.309 8  80994193.250 8  19453362.269    19453361.977    19453365.502
        52.000          50.000
 20  5  1  0 37  0.0000000  0  9G 9G22G26R 8G16G31G 3G 4R 7
 120106893.23847  93589798.12446  22855580.969    22855580.724    22855586.615
        42.000          41.000
 122073647.24547  95122313.09044  23229836.699    23229836.008    23229838.568
        42.000          28.000
 111894298.88547  87190363.02648  21292773.700    21292773.626    21292780.383
        47.000          48.000
 109677329.952 8  85304602.264 7  20481466.134    20481467.125    20481469.218
        48.000          46.000
 108972377.27847  84913552.24146  20736752.617    20736752.313    20736755.769
        47.000          39.000
 125530497.34146  97815970.63545  23887655.515    23887655.615    23887658.838
        38.000          31.000
 113453348.15547  88405193.77648  21589449.239    21589449.642    21589455.584
        47.000          48.000
 109027685.68247  84956635.30146  20747272.078    20747272.603    20747276.558
        47.000          40.000
 104238835.102 8  81074644.845 8  19472685.210    19472685.326    19472688.460
        52.000          49.000
 20  5  1  0 37 30.0000000  0  9G 9G22G26R 8G16G31G 3G 4R 7
 120089035.67146  93575883.12746  22852182.253    22852182.228    22852188.000
        41.000          41.000
 122237816.96847  95250237.51744  23261077.289    23261076.037    23261079.058
        42.000          28.000
 112004289.90447  87276070.31248  21313704.513    21313704.571    21313710.914
        47.000          48.000
 109666698.061 8  85296333.013 7  20479480.554    20479481.784    20479483.740
        48.000          46.000
 109001940.73448  84936588.70746  20742378.411    20742377.901    20742381.587
        48.000          39.000
 125692931.33346  97942542.54845  23918564.942    23918565.773    23918569.402
        38.000          30.000
 113591530.99347  88512868.69248  21615744.700    21615744.862    21615750.875
        47.000          48.000
 109057371.21447  84979766.87146  20752921.685    20752921.467    20752925.529
        47.000          40.000
 104342955.343 8  81155627.242 8  19492135.867    19492135.778    19492138.949
        52.000          48.000
 20  5  1  0 38  0.0000000  0  9G 9G22G26R 8G16G31G 3G 4R 7
 118495893.56946  92334473.69846  22549017.512    22549017.190    22549023.178
        41.000          40.000
 120826788.04347  94150734.41944  22992567.470    22992566.474    22992569.776
        42.000          28.000
 110539414.99247  86134609.33748  21034948.023    21034947.923    21034954.496
        47.000          48.000
 108051156.298 8  84039800.527 7  20177789.669    20177790.833    20177792.666
        48.000          46.000
 107456729.01347  83732527.62346  20448334.019    20448333.918    20448337.350
        47.000          39.000
 124279979.42046  96841540.98445  23649690.360    23649690.021    23649693.707
        37.000          30.000
 112154761.59547  87393308.09848  21342336.833    21342336.803    21342342.797
        47.000          48.000
 107511963.28847  83775552.88946  20458840.035    20458840.142    20458844.391
        47.000          40.000
 102842956.243 8  79988961.251 8  19211923.690    19211923.412    19211926.559
        52.000          49.000
 20  5  1  0 38 30.0000000  0  9G 9G22G26R 8G16G31G 3G 4R 7
 118478295.18047  92320760.66146  22545668.447    22545668.383    22545674.338
        42.000          40.000
 120991372.51247  94278982.02644  23023886.960    23023886.400    23023889.078
        42.000          27.000
 110650490.58147  86221161.73548  21056085.005    21056084.915    21056091.561
        46.000          48.000
 108041444.208 8  84032246.673 7  20175975.964    20175977.087    20175979.059
        48.000          46.000
 107487566.74048  83756557.02446  20454202.657    20454202.131    20454205.734
        48.000          39.000
 124442455.07946  96968145.33945  23680607.424    23680608.067    23680611.794
        37.000          30.000
 112293853.98047  87501691.74348  21368804.922    21368805.373    21368811.200
        46.000          48.000
 107542286.86747  83799181.64246  20464610.525    20464610.507    20464614.727
        47.000          41.000
 102948441.019 8  80071004.942 8  19231629.030    19231629.072    19231632.096
        53.000          49.000
 20  5  1  0 39  0.0000000  0  9G 9G22G26R 8G16G31G 3G 4R 7
 118460829.56146  92307151.09046  22542345.050    22542345.107    22542350.538
        41.000          41.000
 121156161.00047  94407388.60044  23055245.167    23055244.315    23055246.812
        42.000          27.000
 110762106.60447  86308135.24748  21077324.826    21077324.741    21077331.443
        47.000          48.000
 108032198.719 8  84025055.728 7  20174249.925    20174250.753    20174252.653
        49.000          46.000
 107519044.45048  83781085.11146  20460192.565    20460192.262    20460195.729
        48.000          40.000
 124604950.73346  97094765.26645  23711530.338    23711529.967    23711533.458
        36.000          30.000
 112433398.49047  87610427.70448  21395359.531    21395359.817    21395365.593
        46.000          48.000
 107572932.44947  83823061.31046  20470441.842    20470442.213    20470446.157
        47.000          40.000
 103054608.802 8  80153579.867 8  19251462.175    19251461.926    19251465.264
        52.000          49.000
 20  5  1  0 39 30.0000000  0  9G 9G22G26R 8G16G31G 3G 4R 7
 118443497.07447  92293645.24746  22539047.291    22539046.857    22539052.261
        42.000          41.000
 121321149.73147  94535951.22544  23086641.712    23086640.778    23086642.779
        42.000          28.000
 110874259.94647  86395527.45647  21098666.776    21098666.717    21098673.348
        47.000          47.000
 108023421.723 8  84018229.167 7  20172610.494    20172611.880    20172613.649
        49.000          46.000
 107551161.76248  83806111.59446  20466304.105    20466303.850    20466307.386
        48.000          40.000
 124767463.88446  97221398.82945  23742455.072    23742455.490    23742458.613
        37.000          30.000
 112573391.57347  87719513.19248  21421998.967    21421999.532    21422005.276
        47.000          48.000
 107603900.16547  83847191.98946  20476334.917    20476335.075    20476339.255
        47.000          41.000
 103161457.651 8  80236684.503 8  19271422.297    19271422.191    19271425.313
        53.000          49.000
 20  5  1  0 40  0.0000000  0  9G 9G22G26R 8G16G31G 3G 4R 7
 118426280.61447  92280229.82246  22535771.261    22535770.839    22535776.217
        43.000          41.000
 121486317.12547  94664653.07244  23118072.042    23118070.911    23118073.310
        42.000          27.000
 110986930.11947  86483322.39348  21120107.450    21120107.316    21120114.032
        47.000          48.000
 108015097.589 8  84011754.835 7  20171056.010    20171057.023    20171059.226
        49.000          46.000
 107583901.31648  83831622.93246  20472534.612    20472534.005    20472537.533
        48.000          40.000
 124929974.78046  97348030.63845  23773380.203    23773380.424    23773383.480
        38.000          30.000
 112713812.15247  87828931.80047  21448720.212    21448720.644    21448726.488
        47.000          47.000
 107635172.80847  83871560.27246  20482285.669    20482286.080    20482290.338
        47.000          40.000
 103268968.537 8  80320304.059 8  19291506.365    19291505.934    19291509.315
        52.000          49.000
 20  5  1  0 40 30.0000000  0  9G 9G22G26R 8G16G31G 3G 4R 7
 118409198.52147  92266919.10646  22532520.247    22532520.218    22532525.410
        43.000          41.000
 121651677.64947  94793505.40644  23149539.240    23149538.495    23149540.333
        42.000          27.000
 111100132.01047  86571531.65048  21141648.860    21141648.808    21141655.502
        46.000          48.000
 108007246.720 8  84005648.599 7  20169589.868    20169590.910    20169593.146
        49.000          46.000
 107617281.23748  83857633.26946  20478886.581    20478886.056    20478889.640
        48.000          40.000
 125092498.99146  97474672.83245  23804308.158    23804307.769    23804311.063
        37.000          30.000
 112854674.69747  87938694.79947  21475525.510    21475525.963    21475531.783
        46.000          47.000
 107666768.52147  83896180.29746  20488298.272    20488298.513    20488302.572
        47.000          40.000
 103377157.993 8  80404451.389 4  19311716.859    19311716.738    19311720.116
        52.000          28.000
 20  5  1  0 41  0.0000000  0  9G 9G22G26R 8G16G31G 3G 4R 7
 118392247.98247  92253710.88746  22529294.387    22529294.483    22529299.834
        42.000          41.000
 121817224.23547  94922502.72444  23181042.524    23181041.179    23181042.825
        42.000          28.000
 111213859.27247  86660150.29248  21163290.364    21163290.212    21163297.161
        46.000          48.000
 107999868.935 8  83999910.308 7  20168212.130    20168213.448    20168215.332
        49.000          47.000
 107651298.15248  83884139.96046  20485359.745    20485359.283    20485362.777
        49.000          40.000
 125255031.18746  97601321.24145  23835236.739    23835236.945    23835240.266
        38.000          31.000
 112995972.28747  88048796.79247  21502413.708    21502414.040    21502419.755
        46.000          47.000
 107698684.25547  83921049.69446  20494371.860    20494371.901    20494376.127
        47.000          41.000
 103486021.282 8  80489122.825 8  19332053.343    19332053.287    19332056.688
        52.000          49.000
 20  5  1  0 41 30.0000000  0  9G 9G22G26R 8G16G31G 3G 4R 7
 118375435.32247  92240610.10646  22526095.164    22526095.177    22526100.615
        42.000          41.000
 121982958.98047  95051646.64844  23212580.474    23212579.951    23212581.370
        43.000          27.000
 111328114.75847  86749180.52547  21185032.542    21185032.463    21185039.244
        47.000          47.000
 107992971.794 8  83994545.858 7  20166924.374    20166925.407    20166927.312
        50.000          46.000
 107685957.74948  83911147.44246  20491955.467    20491954.932    20491958.369
        48.000          40.000
 125417574.87446  97727978.61845  23866168.435    23866168.598    23866171.414
        39.000          31.000
 113137707.35647  88159239.67047  21529384.898    21529385.235    21529391.098
        46.000          47.000
 107730926.18048  83946173.26546  20500507.286    20500507.321    20500511.435
        48.000          40.000
 103595562.751 8  80574321.719 8  19352516.778    19352516.894    19352519.969
        53.000          49.000
 20  5  1  0 42  0.0000000  0 10G 9G22G26R 8R 1G16G31G 3G 4R 7
 118358759.25847  92227615.77546  22522921.493    22522921.920    22522927.340
        43.000          41.000
 122148876.16947  95180932.74044  23244153.470    23244152.381    23244154.364
        42.000          27.000
 111442893.61847  86838618.59847  21206874.272    21206874.200    21206880.767
        47.000          47.000
 107986555.956 8  83989555.748 7  20165725.735    20165727.231    20165729.081
        50.000          47.000
 126021934.512 6  98017089.576 4  23575014.598    23575013.623    23575022.699
        36.000          27.000
 107721258.22248  83938654.30946  20498672.628    20498672.182    20498675.790
        48.000          40.000
 125580125.76846  97854641.60745  23897101.139    23897101.066    23897103.650
        40.000          31.000
 113279874.52547  88270019.25447  21556438.377    21556438.826    21556444.780
        47.000          47.000
 107763492.77648  83971549.82346  20506704.379    20506704.516    20506708.767
        48.000          41.000
 103705778.881 8  80660045.361 8  19373106.306    19373105.867    19373109.336
        52.000          49.000
 20  5  1  0 42 30.0000000  0 10G 9G22G26R 8R 1G16G31G 3G 4R 7
 118342222.48847  92214729.97246  22519775.362    22519775.140    22519780.417
        43.000          41.000
 122314974.36147  95310359.86244  23275760.701    23275759.843    23275761.981
        42.000          27.000
 111558194.99947  86928463.83347  21228815.755    21228815.371    21228821.908
        47.000          47.000
 107980626.098 8  83984943.628 7  20164618.708    20164619.782    20164621.756
        49.000          46.000
 125967070.097 6  97974417.248 4  23564747.454    23564751.180    23564760.670
        36.000          27.000
 107757201.53048  83966662.08546  20505512.628    20505512.055    20505515.555
        48.000          40.000
 125742683.93246  97981310.25645  23928034.227    23928034.528    23928037.584
        39.000          31.000
 113422472.47647  88381134.51447  21583574.021    21583574.377    21583580.314
        47.000          47.000
 107796386.55148  83997181.32646  20512964.066    20512964.210    20512968.273
        48.000          41.000
 103816670.411 8  80746294.304 8  19393821.810    19393821.491    19393824.680
        52.000          49.000
 20  5  1  0 43  0.0000000  0 11G 9G22G26R 8R 1G 7G16G31G 3G 4R 7
 118325832.20747  92201958.32047  22516656.176    22516656.184    22516661.567
        42.000          42.000
 122481256.18047  95439930.09144  23307403.100    23307402.200    23307404.415
        42.000          27.000
 111674022.48647  87018719.00347  21250856.237    21250856.470    21250863.158
        47.000          47.000
 107975191.425 8  83980716.645 7  20163603.393    20163604.623    20163606.845
        49.000          47.000
 125912267.034 6  97931792.634 4  23554492.472    23554499.085    23554506.744
        37.000          28.000
 131664666.77246 102595848.28244  25054954.717    25054954.075    25054957.663
        36.000          27.000
 107793794.56748  83995176.14646  20512475.855    20512475.349    20512478.972
        49.000          40.000
 125905254.09146  98107988.23545  23958969.612    23958970.424    23958973.639
        38.000          30.000
 113565504.32647  88492587.87547  21610791.988    21610792.452    21610798.517
        47.000          47.000
 107829614.47648  84023073.20946  20519287.179    20519287.380    20519291.304
        48.000          41.000
 103928242.653 8  80833072.692 8  19414664.364    19414664.093    19414667.466
        52.000          49.000
 20  5  1  0 43 30.0000000  0 11G 9G22G26R 8R 1G 7G16G31G 3G 4R 7
 118309573.38847  92189289.10947  22513561.970    22513562.285    22513567.970
        43.000          42.000
 122647702.50047  95569628.49644  23339076.635    23339076.205    23339078.183
        42.000          27.000
 111790357.52747  87109369.67547  21272994.354    21272994.364    21273001.233
        46.000          47.000
 107970238.478 8  83976864.349 7  20162678.541    20162679.988    20162681.975
        49.000          47.000
 125857511.116 6  97889204.679 4  23544251.529    23544256.398    23544265.089
        36.000          28.000
 131650081.49545 102584483.08944  25052178.499    25052178.576    25052181.961
        35.000          26.000
 107831021.47648  84024184.13446  20519559.911    20519559.526    20519562.993
        49.000          40.000
 126067818.53446  98234661.78945  23989905.053    23989905.434    23989908.504
        37.000          30.000
 113708951.00647  88604364.48147  21638088.929    21638089.361    21638095.598
        47.000          47.000
 107863161.29748  84049213.58046  20525670.864    20525671.044    20525675.105
        48.000          41.000
 104040478.097 8  80920366.903 8  19435630.778    19435630.584    19435634.096
        53.000          49.000
 20  5  1  0 44  0.0000000  0 11G 9G22G26R 8R 1G 7G16G31G 3G 4R 7
 118293454.00247  92176728.54847  22510495.167    22510495.067    22510500.584
        44.000          42.000
 122814316.82047  95699457.79944  23370782.606    23370781.694    23370783.337
        42.000          27.000
 111907204.39847  87200419.17747  21295229.510    21295229.357    21295236.340
        46.000          47.000
 107965777.289 8  83973394.532 7  20161845.748    20161847.031    20161848.992
        49.000          46.000
 125802811.646 6  97846660.581 4  23534025.378    23534026.731    23534031.956
        39.000          28.000
 131635563.21546 102573170.11744  25049414.977    25049415.269    25049418.865
        36.000          26.000
 107868889.58648  84053691.76146  20526765.920    20526765.593    20526769.049
        49.000          40.000
 126230382.33346  98361334.84044  24020840.396    24020839.768    24020843.526
        37.000          29.000
 113852816.32547  88716467.30047  21665465.738    21665466.053    21665472.303
        47.000          47.000
 107897034.69448  84075608.42746  20532116.624    20532116.901    20532121.084
        48.000          41.000
 104153382.306 8  81008181.268 8  19456722.453    19456722.373    19456725.581
        53.000          49.000
 20  5  1  0 44 30.0000000  0 11G 9G22G26R 8R 1G 7G16G31G 3G 4R 7
 118277472.78147  92164275.64947  22507453.868    22507453.740    22507459.345
        43.000          42.000
 122981094.06047  95829414.06044  23402519.556    23402518.494    23402520.265
        42.000          27.000
 112024558.22947  87291863.71247  21317561.272    21317561.141    21317568.110
        46.000          47.000
 107961807.875 8  83970307.205 7  20161104.694    20161105.880    20161107.631
        49.000          47.000
 125748168.911 6  97804160.690 4  23523802.313    23523802.930    23523808.658
        38.000          28.000
 131621109.92245 102561907.79644  25046665.922    25046664.830    25046668.540
        35.000          26.000
 107907396.95648  84083697.50946  20534093.481    20534093.202    20534096.754
        48.000          40.000
 126392941.54546  98488004.28744  24051773.702    24051774.016    24051777.820
        36.000          29.000
 113997094.93347  88828892.16647  21692921.092    21692921.430    21692927.609
        46.000          46.000
 107931233.23048  84102256.62846  20538624.272    20538624.652    20538628.887
        48.000          41.000
 104266951.929 8  81096513.173 8  19477938.243    19477938.256    19477941.377
        52.000          49.000
 20  5  1  0 45  0.0000000  0 11G 9G22G26R 8R 1G 7G16G31G 3G 4R 7
 118261642.31847  92151940.21947  22504441.099    22504441.151    22504446.894
        43.000          42.000
 123148042.10347  95959503.41944  23434288.605    23434287.969    23434289.392
        42.000          27.000
 112142427.93247  87383710.22247  21339991.337    21339991.221    21339997.933
        46.000          47.000
 107958345.293 8  83967614.081 7  20160457.789    20160459.299    20160460.922
        49.000          47.000
 125693597.413 6  97761716.175 4  23513592.478    23513593.382    23513600.676
        38.000          28.000
 131606731.63046 102550703.90644  25043928.313    25043928.763    25043932.776
        36.000          27.000
 107946555.15248  84114210.39846  20541545.043    20541544.726    20541548.318
        48.000          40.000
 126555506.22546  98614678.00744  24082710.464    24082709.578    24082713.104
        38.000          29.000
 114141795.27847  88941645.65347  21720456.839    21720457.081    21720463.182
        46.000          47.000
 107965769.20948  84129167.77646  20545196.405    20545196.619    20545200.576
        48.000          41.000
 104381197.598 8  81185370.901 8  19499280.058    19499280.193    19499283.376
        53.000          49.000
 20  5  1  0 45 30.0000000  0 11G 9G22G26R 8R 1G 7G16G31G 3G 4R 7
 118245954.06447  92139715.59947  22501455.704    22501455.820    22501461.298
        43.000          42.000
 123315148.16046  96089715.88744  23466087.877    23466086.885    23466088.880
        41.000          26.000
 112260801.20447  87475949.12747  21362516.883    21362516.948    21362523.608
        46.000          47.000
 107955382.605 8  83965309.770 7  20159904.945    20159905.695    20159907.797
        49.000          47.000
 125639089.319 6  97719320.971 4  23503395.007    23503398.855    23503402.962
        39.000          28.000
 131592419.67746 102539551.71044  25041206.088    25041205.704    25041209.186
        36.000          27.000
 107986355.04148  84145223.29946  20549119.186    20549118.478    20549121.987
        48.000          40.000
 126718064.88646  98741347.01645  24113643.182    24113643.285    24113646.859
        37.000          30.000
 114286904.61147  89054717.83247  21748070.076    21748070.494    21748076.556
        45.000          47.000
 108000633.78648  84156334.96546  20551830.777    20551831.063    20551835.209
        48.000          41.000
 104496108.030 8  81274745.661 8  19520746.712    19520746.436    19520749.554
        52.000          49.000
 20  5  1  0 46  0.0000000  0 11G 9G22G26R 8R 1G 7G16G31G 3G 4R 7
 118230408.81847  92127602.41847  22498497.431    22498497.640    22498503.184
        44.000          42.000
 123482408.61447  96220048.68444  23497916.804    23497915.782    23497917.161
        42.000          26.000
 112379675.15647  87568578.17247  21385137.948    21385137.855    21385144.793
        47.000          47.000
 107952922.161 8  83963396.090 7  20159444.940    20159446.323    20159448.542
        49.000          47.000
 125584647.117 6  97676977.012 4  23493212.226    23493211.976    23493218.638
        38.000          28.000
 131578172.89146 102528450.28844  25038494.839    25038494.470    25038498.607
        36.000          27.000
 108026796.48748  84176736.11746  20556814.496    20556814.244    20556817.511
        48.000          40.000
 126880615.69946  98868009.92744  24144575.256    24144576.063    24144579.747
        37.000          29.000
 114432419.57547  89168106.09647  21775760.798    21775761.145    21775767.159
        46.000          47.000
 108035827.51447  84183758.64146  20558528.111    20558528.287    20558532.324
        47.000          41.000
 104611681.576 8  81364636.173 8  19542336.541    19542336.509    19542339.894
        52.000          49.000
 20  5  1  0 46 30.0000000  0 11G 9G22G26R 8R 1G 7G16G31G 3G 4R 7
 118215013.95947  92115606.42847  22495568.095    22495567.990    22495573.668
        43.000          42.000
 123649826.60247  96350504.23344  23529774.862    23529774.351    23529775.839
        42.000          26.000
 112499053.46147  87661600.21747  21407854.692    21407854.735    21407861.395
        46.000          47.000
 107950973.217 8  83961880.239 7  20159080.943    20159082.405    20159084.436
        49.000          47.000
 125530279.364 6  97634691.001 4  23483040.714    23483042.209    23483048.653
        38.000          28.000
 131563997.21045 102517404.27844  25035796.598    25035796.324    25035801.056
        35.000          27.000
 108067886.08048  84208753.98946  20564633.787    20564633.339    20564636.683
        48.000          41.000
 127043163.48046  98994670.50144  24175507.451    24175507.983    24175511.153
        38.000          29.000
 114578343.35247  89281812.90847  21803529.316    21803529.546    21803535.430
        46.000          46.000
 108071357.48448  84211444.32246  20565289.112    20565289.462    20565293.499
        48.000          41.000
 104727923.408 8  81455046.455 8  19564051.269    19564051.468    19564054.855
        52.000          49.000
 20  5  1  0 47  0.0000000  0 11G 9G22G26R 8R 1G 7G16G31G 3G 4R 7
 118199769.61847  92103727.71347  22492667.371    22492666.938    22492672.752
        43.000          42.000
 123817398.05047  96481079.35544  23561663.090    23561662.138    23561663.327
        42.000          26.000
 112618932.48047  87755012.43047  21430667.212    21430667.138    21430673.787
        46.000          47.000
 107949537.560 8  83960763.615 7  20158813.138    20158814.250    20158816.499
        49.000          47.000
 125475988.002 6  97592464.358 4  23472886.453    23472886.511    23472891.504
        38.000          28.000
 131549891.36645 102506412.70444  25033112.622    25033112.784    25033116.876
        35.000          27.000
 108109622.92648  84241276.20946  20572575.988    20572575.558    20572579.019
        48.000          41.000
 127205705.67146  99121326.72944  24206438.736    24206438.770    24206441.924
        36.000          29.000
 114724671.85947  89395835.10347  21831374.253    21831374.977    21831380.767
        46.000          46.000
 108107223.54248  84239391.88446  20572114.316    20572114.669    20572118.683
        48.000          41.000
 104844831.207 8  81545974.717 8  19585890.891    19585890.754    19585894.109
        52.000          49.000
 20  5  1  0 47 30.0000000  0 11G 9G22G26R 8R 1G 7G16G31G 3G 4R 7
 118184673.86647  92091964.78947  22489794.384    22489794.393    22489799.916
        43.000          42.000
 123985116.36147  96611768.92844  23593578.624    23593577.711    23593579.176
        42.000          26.000
 112739306.45347  87848810.32547  21453573.479    21453573.507    21453580.057
        46.000          47.000
 107948615.072 8  83960046.122 7  20158640.931    20158642.057    20158644.117
        50.000          47.000
 125421772.319 6  97550296.631 4  23462745.073    23462744.037    23462749.486
        38.000          28.000
 131535852.04246 102495472.94744  25030440.755    25030440.895    25030445.137
        36.000          28.000
 108152004.20548  84274300.59046  20580640.919    20580640.190    20580643.699
        48.000          40.000
 127368237.46746  99247974.80644  24237366.793    24237367.062    24237370.562
        36.000          28.000
 114871398.89847  89510167.83647  21859295.794    21859296.166    21859302.102
        45.000          47.000
 108143423.43248  84267599.58046  20579003.035    20579003.320    20579007.324
        48.000          41.000
 104962400.538 8  81637417.515 8  19607853.888    19607853.713    19607857.177
        52.000          49.000
 20  5  1  0 48  0.0000000  0 11G 9G22G26R 8R 1G 7G16G31G 3G 4R 7
 118169738.64647  92080326.94947  22486952.628    22486952.556    22486957.779
        44.000          43.000
 124152989.19546  96742578.89044  23625523.276    23625522.505    23625524.910
        41.000          26.000
 112860183.59947  87943000.29947  21476575.382    21476575.435    21476582.204
        46.000          47.000
 107948220.038 8  83959738.866 7  20158567.016    20158568.279    20158570.268
        50.000          47.000
 125367645.730 6  97508198.155 4  23452615.045    23452617.649    23452624.275
        38.000          28.000
 131521889.24146 102484592.83944  25027783.325    25027784.079    25027788.014
        36.000          28.000
 108195040.90548  84307835.67746  20588830.322    20588830.081    20588833.422
        48.000          40.000
 127530768.06146  99374621.98644  24268295.028    24268295.381    24268298.954
        36.000          28.000
 115018532.16947  89624817.11047  21887294.295    21887294.701    21887300.634
        46.000          47.000
 108179968.82648  84296076.50147  20585957.524    20585957.603    20585961.770
        48.000          42.000
 105080641.073 8  81729382.356 8  19629942.200    19629941.961    19629945.464
        52.000          49.000
 20  5  1  0 48 30.0000000  0 11G 9G22G26R 8R 1G 7G16G31G 3G 4R 7
 118154962.00347  92068812.67647  22484140.964    22484140.874    22484145.918
        44.000          43.000
 124321010.26846  96873504.37244  23657496.943    23657496.546    23657498.465
        41.000          26.000
 112981558.12147  88037577.83747  21499672.714    21499672.589    21499679.077
        46.000          47.000
 107948351.293 8  83959840.951 7  20158591.915    20158592.695    20158594.854
        49.000          47.000
 125313608.111 6  97466168.916 4  23442507.374    23442507.791    23442515.658
        37.000          29.000
 131508000.03845 102473770.06344  25025142.012    25025140.861    25025145.264
        35.000          28.000
 108238729.93448  84341879.08046  20597144.345    20597143.790    20597147.102
        48.000          40.000
 127693292.80746  99501264.59244  24299223.381    24299223.327    24299226.655
        36.000          28.000
 115166065.46647  89739778.10247  21915368.756    21915369.268    21915375.381
        46.000          46.000
 108216857.43347  84324820.86246  20592977.176    20592977.297    20592981.493
        47.000          41.000
 105199548.231 8  81821865.679 8  19652155.223    19652154.834    19652158.398
        52.000          49.000
 20  5  1  0 49  0.0000000  0 11G 9G22G26R 8R 1G 7G16G31G 3G 4R 7
 118140341.31147  92057419.92547  22481358.448    22481358.573    22481363.815
        44.000          43.000
 124489172.76246  97004540.05144  23689497.408    23689496.327    23689498.445
        41.000          25.000
 113103423.50647  88132537.86947  21522862.609    21522862.676    21522869.368
        46.000          47.000
 107949008.149 8  83960351.831 7  20158714.718    20158715.695    20158717.400
        50.000          47.000
 125259658.047 6  97424207.735 4  23432414.760    23432416.330    23432424.034
        38.000          29.000
 131494180.49946 102463001.57744  25022511.169    25022511.664    25022515.126
        37.000          28.000
 108283067.81248  84376428.08146  20605581.612    20605581.067    20605584.372
        48.000          40.000
 127855806.33646  99627898.44344  24330149.187    24330149.239    24330151.568
        37.000          28.000
 115313991.80747  89855045.35647  21943518.107    21943518.621    21943524.909
        46.000          46.000
 108254086.29548  84353830.35047  20600061.458    20600061.468    20600065.927
        48.000          42.000
 105319116.648 8  81914863.317 8  19674491.310    19674491.366    19674494.862
        52.000          49.000
 20  5  1  0 49 30.0000000  0 11G 9G22G26R 8R 1G 7G16G31G 3G 4R 7
 116550455.46547  90818547.83747  22178813.465    22178813.287    22178818.500
        43.000          43.000
 123082057.09647  95908086.25044  23421732.534    23421731.092    23421733.330
        42.000          25.000
 111650359.43047  87000280.13247  21246354.012    21246353.754    21246360.536
        46.000          47.000
 106344816.833 8  82712647.471 7  19859143.048    19859144.236    19859145.905
        49.000          47.000
 123603231.812 6  96135876.205 4  23122548.284    23122548.776    23122553.316
        38.000          29.000
 129905007.96546 101224685.30144  24720102.748    24720102.324    24720105.933
        36.000          28.000
 106752634.35848  83183882.53446  20314349.765    20314349.318    20314352.582
        48.000          41.000
 126442890.88846  98526925.30944  24061280.013    24061279.893    24061283.127
        37.000          29.000
 113886891.30047  88743018.96147  21671950.025    21671950.334    21671956.791
        45.000          46.000
 106716235.72448  83155505.21247  20307418.127    20307418.281    20307422.611
        48.000          42.000
 103834534.471 8  80760188.274 8  19397158.995    19397158.776    19397162.414
        52.000          49.000
 20  5  1  0 50  0.0000000  0 11G 9G22G26R 8R 1G 7G16G31G 3G 4R 7
 116536161.75347  90807409.87147  22176093.288    22176092.986    22176098.536
        43.000          43.000
 123250504.06846  96039343.60444  23453786.342    23453785.991    23453788.237
        41.000          25.000
 111773210.07947  87096007.90447  21269731.539    21269731.710    21269738.027
        46.000          47.000
 106346545.519 8  82713991.998 7  19859465.424    19859467.044    19859468.709
        50.000          47.000
 123549475.948 6  96094066.083 4  23112491.246    23112491.836    23112498.715
        38.000          29.000
 129891337.84146 101214033.22044  24717501.325    24717500.890    24717505.184
        36.000          28.000
 106798281.49048  83219451.73046  20323035.976    20323035.616    20323039.005
        48.000          40.000
 126605389.30245  98653547.38644  24092202.422    24092202.498    24092205.854
        35.000          28.000
 114035605.95547  88858900.48447  21700249.553    21700249.780    21700256.382
        46.000          46.000
 106754159.11348  83185055.89547  20314634.784    20314634.899    20314639.113
        48.000          42.000
 103955432.697 8  80854220.206 8  19419743.542    19419743.675    19419747.000
        52.000          49.000
 20  5  1  0 50 30.0000000  0 11G 9G22G26R 8R 1G 7G16G31G 3G 4R 7
 116522033.49047  90796400.83647  22173404.361    22173404.318    22173410.005
        44.000          43.000
 123419088.54846  96170708.09044  23485867.181    23485866.145    23485868.472
        41.000          25.000
 111896549.47047  87192116.50947  21293202.171    21293202.169    21293208.922
        46.000          46.000
 106348814.376 8  82715756.653 7  19859889.743    19859890.974    19859892.395
        50.000          47.000
 123495821.705 6  96052335.030 4  23102453.659    23102453.754    23102461.238
        39.000          29.000
 129877742.55346 101203439.49244  24714914.572    24714913.457    24714918.037
        36.000          28.000
 106844583.46948  83255531.19646  20331847.045    20331846.541    20331850.164
        48.000          40.000
 126767878.03046  98780161.92744  24123123.023    24123123.263    24123126.169
        36.000          28.000
 114184710.23847  88975085.61147  21728622.910    21728623.375    21728629.990
        45.000          46.000
 106792431.23748  83214878.31546  20321917.808    20321917.785    20321922.134
        48.000          41.000
 104076993.615 8  80948767.566 8  19442452.392    19442452.523    19442455.636
        52.000          48.000
 20  5  1  0 51  0.0000000  0 11G 9G22G26R 8R 1G 7G16G31G 3G 4R 7
 116508066.87347  90785517.75647  22170746.482    22170746.443    22170752.394
        43.000          43.000
 123587802.48747  96302173.46944  23517972.021    23517971.076    23517973.542
        42.000          25.000
 112020369.87147  87288599.92647  21316764.553    21316764.517    21316771.049
        46.000          46.000
 106351621.308 8  82717939.811 7  19860413.901    19860415.068    19860416.588
        50.000          47.000
 123442266.472 6  96010680.915 4  23092435.304    23092436.652    23092443.271
        39.000          29.000
 129864216.32046 101192899.54244  24712339.338    24712339.641    24712344.179
        36.000          28.000
 106891535.13848  83292116.91046  20340781.316    20340781.081    20340784.689
        48.000          41.000
 126930350.74245  98906763.98144  24154041.151    24154040.682    24154044.425
        35.000          28.000
 114334195.94047  89091567.95047  21757068.977    21757069.585    21757076.216
        45.000          45.000
 106831047.90648  83244969.21546  20329266.174    20329266.307    20329270.567
        49.000          41.000
 104199210.970 8  81043825.491 8  19465283.604    19465283.421    19465287.064
        52.000          49.000
 20  5  1  0 51 30.0000000  0 11G 9G22G26R 8R 1G 7G16G31G 3G 4R 7
 116494274.41247  90774770.38447  22168122.249    22168122.038    22168127.702
        44.000          43.000
 123756653.78647  96433745.88444  23550103.350    23550102.813    23550104.777
        42.000          25.000
 112144679.89547  87385464.87347  21340420.048    21340420.037    21340426.400
        46.000          46.000
 106354980.366 8  82720552.411 7  19861041.275    19861042.118    19861043.921
        50.000          47.000
 123388824.406 6  95969114.868 4  23082439.415    23082438.373    23082445.650
        39.000          29.000
 129850770.12846 101182421.97144  24709782.199    24709781.475    24709785.384
        36.000          28.000
 106939147.79848  83329217.68846  20349842.105    20349841.682    20349845.159
        48.000          41.000
 127092817.12946  99033361.10344  24184956.789    24184956.978    24184960.464
        36.000          28.000
 114484071.21847  89208353.85747  21785589.753    21785590.037    21785596.536
        45.000          45.000
 106870021.26548  83275338.05346  20336682.542    20336682.805    20336686.939
        48.000          41.000
 104322094.320 8  81139401.411 8  19488238.954    19488239.258    19488242.601
        52.000          48.000
 20  5  1  0 52  0.0000000  0 11G 9G22G26R 8R 1G 7G16G31G 3G 4R 7
 116480649.25347  90764153.37547  22165529.170    22165529.349    22165534.870
        43.000          43.000
 123925631.36846  96565416.68944  23582258.367    23582257.867    23582260.703
        41.000          25.000
 112269468.65147  87482702.85047  21364166.255    21364166.288    21364173.016
        45.000          46.000
 106358885.962 8  82723590.084 7  19861771.007    19861771.494    19861773.273
        50.000          47.000
 123335490.102 6  95927632.626 4  23072457.544    23072460.803    23072468.223
        39.000          29.000
 129837395.98646 101172000.54944  24707236.782    24707236.269    24707240.028
        36.000          28.000
 106987413.46348  83366827.30146  20359026.633    20359026.098    20359029.797
        48.000          40.000
 127255267.67246  99159945.86544  24215870.934    24215870.057    24215874.295
        36.000          28.000
 114634324.79947  89325434.54947  21814182.333    21814182.495    21814188.823
        45.000          46.000
 106909344.05148  83305979.18047  20344165.598    20344165.648    20344169.694
        49.000          42.000
 104445633.848 8  81235487.687 8  19511317.475    19511317.396    19511320.824
        52.000          49.000
 20  5  1  0 52 30.0000000  0 11G 9G22G26R 8R 1G 7G16G31G 3G 4R 7
 116467191.76047  90753667.02147  22162968.355    22162968.379    22162973.857
        44.000          43.000
 124094731.10646  96697182.68644  23614437.336    23614436.615    23614439.378
        41.000          25.000
 112394732.58947  87580311.10447  21388003.352    21388003.350    21388010.081
        46.000          46.000
 106363340.400 8  82727054.642 7  19862602.480    19862603.380    19862605.204
        50.000          47.000
 123282265.618 6  95886235.784 4  23062505.057    23062504.277    23062512.265
        39.000          29.000
 129824092.85946 101161634.46744  24704705.354    24704705.006    24704709.111
        37.000          29.000
 107036331.32948  83404945.11346  20368335.197    20368334.956    20368338.398
        48.000          40.000
 127417699.99646  99286516.44944  24246780.353    24246780.493    24246784.455
        36.000          28.000
 114784952.65347  89442806.88547  21842845.731    21842846.126    21842852.405
        46.000          46.000
 106949016.27347  83336892.58746  20351714.610    20351714.966    20351719.183
        47.000          41.000
 104569827.292 8  81332082.568 8  19534517.847    19534517.722    19534521.350
        52.000          49.000
 20  5  1  0 53  0.0000000  0 11G 9G22G26R 8R 1G 7G16G31G 3G 4R 7
 116453912.19347  90743319.30847  22160441.567    22160441.442    22160446.905
        43.000          43.000
 124263958.71746  96829048.31244  23646640.829    23646640.194    23646642.638
        40.000          24.000
 112520477.91247  87678294.46247  21411931.615    21411931.724    21411938.321
        46.000          45.000
 106368355.832 8  82730955.522 7  19863538.990    19863539.978    19863541.880
        50.000          47.000
 123229162.510 6  95844933.373 4  23052568.717    23052571.063    23052576.497
        39.000          29.000
 129810868.99346 101151330.11645  24702188.340    24702188.935    24702192.537
        37.000          30.000
 107085910.15848  83443577.96746  20377769.934    20377769.430    20377773.056
        48.000          40.000
 127580121.55945  99413078.63644  24277687.034    24277687.850    24277692.035
        35.000          27.000
 114935960.59847  89560475.37947  21871581.463    21871581.966    21871588.346
        46.000          46.000
 106989047.72548  83368085.91547  20359332.723    20359332.765    20359336.967
        49.000          42.000
 104694682.122 8  81429191.866 8  19557841.776    19557841.795    19557845.059
        52.000          48.000
 20  5  1  0 53 30.0000000  0 11G 9G22G26R 8R 1G 7G16G31G 3G 4R 7
 116440802.37647  90733103.86947  22157946.719    22157946.801    22157952.153
        43.000          44.000
 124433301.66646  96961003.83044  23678865.520    23678864.315    23678867.265
        40.000          24.000
 112646692.38347  87776643.38747  21435949.602    21435949.719    21435956.262
        45.000          46.000
 106373924.984 8  82735287.077 8  19864579.119    19864580.085    19864581.846
        50.000          48.000
 123176174.154 6  95803720.193 4  23042659.338    23042658.947    23042665.099
        39.000          29.000
 129797714.90146 101141080.20744  24699684.759    24699684.990    24699689.211
        37.000          29.000
 107136140.31448  83482718.35146  20387328.320    20387327.897    20387331.515
        48.000          41.000
 127742521.47145  99539623.94744  24308590.469    24308591.326    24308595.195
        34.000          26.000
 115087335.99347  89678430.21247  21900387.628    21900387.907    21900394.087
        46.000          45.000
 107029429.88648  83399552.51947  20367017.128    20367017.373    20367021.715
        48.000          42.000
 104820187.004 8  81526806.753 8  19581287.182    19581287.060    19581290.388
        52.000          48.000
 20  5  1  0 54  0.0000000  0 11G 9G22G26R 8R 1G 7G16G31G 3G 4R 7
 116427869.74147  90723026.49647  22155486.076    22155485.877    22155491.201
        43.000          43.000
 124602762.95246  97093051.54244  23711112.938    23711111.533    23711114.780
        40.000          24.000
 112773379.56947  87875360.66547  21460057.605    21460057.416    21460064.006
        45.000          46.000
 106380057.127 8  82740056.519 8  19865723.900    19865725.126    19865727.003
        49.000          48.000
 123123309.529 6  95762603.245 4  23032768.290    23032769.240    23032775.552
        39.000          29.000
 129784636.50346 101130889.21844  24697195.781    24697196.373    24697201.184
        37.000          29.000
 107187027.68248  83522370.84646  20397011.894    20397011.627    20397015.014
        48.000          41.000
 127904904.64345  99666156.22744  24339491.731    24339492.090    24339496.006
        35.000          25.000
 115239081.85647  89796673.71447  21929263.618    21929264.274    21929270.334
        45.000          45.000
 107070169.71248  83431297.82447  20374769.668    20374769.961    20374774.100
        48.000          42.000
 104946346.284 8  81624930.620 8  19604854.906    19604854.742    19604858.138
        52.000          49.000
 20  5  1  0 54 30.0000000  0 11G 9G22G26R 8R 1G 7G16G31G 3G 4R 7
 116415110.33647  90713084.10147  22153058.242    22153057.875    22153063.226
        44.000          43.000
 124772334.36046  97225185.07644  23743381.265    23743380.386    23743383.029
        40.000          24.000
 112900531.36347  87974439.97147  21484253.778    21484253.817    21484260.200
        46.000          45.000
 106386749.379 8  82745261.588 7  19866973.482    19866974.649    19866976.927
        50.000          47.000
 123070566.209 6  95721580.663 4  23022902.557    23022901.352    23022907.589
        39.000          29.000
 129771628.13546 101120752.82144  24694720.857    24694721.376    24694725.138
        37.000          29.000
 107238567.01747  83562531.37246  20406819.292    20406819.000    20406822.708
        47.000          41.000
 128067264.46145  99792670.31144  24370388.590    24370388.565    24370392.051
        34.000          25.000
 115391189.75047  89915199.32247  21958209.056    21958209.520    21958215.681
        45.000          45.000
 107111262.86448  83463318.45147  20382589.577    20382589.725    20382593.826
        49.000          42.000
 105073153.178 8  81723558.184 8  19628543.246    19628543.375    19628546.683
        52.000          48.000
 20  5  1  0 55  0.0000000  0 11G 9G22G26R 8R 1G 7G16G31G 3G 4R 7
 116402531.59447  90703282.48847  22150664.429    22150664.214    22150669.574
        44.000          44.000
 124942018.61946  97357406.52544  23775670.773    23775669.482    23775671.811
        40.000          24.000
 113028151.11947  88073883.93147  21508539.156    21508539.095    21508545.678
        45.000          46.000
 106394011.245 8  82750909.701 7  19868329.638    19868330.802    19868332.909
        49.000          47.000
 123017953.040 6  95680659.298 4  23013058.650    23013059.722    23013066.419
        39.000          29.000
 129758695.66546 101110675.55845  24692259.838    24692260.033    24692264.268
        37.000          30.000
 107290764.29948  83603204.57946  20416752.256    20416751.759    20416755.448
        48.000          40.000
 128229605.83645  99919170.01044  24401280.671    24401280.863    24401284.356
        33.000          25.000
 115543662.59347  90034009.30247  21987223.765    21987224.026    21987230.280
        46.000          45.000
 107152716.27548  83495619.80147  20390477.754    20390477.823    20390482.117
        48.000          42.000
 105200612.063 8  81822692.849 8  19652354.151    19652354.176    19652357.376
        53.000          49.000
 20  5  1  0 55 30.0000000  0 11G 9G22G26R 8R 1G 7G16G31G 3G 4R 7
 116390126.89947  90693616.49147  22148303.837    22148303.737    22148309.243
        44.000          44.000
 125111804.61346  97489707.27443  23807980.034    23807978.087    23807982.459
        41.000          23.000
 113156228.18547  88173684.23447  21532910.964    21532911.214    21532917.762
        46.000          46.000
 106401837.274 8  82756996.608 7  19869790.989    19869792.172    19869794.261
        49.000          47.000
 122965465.162 6  95639835.370 5  23003240.988    23003239.749    23003248.276
        38.000          30.000
 129745830.94846 101100651.09245  24689811.175    24689811.641    24689816.347
        36.000          30.000
 107343611.33548  83644384.08346  20426808.968    20426808.371    20426811.700
        48.000          41.000
 128391919.11145 100045647.81844  24432168.135    24432167.674    24432172.720
        33.000          24.000
 115696489.26047  90153094.99047  22016305.712    22016305.964    22016312.006
        46.000          45.000
 107194522.93748  83528196.41047  20398433.300    20398433.433    20398437.762
        49.000          42.000
 105328713.019 8  81922326.904 8  19676284.536    19676284.301    19676287.582
        53.000          48.000
 20  5  1  0 56  0.0000000  0 11G 9G22G26R 8R 1G 7G16G31G 3G 4R 7
 116377906.67047  90684094.23547  22145978.412    22145978.580    22145983.947
        45.000          45.000
 125281698.41346  97622092.00143  23840310.563    23840308.540    23840311.227
        39.000          23.000
 113284768.78847  88273845.72847  21557371.745    21557371.662    21557378.379
        45.000          45.000
 106410239.217 8  82763531.441 8  19871360.274    19871361.515    19871363.201
        50.000          48.000
 122913114.499 6  95599118.200 5  22993445.370    22993445.115    22993455.086
        37.000          30.000
 129733042.58146 101090686.14445  24687378.760    24687378.617    24687382.681
        37.000          30.000
 107397116.96648  83686076.78946  20436990.442    20436990.106    20436993.611
        48.000          40.000
 128554212.20545 100172109.90943  24463050.645    24463051.878    24463055.507
        34.000          23.000
 115849675.62647  90272460.96047  22045455.848    22045456.332    22045462.493
        45.000          45.000
 107236692.71548  83561055.96547  20406458.070    20406458.183    20406462.372
        49.000          42.000
 105457463.719 8  82022466.312 8  19700336.084    19700336.048    19700339.149
        52.000          48.000
 20  5  1  0 56 30.0000000  0 11G 9G22G26R 8R 1G 7G16G31G 3G 4R 7
 116365860.56847  90674707.65947  22143686.434    22143686.399    22143691.705
        45.000          45.000
 125451685.25446  97754549.23743  23872656.835    23872656.522    23872658.948
        39.000          23.000
 113413758.57147  88374357.23347  21581917.614    21581917.637    21581924.201
        46.000          46.000
 106419208.024 8  82770507.171 8  19873035.032    19873036.412    19873038.215
        50.000          48.000
 122860892.281 6  95558500.904 5  22983676.836    22983676.052    22983683.750
        38.000          30.000
 129720319.05746 101080771.69645  24684956.353    24684957.167    24684961.778
        37.000          30.000
 107451269.38248  83728273.47846  20447295.514    20447294.900    20447298.423
        48.000          40.000
 128716471.88145 100298545.96244  24493928.991    24493929.411    24493932.164
        35.000          24.000
 116003206.89347  90392095.68847  22074671.952    22074672.422    22074678.430
        45.000          45.000
 107279214.90748  83594190.12947  20414549.632    20414549.936    20414554.024
        49.000          42.000
 105586850.404 8  82123100.375 8  19724506.461    19724506.489    19724509.862
        52.000          49.000
 20  5  1  0 57  0.0000000  0 11G 9G22G26R 8R 1G 7G16G31G 3G 4R 7
 116353994.33447  90665461.23847  22141427.787    22141428.142    22141433.688
        45.000          45.000
 125621766.08746  97887079.70743  23905023.034    23905021.533    23905024.891
        40.000          23.000
 113543199.04047  88475219.93147  21606549.484    21606549.316    21606555.937
        45.000          45.000
 106428751.309 8  82777929.719 8  19874817.398    19874818.432    19874820.276
        50.000          48.000
 122808805.495 6  95517988.949 5  22973933.138    22973932.174    22973942.082
        38.000          30.000
 129707664.48546 101070910.97445  24682549.276    24682549.587    24682553.321
        38.000          30.000
 107506072.53248  83770977.23646  20457724.272    20457723.502    20457727.203
        48.000          40.000
 128878701.56045 100424958.64543  24524800.211    24524800.086    24524803.356
        34.000          22.000
 116157084.18247  90512000.04147  22103953.570    22103954.245    22103960.402
        44.000          45.000
 107322094.69148  83627602.93347  20422709.545    20422709.694    20422713.709
        49.000          42.000
 105716875.699 8  82224231.137 8  19748796.439    19748796.339    19748799.745
        52.000          49.000
 20  5  1  0 57 30.0000000  0 11G 9G22G26R 8R 1G 7G16G31G 3G 4R 7
 116342312.90847  90656358.83247  22139204.986    22139205.046    22139210.563
        45.000          45.000
 125791941.66646  98019684.02543  23937406.257    23937405.232    23937407.778
        40.000          23.000
 113673091.05647  88576434.48347  21631267.083    21631267.204    21631273.752
        46.000          45.000
 106438874.797 8  82785803.540 7  19876708.399    19876708.786    19876710.761
        50.000          47.000
 122756861.156 6  95477587.844 5  22964212.206    22964215.523    22964223.824
        38.000          30.000
 129695082.24146 101061106.62745  24680155.193    24680155.024    24680158.845
        38.000          30.000
 107561529.87047  83814190.74446  20468277.239    20468276.959    20468280.331
        47.000          40.000
 129040903.37945 100551349.60443  24555665.706    24555665.758    24555670.079
        33.000          21.000
 116311307.90747  90632174.35247  22133301.885    22133302.173    22133308.279
        44.000          45.000
 107365336.56848  83661297.89547  20430938.180    20430938.316    20430942.352
        48.000          42.000
 105847541.304 8  82325859.920 8  19773205.618    19773205.584    19773209.343
        52.000          48.000
 20  5  1  0 58  0.0000000  0 11G 9G22G26R 8R 1G 7G16G31G 3G 4R 7
 116330817.93647  90647401.71247  22137017.720    22137017.462    22137022.927
        44.000          45.000
 125962209.16846  98152359.95543  23969807.172    23969806.060    23969808.956
        40.000          23.000
 113803432.07347  88677998.89847  21656069.946    21656070.127    21656076.788
        45.000          45.000
 106449581.784 8  82794131.192 8  19878707.468    19878708.336    19878710.266
        50.000          48.000
 122705062.194 6  95437299.761 5  22954524.591    22954525.510    22954534.854
        38.000          30.000
 129682571.67846 101051358.13845  24677774.133    24677774.683    24677777.984
        38.000          30.000
 107617640.95448  83857913.67146  20478954.739    20478954.448    20478957.968
        48.000          40.000
 129203076.10245 100677717.91243  24586526.816    24586526.659    24586530.625
        32.000          21.000
 116465875.10047  90752616.29847  22162714.799    22162715.315    22162721.475
        45.000          45.000
 107408941.63748  83695275.85847  20439235.622    20439235.933    20439240.275
        48.000          43.000
 105978845.652 8  82427985.500 8  19797734.318    19797734.633    19797737.916
        52.000          48.000
 20  5  1  0 58 30.0000000  0 11G 9G22G26R 8R 1G 7G16G31G 3G 4R 7
 116319508.29147  90638588.99547  22134865.054    22134865.266    22134870.757
        45.000          45.000
 126132562.93546  98285103.10543  24002225.068    24002224.306    24002225.603
        40.000          23.000
 113934216.73247  88779909.01547  21680957.809    21680957.799    21680964.124
        45.000          45.000
 106460872.721 8  82802913.027 8  19880815.511    19880817.019    19880818.844
        50.000          48.000
 122653409.179 6  95397125.147 5  22944863.235    22944863.663    22944872.076
        40.000          31.000
 129670130.36446 101041663.59145  24675406.735    24675406.928    24675409.948
        38.000          30.000
 107674403.09548  83902143.91646  20489756.426    20489755.595    20489759.367
        49.000          40.000
 129365216.17145 100804060.77243  24617381.023    24617381.086    24617385.144
        32.000          21.000
 116620780.04847  90873321.42847  22192192.227    22192192.636    22192199.035
        45.000          44.000
 107452908.28048  83729535.57447  20447602.494    20447602.662    20447606.825
        49.000          42.000
 106110784.230 8  82530604.370 8  19822381.561    19822381.315    19822385.552
        52.000          49.000
 20  5  1  0 59  0.0000000  0 11G 9G22G26R 8R 1G 7G16G31G 3G 4R 7
 116308396.93247  90629930.79847  22132750.695    22132750.881    22132756.243
        45.000          45.000
 126303011.23946  98417919.91043  24034660.233    24034659.359    24034661.223
        41.000          23.000
 114065453.88247  88882171.71047  21705931.491    21705931.383    21705937.705
        46.000          45.000
 106472761.785 8  82812160.070 7  19883035.847    19883037.092    19883039.017
        50.000          47.000
 122601916.605 6  95357075.392 5  22935228.770    22935231.243    22935238.938
        41.000          31.000
 129657770.22546 101032032.31845  24673054.913    24673054.385    24673058.354
        38.000          30.000
 107731827.54148  83946890.24146  20500683.761    20500683.270    20500686.916
        48.000          40.000
 129527334.42545 100930386.58543  24648230.010    24648229.902    24648234.764
        30.000          19.000
 116776031.13447  90994296.27347  22221735.400    22221735.790    22221742.373
        45.000          44.000
 107497248.95348  83764086.73447  20456040.185    20456040.416    20456044.575
        49.000          42.000
 106243366.982 8  82633724.257 8  19847149.332    19847149.405    19847152.891
        52.000          48.000
 20  5  1  0 59 30.0000000  0 11G 9G22G26R 8R 1G 7G16G31G 3G 4R 7
 116297483.43647  90621426.76847  22130674.014    22130674.121    22130679.314
        45.000          45.000
 126473549.22746  98550806.63343  24067112.634    24067112.088    24067113.724
        41.000          23.000
 114197138.79347  88984783.32347  21730990.455    21730990.030    21730996.542
        46.000          45.000
 106485249.724 8  82821872.908 8  19885367.851    19885368.888    19885371.094
        50.000          48.000
 122550585.799 6  95317151.446 5  22925626.895    22925628.545    22925637.759
        40.000          31.000
 129645488.75646 101022462.33345  24670717.723    24670717.259    24670721.084
        37.000          30.000
 107789912.03048  83992150.88746  20511736.882    20511736.502    20511739.952
        49.000          41.000
 129689426.91144 101056692.38243  24679076.263    24679076.138    24679080.433
        29.000          18.000
 116931623.25147  91115536.85547  22251343.571    22251344.053    22251350.562
        44.000          44.000
 107541962.65848  83798928.57347  20464549.163    20464549.251    20464553.313
        49.000          43.000
 106376590.076 8  82737342.193 8  19872036.543    19872036.416    19872040.142
        51.000          48.000
 20  5  1  1  0  0.0000000  0 11G 9G22G26R 8R 1G 7G16G31G 3G 4R 7
 116286768.89047  90613077.78047  22128635.441    22128635.457    22128640.320
        46.000          44.000
 126644173.55246  98683760.59643  24099581.362    24099580.245    24099582.887
        41.000          23.000
 114329268.35047  89087741.40547  21756133.218    21756133.193    21756140.076
        45.000          45.000
 106498339.219 8  82832053.623 8  19887812.283    19887813.444    19887815.518
        50.000          48.000
 122499419.440 6  95277355.389 5  22916055.178    22916057.332    22916064.754
        40.000          31.000
 129633285.61146 101012953.37545  24668395.634    24668395.273    24668399.012
        38.000          30.000
 107848655.90048  84037925.33746  20522915.766    20522915.091    20522918.568
        48.000          40.000
 129851492.11644 101182976.88343  24709916.886    24709915.738    24709919.052
        29.000          18.000
 117087552.87647  91237040.43347  22281015.945    22281016.435    22281023.042
        44.000          43.000
 107587049.94448  83834061.51147  20473128.981    20473129.102    20473133.322
        49.000          43.000
 106510451.007 8  82841456.224 8  19897042.914    19897042.990    19897046.561
        52.000          48.000
 20  5  1  1  0 30.0000000  0 11G 9G22G26R 8R 1G 7G16G31G 3G 4R 7
 116276253.66447  90604884.09647  22126634.352    22126634.464    22126639.368
        45.000          45.000
 126814880.20046  98816778.71543  24132065.702    24132064.773    24132066.414
        40.000          22.000
 114461838.72447  89191042.97847  21781360.854    21781360.777    21781367.318
        46.000          45.000
 106512031.483 8  82842703.159    19890369.215    19890370.393    19890370.946
        50.000           1.000
 122448419.611 6  95237688.872 4  22906512.873    22906516.762    22906523.837
        41.000          27.000
 129621159.08146 101003504.13445  24666087.411    24666087.542    24666091.030
        37.000          30.000
 107908057.40047  84084212.21846  20534219.134    20534218.743    20534222.296
        47.000          40.000
 130013528.02744 101309238.59742  24740752.455    24740750.657    24740755.204
        29.000          17.000
 117243815.80547  91358803.73047  22310751.958    22310752.274    22310758.965
        44.000          44.000
 107632510.66648  83869485.44247  20481779.600    20481779.839    20481784.208
        49.000          43.000
 106644946.971 8  82946064.158    19922168.005    19922167.884    19922170.559
        52.000           1.000
 20  5  1  1  1  0.0000000  0 11G 9G22G26R 8R 1G 7G16G31G 3G 4R 7
 114690515.15547  89369243.70047  21824878.564    21824878.332    21824883.586
        45.000          45.000
 125410247.89246  97722259.99443  23864772.799    23864771.947    23864774.872
        40.000          22.000
 113019427.78847  88067086.39047  21506879.102    21506879.257    21506885.748
        46.000          45.000
 104920951.071 8                  19593246.164
        49.000
 120795021.271 6                  22597213.596
        41.000
 128033684.65646  99766511.05745  24364001.236    24364001.166    24364004.647
        37.000          30.000
 106392694.50448  82903409.96646  20245855.178    20245854.646    20245858.207
        48.000          40.000
 128600115.09444 100207877.82942  24471786.987    24471787.007    24471792.029
        28.000          16.000
 115824990.23547  90253225.34047  22040758.979    22040758.673    22040765.292
        44.000          44.000
 106102923.50648  82677599.33447  20190709.049    20190709.029    20190713.403
        49.000          43.000
 105175264.086 8                  19647619.010
        52.000
 20  5  1  1  1 30.0000000  0 11G 9G22G26R 8R 1G 7G16G31G 3G 4R 7
 114680397.62347  89361359.91347  21822953.300    21822952.919    21822958.453
        45.000          45.000
 125581104.39846  97855394.89543  23897285.996    23897285.358    23897286.848
        40.000          22.000
 113152865.96747  88171064.18047  21532271.566    21532271.615    21532278.390
        45.000          45.000
 104935851.640 8                  19596028.488
        49.000
 120744358.034 6                  22587733.836
        41.000
 128021705.79946  99757176.88145  24361721.630    24361721.579    24361724.856
        37.000          30.000
 106453404.75548  82950716.66246  20257408.045    20257407.575    20257410.918
        48.000          40.000
 128762083.32544 100334086.73042  24502605.816    24502608.876    24502613.994
        28.000          16.000
 115981904.73047  90375496.34847  22070618.318    22070618.668    22070625.119
        44.000          44.000
 106149128.40548  82713603.14247  20199501.571    20199501.589    20199505.903
        50.000          43.000
 105311018.241 8                  19672979.028
        52.000
 20  5  1  1  2  0.0000000  0 11G 9G22G26R 8R 1G 7G16G31G 3G 4R 7
 114670480.97147  89353632.64847  21821065.461    21821065.621    21821071.384
        44.000          45.000
 125752031.17146  97988584.52143  23929812.552    23929811.096    23929812.872
        40.000          22.000
 113286733.62047  88275376.62347  21557745.888    21557745.484    21557752.271
        45.000          45.000
 104951360.222 8                  19598924.600
        49.000
 120693867.611 6                  22578292.322
        40.000
 128009800.43046  99747899.95845  24359455.976    24359455.835    24359459.643
        37.000          30.000
 106514768.47248  82998532.54746  20269085.111    20269084.624    20269088.190
        48.000          40.000
 128924015.67644 100460267.79142  24533426.031    24533424.250    24533426.745
        28.000          17.000
 116139139.91747  90498017.25047  22100539.288    22100539.629    22100545.984
        43.000          44.000
 106195706.49348  82749897.74447  20208365.085    20208365.303    20208369.378
        48.000          43.000
 105447398.254 8  82014644.310 8  19698455.824    19698456.796    19698458.144
        52.000          48.000
 20  5  1  1  2 30.0000000  0 11G 9G22G26R 8R 1G 7G16G31G 3G 4R 7
 114660770.74947  89346066.24347  21819217.850    21819217.678    21819223.651
        44.000          45.000
 125923029.13546  98121829.65143  23962352.254    23962351.597    23962352.214
        40.000          22.000
 113421032.07147  88380024.75847  21583301.733    21583301.822    21583308.662
        45.000          45.000
 104967483.733 8  81641391.215 8  19601935.675    19601936.790    19601938.930
        49.000          48.000
 120643557.136 6                  22568879.504
        40.000
 127997972.26746  99738683.20145  24357205.672    24357204.798    24357209.092
        37.000          30.000
 106576789.31048  83046860.47446  20280887.464    20280886.965    20280890.441
        48.000          41.000
 129085915.40544 100586423.32242  24564231.142    24564233.191    24564234.761
        29.000          17.000
 116296696.76447  90620788.79147  22130521.019    22130521.720    22130528.193
        44.000          43.000
 106242662.79648  82786487.07147  20217300.831    20217300.776    20217304.853
        50.000          43.000
 105584406.533 8  82121206.282 8  19724050.197    19724050.181    19724053.654
        52.000          48.000
 20  5  1  1  3  0.0000000  0 11G 9G22G26R 8R 1G 7G16G31G 3G 4R 7
 114651260.92647  89338655.99147  21817408.161    21817408.138    21817414.022
        44.000          45.000
 126094087.69346  98255121.98043  23994903.844    23994902.191    23994904.302
        39.000          22.000
 113555750.91847  88485000.46647  21608937.688    21608937.962    21608944.962
        45.000          45.000
 104984217.039 8  81654405.996 8  19605061.043    19605061.616    19605063.847
        49.000          48.000
 120593422.043 6  93794901.962 5  22559501.439    22559499.682    22559508.156
        40.000          31.000
 127986213.52046  99729520.53945  24354968.297    24354966.946    24354971.234
        37.000          30.000
 106639458.71848  83095693.78346  20292812.947    20292812.518    20292816.064
        48.000          40.000
 129247773.53244 100712546.45942  24595033.324    24595033.417    24595035.258
        29.000          16.000
 116454564.51147  90743802.59247  22160562.637    22160563.015    22160569.405
        44.000          43.000
 106289990.64748  82823365.90147  20226306.901    20226307.004    20226311.130
        49.000          43.000
 105722032.897 8  82228248.982 8  19749760.335    19749760.100    19749763.299
        52.000          48.000
 20  5  1  1  3 30.0000000  0 12G 9G22G26R 8R 1G 7G27G16G31G 3G 4R 7
 114641951.85947  89331402.17247  21815637.219    21815637.017    21815642.586
        45.000          46.000
 126265202.72546  98388458.33643  24027465.753    24027464.033    24027466.346
        39.000          21.000
 113690886.22347  88590300.68547  21634653.562    21634653.463    21634660.244
        45.000          45.000
 105001561.470 8  81667896.103 8  19608299.427    19608300.699    19608302.819
        49.000          48.000
 120543464.641 6  93756046.212 5  22550156.036    22550154.312    22550162.097
        40.000          31.000
 127974523.14046  99720411.14445  24352742.896    24352742.385    24352746.864
        36.000          30.000
 128103414.16945                  24377268.051
        33.000
 106702775.38648  83145031.44546  20304861.735    20304861.543    20304864.659
        48.000          41.000
 129409587.77244 100838635.46242  24625824.071    24625824.933    24625829.119
        29.000          15.000
 116612738.77847  90867055.23347  22190662.406    22190662.924    22190668.982
        44.000          43.000
 106337689.78648  82860534.05347  20235383.511    20235383.681    20235388.013
        49.000          43.000
 105860274.098 8  82335769.894 7  19775584.624    19775584.636    19775588.124
        52.000          47.000
 20  5  1  1  4  0.0000000  0 12G 9G22G26R 8R 1G 7G27G16G31G 3G 4R 7
 114632862.25347  89324319.36647  21813907.536    21813907.477    21813912.795
        45.000          46.000
 126436388.60146  98521849.86643  24060041.200    24060039.711    24060042.310
        39.000          21.000
 113826452.27447  88695936.56247  21660450.850    21660450.855    21660457.630
        44.000          44.000
 105019537.356 8  81681877.341 8  19611656.585    19611657.802    19611659.907
        50.000          48.000
 120493705.383 6  93717344.555 5  22540845.312    22540845.364    22540853.332
        40.000          31.000
 127962917.78046  99711367.99945  24350534.279    24350534.266    24350538.010
        37.000          30.000
 128074211.99446  99798095.39845  24371709.415    24371709.891    24371716.855
        38.000          31.000
 106766755.46848  83194886.05546  20317036.809    20317036.480    20317039.734
        49.000          40.000
 129571374.01544 100964702.58442  24656607.199    24656610.385    24656616.811
        25.000          13.000
 116771233.54347  90990557.61547  22220823.123    22220823.744    22220829.474
        44.000          44.000
 106385778.27248  82898005.59147  20244534.581    20244534.594    20244538.837
        48.000          43.000
 105999145.616 8  82443781.053 8  19801527.079    19801527.090    19801530.295
        52.000          48.000
 20  5  1  1  4 30.0000000  0 12G 9G22G26R 8R 1G 7G27G16G31G 3G 4R 7
 114623987.79747  89317404.20747  21812218.785    21812218.977    21812224.045
        46.000          46.000
 126607636.13146  98655289.46243  24092628.529    24092627.063    24092629.591
        39.000          21.000
 113962440.50147  88801901.39547  21686328.595    21686328.452    21686335.528
        45.000          45.000
 105038140.948 8  81696346.796 8  19615130.696    19615131.895    19615133.891
        49.000          48.000
 120444141.608 6  93678794.970 5  22531573.644    22531573.368    22531581.691
        39.000          31.000
 127951391.41646  99702386.41145  24348341.699    24348340.645    24348344.744
        37.000          30.000
 128045076.43246  99775392.36745  24366164.233    24366165.192    24366172.420
        37.000          32.000
 106831392.83448  83245252.83746  20329337.019    20329336.494    20329339.754
        49.000          41.000
 129733125.65144 101090742.77541  24687394.382    24687391.470    24687398.025
        26.000          11.000
 116930039.71647  91114302.65347  22251043.111    22251043.651    22251049.235
        44.000          44.000
 106434251.15448  82935776.65947  20253758.591    20253758.566    20253762.937
        49.000          43.000
 106138639.146 8  82552275.998 8  19827585.511    19827585.612    19827588.998
        52.000          48.000
 20  5  1  1  5  0.0000000  0 11G 9G22G26R 8R 1G 7G27G16G 3G 4R 7
 114615330.64147  89310658.37247  21810571.244    21810571.500    21810576.806
        46.000          46.000
 126778942.98146  98788775.27043  24125227.242    24125226.073    24125229.215
        39.000          21.000
 114098848.63847  88908193.43747  21712286.031    21712286.157    21712292.780
        45.000          45.000
 105057375.687 8  81711307.144 8  19618722.041    19618723.806    19618725.979
        49.000          48.000
 120394777.229 6  93640400.455 5  22522339.309    22522338.214    22522346.776
        39.000          31.000
 127939944.65046  99693466.84745  24346163.032    24346162.183    24346166.519
        37.000          30.000
 128016010.83746  99752743.90744  24360634.467    24360634.506    24360641.396
        36.000          28.000
 106896687.41448  83296131.73246  20341761.936    20341761.541    20341765.036
        49.000          40.000
 117089154.74047  91238288.35047  22281321.530    22281322.269    22281327.990
        45.000          43.000
 106483109.98448  82973848.45947  20263056.298    20263056.308    20263060.552
        49.000          43.000
 106278753.313 8  82661253.671 8  19853760.052    19853759.664    19853763.603
        52.000          48.000
 20  5  1  1  5 30.0000000  0 11G 9G22G26R 8R 1G 7G27G16G 3G 4R 7
 114606891.51147  89304082.42747  21808965.333    21808965.359    21808970.889
        45.000          46.000
 126950305.51946  98922304.45643  24157836.064    24157835.041    24157837.679
        39.000          21.000
 114235673.01847  89014809.82947  21738322.961    21738322.965    21738329.767
        45.000          45.000
 105077243.371 8  81726759.770 4  19622432.625    19622433.971    19622435.969
        50.000          27.000
 120345614.313 6  93602162.655 5  22513141.500    22513141.491    22513149.273
        40.000          31.000
 127928576.83446  99684608.82345  24343999.413    24343998.707    24344003.453
        37.000          30.000
 127987017.52646  99730151.69945  24355116.904    24355117.037    24355123.922
        36.000          30.000
 106962637.60948  83347521.49346  20354311.720    20354311.360    20354314.997
        49.000          40.000
 117248574.54347  91362511.54447  22311658.170    22311658.745    22311664.666
        44.000          43.000
 106532354.78548  83012221.02147  20272427.125    20272427.313    20272431.550
        50.000          43.000
 106419484.925 8  82770711.569 8  19880050.066    19880049.933    19880053.614
        52.000          48.000
 20  5  1  1  6  0.0000000  0 11G 9G22G26R 8R 1G 7G27G16G 3G 4R 7
 114598660.94847  89297669.01047  21807399.088    21807398.915    21807404.572
        44.000          46.000
 127121709.49346  99055865.95543  24190453.729    24190452.707    24190455.254
        39.000          21.000
 114372899.82447  89121739.78947  21764436.137    21764436.311    21764443.055
        45.000          44.000
 105097734.825 8  81742697.558 8  19626259.503    19626260.669    19626262.599
        50.000          48.000
 120296645.064 6  93564075.440 5  22503982.502    22503980.533    22503990.024
        40.000          30.000
 127917276.25946  99675803.17245  24341848.974    24341848.846    24341853.144
        37.000          30.000
 127958088.25446  99707609.43845  24349612.195    24349611.588    24349618.972
        36.000          30.000
 107029231.60348  83399412.91946  20366984.205    20366983.860    20366987.314
        48.000          41.000
 117408284.93447  91486961.16647  22342049.892    22342050.473    22342056.528
        44.000          43.000
 106581975.38948  83050886.41847  20281869.797    20281869.874    20281873.918
        49.000          43.000
 106560820.613 8  82880639.303 8  19906452.970    19906452.407    19906456.351
        52.000          48.000
 20  5  1  1  6 30.0000000  0 11G 9G22G26R 8R 1G 7G27G16G 3G 4R 7
 114590653.84947  89291429.70847  21805875.170    21805874.965    21805880.811
        45.000          45.000
 127293165.62646  99189468.09943  24223080.397    24223078.690    24223081.877
        39.000          21.000
 114510539.55747  89228991.51247  21790628.486    21790628.386    21790635.150
        45.000          44.000
 105118866.687 8  81759133.445 8  19630205.729    19630206.583    19630208.876
        49.000          48.000
 120247886.139 6  93526151.837 5  22494857.982    22494859.463    22494867.199
        40.000          31.000
 127906056.23746  99667060.28945  24339713.683    24339714.118    24339717.905
        37.000          31.000
 127929239.42146  99685129.83144  24344121.841    24344121.871    24344129.083
        36.000          29.000
 107096482.03948  83451815.85946  20379781.536    20379781.172    20379784.816
        49.000          41.000
 117568295.97847  91611645.06147  22372499.056    22372499.352    22372505.642
        43.000          43.000
 106631986.08448  83089855.78247  20291386.610    20291386.586    20291390.613
        51.000          43.000
 106702771.705 8  82991045.689 7  19932970.548    19932970.544    19932973.780
        51.000          47.000
 20  5  1  1  7  0.0000000  0 11G 9G22G26R 8R 1G 7G27G16G 3G 4R 7
 114582874.01647  89285367.49947  21804394.584    21804394.408    21804400.341
        45.000          46.000
 127464672.86346  99323110.05743  24255717.685    24255716.682    24255719.419
        39.000          21.000
 114648591.55147  89336564.48647  21816898.596    21816898.814    21816905.185
        45.000          44.000
 105140643.551 8  81776070.995 8  19634272.201    19634273.172    19634275.376
        49.000          48.000
 120199343.590 6  93488396.541 5  22485780.312    22485779.064    22485787.737
        41.000          32.000
 127894918.90046  99658381.84345  24337595.406    24337594.495    24337598.637
        38.000          31.000
 127900476.14646  99662716.91244  24338648.741    24338648.372    24338656.760
        36.000          29.000
 107164390.45348  83504731.50646  20392704.244    20392703.771    20392707.186
        48.000          41.000
 117728606.70947  91736562.48147  22403005.190    22403005.533    22403011.550
        43.000          42.000
 106682389.95648  83129131.51347  20300977.906    20300978.127    20300982.300
        49.000          43.000
 106845338.140 8  83101930.669 7  19959603.246    19959602.838    19959606.372
        52.000          47.000
 20  5  1  1  7 30.0000000  0 11G 9G22G26R 8R 1G 7G27G16G 3G 4R 7
 114575324.24447  89279484.55347  21802957.898    21802957.798    21802963.513
        46.000          46.000
 127636229.49346  99456790.48143  24288363.910    24288362.370    24288364.908
        40.000          20.000
 114787054.20947  89444457.45447  21843247.383    21843247.380    21843253.878
        44.000          44.000
 105163069.385 8  81793513.301 8  19638459.923    19638460.769    19638463.364
        49.000          48.000
 120151021.349 6  93450812.593 5  22476738.578    22476739.893    22476748.578
        41.000          32.000
 127883864.75746  99649768.22445  24335491.141    24335490.827    24335494.861
        38.000          31.000
 127871802.57545  99640373.89444  24333192.227    24333192.035    24333199.255
        35.000          29.000
 107232956.99348  83558159.98746  20405752.137    20405751.594    20405755.078
        49.000          41.000
 117889215.06947  91861711.82047  22433567.750    22433568.260    22433574.441
        43.000          42.000
 106733189.03548  83168715.20347  20310644.799    20310644.864    20310649.091
        49.000          44.000
 106988518.746 8  83213293.346 8  19986350.416    19986350.133    19986353.679
        52.000          48.000
 20  5  1  1  8  0.0000000  0 11G 9G22G26R 8R 1G 7G27G16G 3G 4R 7
 114568000.16147  89273777.48147  21801564.437    21801564.415    21801569.733
        46.000          46.000
 127807826.61746  99590502.50243  24321016.801    24321016.511    24321019.518
        39.000          20.000
 114925918.68647  89552663.53447  21869672.293    21869672.150    21869679.223
        45.000          44.000
 105186140.093 8  81811457.173 8  19642768.238    19642769.377    19642771.490
        49.000          49.000
 120102916.834 6  93413397.966 5  22467740.153    22467741.186    22467748.807
        41.000          33.000
 127872888.65946  99641215.42845  24333401.731    24333402.266    24333406.616
        38.000          31.000
 127843215.82445  99618098.48045  24327751.101    24327752.124    24327760.136
        35.000          30.000
 107302175.24948  83612096.28846  20418923.820    20418923.171    20418926.775
        48.000          41.000
 118050111.90447  91987085.94747  22464185.745    22464185.886    22464192.000
        44.000          42.000
 106784378.29148  83208602.92047  20320385.670    20320385.670    20320390.028
        49.000          43.000
 107132305.229 8  83325127.261 7  20013210.643    20013210.645    20013214.082
        51.000          47.000
 20  5  1  1  8 30.0000000  0 11G 9G22G26R 8R 1G 7G27G16G 3G 4R 7
 114560904.25647  89268248.20147  21800214.421    21800214.329    21800219.494
        46.000          47.000
 127979462.02246  99724244.31443  24353678.611    24353677.091    24353680.206
        39.000          20.000
 115065183.08047  89661181.22647  21896173.357    21896173.534    21896180.472
        44.000          44.000
 105209859.309 8  81829905.439 8  19647197.708    19647198.977    19647201.089
        50.000          48.000
 120055034.411 6  93376156.099 5  22458782.828    22458784.089    22458791.802
        41.000          33.000
 127861990.64446  99632723.45545  24331328.649    24331328.276    24331332.684
        37.000          32.000
 127814719.64345  99595893.72844  24322329.752    24322329.045    24322336.697
        35.000          29.000
 107372045.18148  83666540.38846  20432219.547    20432219.104    20432222.718
        48.000          41.000
 118211294.88347  92112683.03747  22494857.351    22494857.931    22494864.125
        43.000          42.000
 106835959.46248  83248796.03547  20330201.080    20330201.332    20330205.611
        50.000          43.000
 107276696.179 8  83437431.319 8  20040183.780    20040183.884    20040187.832
        51.000          48.000
 20  5  1  1  9  0.0000000  0 11G 9G22G26R 8R 1G 7G27G16G 3G 4R 7
 114554042.51447  89262901.38647  21798908.578    21798908.691    21798913.841
        46.000          47.000
 128151137.25846  99858017.18943  24386346.579    24386345.668    24386348.896
        38.000          20.000
 115204848.88147  89770011.71447  21922751.133    21922751.117    21922757.883
        45.000          44.000
 105234233.613 8  81848863.230 8  19651749.505    19651750.508    19651752.772
        49.000          48.000
 120007381.766 6  93339092.936 5  22449866.653    22449869.258    22449878.738
        41.000          33.000
 127851175.18646  99624295.82845  24329270.847    24329270.274    24329274.562
        38.000          32.000
 127786321.45946  99573765.28044  24316925.793    24316925.392    24316933.060
        36.000          29.000
 107442570.25548  83721494.99646  20445640.114    20445639.583    20445643.111
        48.000          41.000
 118372765.12247  92238503.97347  22525584.552    22525584.790    22525590.962
        43.000          42.000
 106887937.80548  83289298.63147  20340092.496    20340092.476    20340096.733
        49.000          43.000
 107421693.573 8  83550207.053 7  20067271.078    20067270.987    20067274.495
        52.000          47.000
 20  5  1  1  9 30.0000000  0 11G 9G22G26R 8R 1G 7G27G16G 3G 4R 7
 114547417.61347  89257739.12647  21797648.176    21797647.959    21797653.223
        46.000          47.000
 128322850.54546  99991819.69843  24419023.609    24419022.334    24419024.571
        38.000          19.000
 115344914.31247  89879153.58747  21949404.318    21949404.645    21949411.371
        44.000          44.000
 105259266.788 8  81868333.469 8  19656424.112    19656425.476    19656427.480
        49.000          48.000
 119959963.296 6  93302211.897 5  22441000.631    22440999.146    22441007.186
        41.000          33.000
 127840442.98346  99615933.06645  24327228.684    24327227.587    24327232.523
        37.000          31.000
 127758025.32846  99551716.36345  24311541.009    24311540.993    24311548.529
        36.000          30.000
 107513750.62548  83776960.21446  20459185.382    20459184.875    20459188.349
        48.000          41.000
 118534520.46947  92364547.06947  22556365.581    22556365.781    22556372.091
        43.000          42.000
 106940315.23748  83330112.20847  20350059.577    20350059.622    20350063.808
        49.000          44.000
 107567296.164 8  83663453.499 8  20094470.560    20094470.704    20094474.381
        52.000          48.000
 20  5  1  1 10  0.0000000  0 11G 9G22G26R 8R 1G 7G27G16G 3G 4R 7
 114541036.82847  89252767.08047  21796433.762    21796433.715    21796438.981
        46.000          47.000
 128494604.55346 100125653.97443  24451706.848    24451706.741    24451708.019
        38.000          20.000
 115485382.16247  89988609.04247  21976134.724    21976134.733    21976141.719
        44.000          43.000
 105284967.391 8  81888322.818 8  19661223.574    19661224.967    19661226.727
        50.000          48.000
 119912788.042 6  93265520.060 5  22432173.287    22432173.216    22432181.847
        41.000          33.000
 127829799.73846  99607639.64145  24325203.231    24325202.609    24325207.343
        37.000          31.000
 127729839.92245  99529753.73745  24306176.662    24306176.890    24306184.638
        35.000          30.000
 107585590.92047  83832939.66946  20472855.909    20472855.565    20472858.856
        47.000          41.000
 118696563.33247  92490814.20747  22587201.142    22587201.562    22587207.738
        43.000          42.000
 106993098.27648  83371241.84347  20360103.903    20360103.957    20360108.122
        49.000          44.000
 107713507.361 8  83777173.304 7  20121784.605    20121784.246    20121787.948
        52.000          47.000
 20  5  1  1 10 30.0000000  0 11G 9G22G26R 8R 1G 7G27G16G 3G 4R 7
 114534882.00847  89247971.11947  21795262.606    21795262.537    21795267.674
        46.000          46.000
 128666376.47346 100259502.16743  24484394.318    24484393.013    24484395.831
        38.000          20.000
 115626229.82047  90098360.44747  22002937.367    22002937.311    22002944.193
        44.000          43.000
 105311316.866 8  81908816.846 8  19666144.159    19666145.536    19666147.368
        50.000          48.000
 119865839.419 6  93229004.460 5  22423392.246    22423390.285    22423398.959
        41.000          33.000
 127819225.42146  99599399.90945  24323191.131    24323190.954    24323194.850
        39.000          31.000
 127701748.41746  99507864.28045  24300832.066    24300831.879    24300839.345
        36.000          31.000
 107658070.47647  83889417.24746  20486648.563    20486648.017    20486651.363
        47.000          40.000
 118858870.75647  92617287.49947  22618087.708    22618087.747    22618093.832
        42.000          42.000
 107046268.00948  83412672.79347  20370221.767    20370221.823    20370226.117
        49.000          44.000
 107860304.220 8  83891348.621 7  20149207.287    20149207.052    20149210.589
        52.000          47.000
 20  5  1  1 11  0.0000000  0 11G 9G22G26R 8R 1G 7G27G16G 3G 4R 7
 114528970.44847  89243364.70947  21794137.671    21794137.455    21794142.825
        46.000          47.000
 128838179.10146 100393374.28643  24517086.948    24517086.120    24517089.497
        38.000          19.000
 115767470.03147  90208417.73747  22029813.906    22029813.906    22029821.171
        44.000          43.000
 105338333.819 8  81929830.022 8  19671189.508    19671190.890    19671192.577
        50.000          48.000
 119819136.370 6  93192679.870 5  22414654.225    22414654.037    22414661.615
        41.000          32.000
 127808735.48546  99591225.92145  24321194.891    24321195.128    24321198.622
        38.000          32.000
 127673769.49546  99486062.51545  24295507.321    24295507.283    24295514.723
        36.000          30.000
 107731204.24848  83946404.60146  20500565.082    20500564.758    20500568.212
        48.000          41.000
 119021455.07247  92743976.55047  22649026.048    22649026.587    22649032.883
        43.000          42.000
 107099840.93848  83454417.92747  20380416.194    20380416.376    20380420.625
        50.000          43.000
 108007700.940 8  84005990.500 7  20176742.064    20176742.214    20176745.749
        52.000          47.000
 20  5  1  1 11 30.0000000  0 11G 9G22G26R 8R 1G 7G27G16G 3G 4R 7
 114523298.76447  89238945.20947  21793057.870    21793058.021    21793063.623
        46.000          47.000
 129010004.34546 100527264.04043  24549784.490    24549783.151    24549786.673
        37.000          19.000
 115909094.94147  90318774.79047  22056764.415    22056764.418    22056771.387
        43.000          43.000
 105366015.554 8  81951360.267 8  19676358.788    19676360.206    19676362.042
        49.000          48.000
 119772677.502 6  93156545.203 5  22405962.002    22405962.228    22405970.408
        41.000          32.000
 127798325.09446  99583113.95245  24319214.391    24319214.196    24319217.736
        39.000          32.000
 127645901.19846  99464346.98845  24290204.424    24290204.292    24290211.893
        37.000          32.000
 107804985.91648  84003896.81046  20514605.311    20514604.923    20514608.387
        48.000          40.000
 119184308.08447  92870874.96546  22680016.032    22680016.549    22680022.769
        42.000          41.000
 107153812.86548  83496473.96647  20390686.802    20390686.803    20390691.119
        50.000          44.000
 108155689.286 8  84121092.526 7  20204387.883    20204387.612    20204391.130
        52.000          47.000
 20  5  1  1 12  0.0000000  0 11G 9G22G26R 8R 1G 7G27G16G 3G 4R 7
 114517870.46547  89234715.36747  21792025.182    21792025.086    21792030.708
        46.000          46.000
 129181851.38346 100661170.76243  24582485.999    24582484.219    24582489.474
        39.000          19.000
 116051103.51247  90429430.81047  22083787.797    22083787.914    22083794.710
        43.000          43.000
 105394366.398 8  81973410.914 8  19681652.825    19681654.348    19681656.375
        50.000          48.000
 119726467.970 6  93120604.469 5  22397319.279    22397318.230    22397325.081
        41.000          32.000
 127787995.44646  99575064.85945  24317248.411    24317248.534    24317251.936
        38.000          32.000
 127618148.34346  99442721.40945  24284923.083    24284923.561    24284930.342
        38.000          32.000
 107879416.29048  84061894.50946  20528769.178    20528768.688    20528771.987
        48.000          40.000
 119347428.37447  92997981.65447  22711056.988    22711057.161    22711063.681
        43.000          42.000
 107208186.48848  83538843.01547  20401033.833    20401033.841    20401038.192
        50.000          44.000
 108304268.858 8  84236654.395 8  20232143.613    20232143.520    20232147.252
        52.000          48.000
 20  5  1  1 12 30.0000000  0 11G 9G22G26R 8R 1G 7G27G16G 3G 4R 7
 112937272.31647  88003080.44947  21491247.510    21491247.320    21491252.779
        46.000          46.000
 127778308.34146  99567500.82943  24315400.578    24315398.668    24315402.141
        37.000          18.000
 114618082.97047  89312791.41147  21811092.638    21811092.817    21811099.947
        43.000          42.000
 103818019.584 8  80747363.382 8  19387281.855    19387282.815    19387284.707
        50.000          48.000
 118077952.466 7  91838425.775 5  22088929.514    22088929.164    22088936.841
        42.000          32.000
 126202331.58346  98339482.61745  24015506.920    24015506.786    24015510.332
        39.000          32.000
 126015098.38746  98193591.60145  23979873.009    23979872.978    23979879.614
        37.000          31.000
 106379082.10948  82892802.93846  20243265.019    20243264.530    20243267.903
        49.000          40.000
 117935403.46547  91897702.48046  22442357.596    22442357.726    22442364.110
        42.000          41.000
 105687549.78148  82353931.28947  20111666.633    20111666.503    20111670.665
        51.000          44.000
 106848634.964 8  83104494.680 7  19960218.760    19960219.105    19960222.589
        52.000          47.000
 20  5  1  1 13  0.0000000  0 11G 9G22G26R 8R 1G 7G27G16G 3G 4R 7
 112932344.86447  87999240.87847  21490309.624    21490309.549    21490314.930
        46.000          47.000
 127950198.91046  99701441.48843  24348109.890    24348107.832    24348111.663
        37.000          18.000
 114760859.42547  89424045.77547  21838262.531    21838262.754    21838269.535
        44.000          43.000
 103847724.081 8  80770466.879 8  19392828.665    19392829.921    19392831.812
        50.000          48.000
 118032260.950 6  91802887.940 5  22080381.130    22080381.462    22080389.506
        41.000          32.000
 126192172.41246  98331566.38745  24013573.390    24013573.378    24013576.814
        38.000          33.000
 125987594.71546  98172160.17645  23974638.772    23974639.635    23974646.507
        38.000          32.000
 106454816.08348  82951816.43246  20257676.724    20257676.406    20257679.539
        48.000          40.000
 118099057.70947  92025225.23746  22473499.764    22473500.290    22473506.624
        43.000          41.000
 105742738.42448  82396935.41747  20122168.539    20122168.565    20122172.688
        50.000          44.000
 106998398.612 8  83220977.497 7  19988196.033    19988195.770    19988199.734
        51.000          47.000
 20  5  1  1 13 30.0000000  0 11G 9G22G26R 8R 1G 7G27G16G 3G 4R 7
 112927672.69047  87995600.22547  21489420.402    21489420.288    21489425.918
        46.000          47.000
 128122109.40146  99835397.65343  24380823.433    24380821.983    24380826.459
        37.000          18.000
 114904017.87647  89535597.79147  21865504.665    21865504.779    21865511.621
        44.000          43.000
 103878111.439 8  80794101.478 8  19398503.595    19398504.545    19398506.408
        50.000          48.000
 117986836.179 6  91767557.571 5  22071884.754    22071884.187    22071891.866
        41.000          32.000
 126182101.06546  98323718.58245  24011656.979    24011656.779    24011660.268
        38.000          32.000
 125960222.64646  98150831.32345  23969431.171    23969430.593    23969437.335
        38.000          32.000
 106531202.58448  83011338.38346  20272212.563    20272212.269    20272215.482
        48.000          40.000
 118262976.43247  92152954.08746  22504692.933    22504692.897    22504699.307
        43.000          41.000
 105798338.20648  82440259.90847  20132748.830    20132748.752    20132752.994
        51.000          44.000
 107148752.836 8  83337919.649 7  20016283.775    20016283.594    20016287.442
        51.000          47.000
 20  5  1  1 14  0.0000000  0 11G 9G22G26R 8R 1G 7G27G16G 3G 4R 7
 112923257.69347  87992159.97647  21488580.210    21488580.085    21488585.740
        45.000          46.000
 128294037.09246  99969367.23443  24413539.573    24413538.576    24413543.326
        37.000          18.000
 115047555.62947  89647445.38447  21892819.339    21892819.192    21892825.724
        44.000          42.000
 103909183.922 8  80818268.959 8  19404305.825    19404307.232    19404309.053
        50.000          48.000
 117941681.602 7  91732437.358 5  22063437.069    22063437.408    22063443.832
        42.000          32.000
 126172117.19746  98315938.95045  24009756.931    24009756.818    24009760.400
        39.000          33.000
 125932985.36946  98129607.47845  23964247.335    23964247.678    23964254.265
        37.000          32.000
 106608240.46648  83071367.90446  20286872.358    20286872.169    20286875.299
        48.000          41.000
 118427156.60347  92280886.64946  22535935.223    22535935.380    22535941.657
        42.000          41.000
 105854350.12848  82483905.55347  20143407.404    20143407.449    20143411.595
        50.000          44.000
 107299695.151 8  83455319.206 7  20044480.755    20044480.594    20044484.436
        51.000          47.000
 20  5  1  1 14 30.0000000  0 11G 9G22G26R 8R 1G 7G27G16G 3G 4R 7
 112919081.07247  87988905.46947  21487785.317    21487785.409    21487790.874
        47.000          47.000
 128465958.73146 100103332.06942  24446256.212    24446254.993    24446257.949
        37.000          17.000
 115191449.39647  89759570.38647  21920201.910    21920201.329    21920208.213
        44.000          42.000
 103940923.254 8  80842955.099 8  19410233.202    19410234.326    19410236.155
        50.000          48.000
 117896779.905 7  91697513.824 5  22055040.178    22055037.337    22055044.670
        42.000          33.000
 126162199.92446  98308211.20945  24007869.550    24007869.326    24007872.965
        39.000          33.000
 125905865.49846  98108475.13145  23959086.337    23959086.296    23959093.980
        36.000          31.000
 106685908.31348  83131888.31346  20301651.973    20301651.677    20301654.905
        49.000          40.000
 118591574.51247  92409004.46946  22567223.051    22567223.190    22567229.300
        42.000          41.000
 105910754.58748  82527857.06947  20154140.775    20154140.857    20154145.065
        50.000          44.000
 107451202.260 8  83573158.047 7  20072783.664    20072783.619    20072787.223
        51.000          47.000
 20  5  1  1 15  0.0000000  0 11G 9G22G26R 8R 1G 7G27G16G 3G 4R 7
 112915146.06747  87985839.23247  21487036.565    21487036.631    21487042.144
        46.000          47.000
 128637872.83146 100237291.07342  24478970.209    24478969.248    24478972.746
        37.000          17.000
 115335697.80147  89871971.71847  21947651.308    21947650.821    21947657.881
        44.000          42.000
 103973332.485 8  80868162.268 8  19416284.999    19416286.308    19416288.447
        50.000          49.000
 117852136.392 7  91662791.105 5  22046686.225    22046686.075    22046693.555
        42.000          33.000
 126152350.94646  98300536.67645  24005995.765    24005995.731    24005999.019
        39.000          33.000
 125878867.60446  98087437.80345  23953949.462    23953948.932    23953956.164
        36.000          31.000
 106764206.43948  83192899.84546  20316551.823    20316551.385    20316554.641
        48.000          41.000
 118756228.43947  92537306.19746  22598555.193    22598555.735    22598561.975
        42.000          40.000
 105967553.84848  82572116.22447  20164949.241    20164949.427    20164953.654
        50.000          44.000
 107603272.955 8  83691435.232 7  20101191.838    20101191.555    20101195.341
        51.000          47.000
 20  5  1  1 15 30.0000000  0 11G 9G22G26R 8R 1G 7G27G16G 3G 4R 7
 112911474.05647  87982977.92947  21486337.921    21486337.838    21486343.358
        46.000          47.000
 128809796.29846 100371257.36142  24511686.151    24511685.233    24511688.443
        37.000          17.000
 115480317.67647  89984662.51347  21975171.331    21975171.042    21975178.116
        44.000          43.000
 104006434.149 8  80893907.996 8  19422466.862    19422468.008    19422469.921
        50.000          49.000
 117807774.138 7  91628287.128 5  22038386.260    22038386.795    22038394.748
        42.000          33.000
 126142590.04846  98292930.78245  24004138.458    24004138.125    24004141.451
        39.000          33.000
 125852014.55646  98066513.37045  23948837.872    23948838.820    23948845.854
        36.000          31.000
 106843153.43448  83254416.98846  20331574.828    20331574.584    20331577.872
        49.000          41.000
 118921134.89747  92665804.69746  22629935.909    22629936.276    22629942.683
        42.000          41.000
 106024768.48748  82616699.05247  20175837.007    20175837.008    20175841.277
        50.000          44.000
 107755924.735 8  83810164.378 7  20129708.490    20129708.449    20129712.114
        52.000          47.000
 20  5  1  1 16  0.0000000  0 11G 9G22G26R 8R 1G 7G27G16G 3G 4R 7
 112908070.70947  87980325.97547  21485690.184    21485690.267    21485695.690
        46.000          47.000
 128981730.18446 100505231.78643  24544404.636    24544403.516    24544406.112
        38.000          18.000
 115625310.14647  90097643.63947  22002762.092    22002762.281    22002769.299
        43.000          43.000
 104040234.412 8  80920197.080 8  19428778.590    19428779.992    19428781.927
        50.000          48.000
 117763700.726 7  91594007.818 5  22030143.091    22030141.851    22030149.456
        42.000          33.000
 126132920.97746  98285396.44445  24002298.064    24002298.136    24002301.318
        39.000          33.000
 125825313.29046  98045707.20345  23943757.930    23943757.705    23943765.097
        37.000          31.000
 106922751.91448  83316441.77746  20346721.994    20346721.665    20346724.895
        48.000          40.000
 119086294.52447  92794500.47646  22661364.574    22661365.419    22661371.485
        42.000          40.000
 106082403.27348  82661609.26247  20186804.500    20186804.626    20186808.781
        50.000          44.000
 107909158.925 8  83929346.503 7  20158334.059    20158333.914    20158337.435
        52.000          47.000
 20  5  1  1 16 30.0000000  0 11G 9G22G26R 8R 1G 7G27G16G 3G 4R 7
 112904929.67147  87977878.41547  21485092.785    21485092.541    21485097.969
        46.000          47.000
 129153663.60646 100639205.84343  24577121.266    24577120.660    24577124.870
        38.000          18.000
 115770664.19647  90210906.51847  22030422.358    22030422.353    22030429.340
        43.000          43.000
 104074727.456 8  80947024.991 8  19435220.054    19435221.330    19435223.214
        50.000          48.000
 117719911.828 7  91559949.780 5  22021950.510    22021950.552    22021958.247
        42.000          33.000
 126123334.99846  98277926.84545  24000474.279    24000474.045    24000477.318
        39.000          33.000
 125798758.86046  98025015.46845  23938703.971    23938704.515    23938711.705
        36.000          31.000
 107002992.73448  83378967.09146  20361991.256    20361991.026    20361994.216
        49.000          41.000
 119251696.04247  92923384.74746  22692840.254    22692840.458    22692846.226
        42.000          40.000
 106140450.89148  82706841.15947  20197850.676    20197850.731    20197854.910
        50.000          44.000
 108062964.619 8  84048973.133 7  20187066.555    20187065.732    20187069.655
        51.000          46.000
 20  5  1  1 17  0.0000000  0 11G 9G22G26R 8R 1G 7G27G16G 3G 4R 7
 112902048.10847  87975633.04247  21484544.069    21484544.111    21484549.606
        47.000          47.000
 129325588.92346 100773173.56643  24609838.490    24609837.753    24609839.672
        38.000          18.000
 115916372.44647  90324445.39747  22058149.924    22058149.869    22058156.548
        43.000          42.000
 104109910.155 8  80974389.301 8  19441790.106    19441791.165    19441793.238
        50.000          48.000
 117676405.883 7  91526111.827 5  22013814.319    22013811.888    22013819.711
        43.000          34.000
 126113828.07446  98270518.86645  23998665.702    23998665.020    23998668.607
        39.000          34.000
 125772349.84346  98004437.02845  23933679.997    23933679.549    23933686.013
        38.000          32.000
 107083870.08447  83441988.40846  20377381.900    20377381.345    20377384.565
        47.000          41.000
 119417331.66047  93052451.42546  22724359.107    22724359.847    22724365.779
        42.000          40.000
 106198907.60048  82752391.82847  20208974.611    20208974.543    20208978.833
        49.000          44.000
 108217334.332 8  84169038.442 7  20215903.354    20215903.187    20215907.185
        51.000          47.000
 20  5  1  1 17 30.0000000  0 11G 9G22G26R 8R 1G 7G27G16G 3G 4R 7
 112899429.11847  87973592.27347  21484045.823    21484045.682    21484051.262
        46.000          47.000
 129497504.94246 100907134.03243  24642552.881    24642551.375    24642555.093
        37.000          18.000
 116062433.41347  90438259.12547  22085944.259    22085944.326    22085950.988
        44.000          43.000
 104145786.388 8  81002293.023 8  19448489.834    19448491.023    19448493.038
        50.000          48.000
 117633187.986 7  91492497.919 5  22005725.559    22005727.481    22005734.823
        42.000          34.000
 126104401.11646  98263173.18145  23996871.671    23996871.298    23996874.558
        39.000          33.000
 125746090.65546  97983975.35445  23928682.599    23928682.068    23928689.355
        37.000          32.000
 107165383.86648  83505505.64046  20392893.270    20392892.878    20392896.135
        48.000          40.000
 119583199.54947  93181699.08846  22755922.795    22755923.376    22755929.164
        42.000          40.000
 106257775.57448  82798262.96747  20220176.663    20220176.797    20220181.054
        50.000          44.000
 108372266.977 8  84289541.585 7  20244846.373    20244846.215    20244849.909
        51.000          46.000
 20  5  1  1 18  0.0000000  0 11G 9G22G26R 8R 1G 7G27G16G 3G 4R 7
 112897083.53947  87971764.55447  21483599.531    21483599.375    21483604.951
        47.000          47.000
 129669417.79846 101041092.08343  24675266.132    24675266.982    24675268.294
        37.000          18.000
 116208853.35847  90552352.56847  22113806.886    22113806.898    22113813.665
        43.000          42.000
 104182367.226 8  81030744.770 8  19455321.362    19455322.142    19455324.331
        50.000          48.000
 117590271.068 7  91459118.092 5  21997698.650    21997699.052    21997706.867
        43.000          34.000
 126095063.39646  98255897.03745  23995093.915    23995094.288    23995097.627
        39.000          34.000
 125719993.57146  97963640.01145  23923716.387    23923716.357    23923722.946
        38.000          32.000
 107247541.79748  83569524.80146  20408527.416    20408526.912    20408530.229
        48.000          41.000
 119749305.55047  93311132.29946  22787531.950    22787532.261    22787538.190
        42.000          39.000
 106317064.70648  82844462.28047  20231459.365    20231459.256    20231463.384
        50.000          44.000
 108527769.086 8  84410487.652 7  20273895.244    20273895.443    20273899.003
        51.000          47.000
 20  5  1  1 18 30.0000000  0 11G 9G22G26R 8R 1G 7G27G16G 3G 4R 7
 112895004.35747  87970144.40848  21483203.645    21483203.705    21483209.361
        46.000          48.000
 129841315.87546 101175038.57942  24707978.231    24707977.427    24707980.195
        36.000          17.000
 116355620.62347  90666716.64747  22141735.582    22141735.746    22141742.682
        43.000          42.000
 104219645.748 8  81059739.167 8  19462282.400    19462283.628    19462285.717
        50.000          49.000
 117547649.439 7  91425967.931 5  21989726.307    21989725.584    21989733.702
        43.000          34.000
 126085805.92146  98248683.41845  23993332.794    23993332.935    23993335.574
        40.000          34.000
 125694052.96146  97943426.57545  23918779.131    23918779.946    23918787.311
        37.000          33.000
 107330333.85648  83634038.09246  20424282.142    20424281.853    20424285.180
        48.000          40.000
 119915637.70247  93440741.72946  22819184.098    22819184.231    22819190.116
        42.000          40.000
 106376767.02948  82890983.55547  20242820.190    20242820.206    20242824.439
        50.000          44.000
 108683828.944 8  84531867.508 7  20303049.187    20303048.807    20303052.590
        52.000          47.000
 20  5  1  1 19  0.0000000  0 11G 9G22G26R 8R 1G 7G27G16G 3G 4R 7
 112893209.40847  87968745.74948  21482862.324    21482862.218    21482867.822
        46.000          48.000
 130013212.65646 101308984.07242  24740688.451    24740687.532    24740690.820
        37.000          17.000
 116502748.43647  90781361.68647  22169733.313    22169733.496    22169740.221
        43.000          42.000
 104257640.376 8  81089290.530 8  19469377.735    19469379.069    19469380.986
        50.000          49.000
 117505343.335 7  91393063.185 5  21981810.915    21981810.759    21981819.144
        42.000          34.000
 126076644.44946  98241544.61845  23991588.923    23991589.502    23991592.178
        40.000          34.000
 125668287.98546  97923350.02145  23913876.939    23913876.776    23913883.177
        38.000          32.000
 107413774.85048  83699057.04946  20440160.709    20440159.974    20440163.442
        48.000          41.000
 120082208.82247  93570537.37546  22850881.334    22850881.820    22850887.510
        42.000          39.000
 106436899.42548  82937839.95447  20254263.003    20254262.993    20254267.283
        50.000          44.000
 108840460.007 8  84653691.651 7  20332309.110    20332309.305    20332312.530
        51.000          47.000
 20  5  1  1 19 30.0000000  0 11G 9G22G26R 8R 1G 7G27G16G 3G 4R 7
 112891688.92447  87967560.95448  21482573.283    21482573.078    21482578.489
        47.000          48.000
 130185093.76846 101442917.36342  24773396.487    24773395.989    24773398.635
        36.000          17.000
 116650222.42347  90896276.45746  22197796.719    22197796.653    22197803.499
        43.000          41.000
 104296341.389 8  81119391.312 8  19476604.707    19476606.096    19476607.927
        50.000          48.000
 117463344.491 7  91360397.428 5  21973952.707    21973954.707    21973961.412
        43.000          34.000
 126067567.69746  98234471.83245  23989861.612    23989862.250    23989865.127
        39.000          34.000
 125642690.25146  97903403.77845  23909006.159    23909005.675    23909013.145
        38.000          33.000
 107497851.77747  83764571.53746  20456159.663    20456159.322    20456162.580
        47.000          40.000
 120249004.23347  93700507.79046  22882621.547    22882622.014    22882627.729
        42.000          39.000
 106497451.09848  82985023.06547  20265785.515    20265785.449    20265789.844
        51.000          44.000
 108997647.847 8  84775948.835 7  20361673.175    20361672.869    20361676.520
        51.000          47.000
 20  5  1  1 20  0.0000000  0 11G 9G22G26R 8R 1G 7G27G16G 3G 4R 7
 112890444.35147  87966591.15648  21482336.365    21482336.331    21482341.747
        47.000          48.000
 130356955.97446 101576835.92842  24806101.681    24806099.664    24806104.131
        36.000          16.000
 116798039.38647  91011458.49546  22225925.520    22225925.529    22225932.071
        43.000          41.000
 104335750.756 8  81150043.030 8  19483964.705    19483965.533    19483967.374
        50.000          48.000
 117421656.195 7  91327973.216 5  21966153.102    21966155.522    21966162.599
        43.000          33.000
 126058575.05646  98227464.58545  23988150.623    23988150.759    23988153.982
        40.000          34.000
 125617262.63846  97883590.07745  23904166.060    23904166.637    23904174.135
        37.000          33.000
 107582562.93248  83830580.22846  20472279.979    20472279.534    20472282.632
        49.000          41.000
 120416020.30547  93830650.16546  22914403.573    22914404.142    22914409.780
        42.000          39.000
 106558422.54448  83032533.26147  20277387.894    20277388.019    20277392.313
        50.000          44.000
 109155389.028 8  84898636.402 7  20391140.724    20391140.433    20391144.005
        51.000          47.000
 20  5  1  1 20 30.0000000  0 11G 9G22G26R 8R 1G 7G27G16G 3G 4R 7
 112889483.47847  87965842.41748  21482153.258    21482153.366    21482158.824
        47.000          48.000
 130528802.53546 101710742.27642  24838802.316    24838801.582    24838805.432
        37.000          16.000
 116946202.50947  91126910.25646  22254119.615    22254120.025    22254126.520
        42.000          41.000
 104375875.928 8  81181251.495 8  19491457.424    19491458.835    19491460.478
        49.000          49.000
 117380288.145 7  91295798.061 5  21958416.305    21958417.538    21958423.751
        43.000          34.000
 126049672.31346  98220527.39245  23986456.355    23986456.208    23986459.844
        39.000          33.000
 125592014.23846  97863916.02445  23899361.743    23899362.472    23899369.592
        38.000          33.000
 107667913.00948  83897086.77946  20488521.392    20488521.055    20488524.279
        49.000          40.000
 120583259.90047  93960966.70046  22946228.831    22946228.888    22946234.678
        42.000          39.000
 106619820.52248  83080375.82947  20289071.497    20289071.688    20289075.954
        51.000          44.000
 109313687.327 8  85021757.277 7  20420711.590    20420711.707    20420715.588
        50.000          47.000
 20  5  1  1 21  0.0000000  0 11G 9G22G26R 8R 1G 7G27G16G 3G 4R 7
 112888803.42547  87965312.50548  21482023.968    21482023.872    21482029.423
        47.000          48.000
 130700625.93846 101844630.63842  24871500.424    24871498.203    24871500.639
        36.000          17.000
 117094704.30547  91242625.92446  22282378.883    22282378.593    22282385.748
        43.000          41.000
 104416714.269 8  81213014.640 8  19499083.983    19499084.927    19499086.810
        50.000          49.000
 117339239.074 7  91263871.022 5  21950738.392    21950737.965    21950745.066
        43.000          34.000
 126040854.94946  98213656.72645  23984778.463    23984777.979    23984782.025
        39.000          33.000
 125566943.58146  97844380.47445  23894591.400    23894591.269    23894598.825
        37.000          33.000
 107753896.15448  83964086.63146  20504883.819    20504883.257    20504886.370
        49.000          41.000
 120750715.12947  94091451.25546  22978093.847    22978094.464    22978100.465
        42.000          39.000
 106681641.17948  83128547.76247  20300835.662    20300835.515    20300840.032
        50.000          44.000
 109472534.983 8  85145305.431 7  20450385.548    20450385.720    20450389.624
        51.000          46.000
 20  5  1  1 21 30.0000000  0 11G 9G22G26R 8R 1G 7G27G16G 3G 4R 7
 112888412.80347  87965008.12148  21481949.567    21481949.633    21481955.022
        47.000          48.000
 130872430.44146 101978504.22242  24904193.230    24904190.343    24904195.403
        37.000          16.000
 117243548.74347  91358608.57746  22310703.062    22310703.275    22310709.545
        42.000          41.000
 104458274.432 8  81245339.209 8  19506844.661    19506845.890    19506848.008
        50.000          49.000
 117298519.810 7  91232200.486 5  21943121.173    21943121.324    21943127.715
        43.000          34.000
 126032128.90446  98206857.22345  23983118.045    23983117.007    23983121.879
        38.000          33.000
 125542060.65246  97824991.20345  23889855.751    23889856.273    23889864.138
        37.000          33.000
 107840517.39848  84031583.70546  20521367.010    20521366.543    20521369.822
        49.000          40.000
 120918389.61347  94222106.66446  23010001.545    23010001.891    23010008.036
        42.000          39.000
 106743892.08348  83177054.94747  20312681.565    20312681.575    20312685.867
        50.000          44.000
 109631935.968 8  85269283.958 7  20480163.386    20480162.926    20480167.010
        50.000          46.000
 20  5  1  1 22  0.0000000  0 11G 9G22G26R 8R 1G 7G27G16G 3G 4R 7
 112888304.11447  87964923.42748  21481928.698    21481928.946    21481934.287
        47.000          48.000
 131044203.90946 102112353.63942  24936880.142    24936879.634    24936882.490
        37.000          16.000
 117392723.66447  91474848.75846  22339090.175    22339090.015    22339096.839
        42.000          41.000
 104500549.000 8  81278219.422 8  19514739.194    19514740.563    19514742.377
        50.000          49.000
 117258124.386 7  91200781.802 5  21935564.945    21935564.304    21935571.523
        43.000          34.000
 126023486.36946  98200122.78045  23981473.072    23981472.350    23981476.861
        38.000          33.000
 125517359.31146  97805743.44445  23885155.550    23885155.927    23885162.769
        37.000          33.000
 107927766.04348  84099569.66746  20537969.853    20537969.486    20537972.733
        49.000          40.000
 121086270.82846  94352923.16746  23041948.249    23041948.508    23041954.639
        41.000          39.000
 106806564.65348  83225890.70647  20324607.898    20324607.864    20324612.222
        50.000          44.000
 109791877.920 8  85393683.236 7  20510041.331    20510041.429    20510045.616
        50.000          47.000
 20  5  1  1 22 30.0000000  0 11G 9G22G26R 8R 1G 7G27G16G 3G 4R 7
 112888486.56747  87965065.59948  21481963.625    21481963.615    21481968.821
        47.000          48.000
 131215950.86546 102246182.39942  24969563.031    24969561.646    24969567.109
        37.000          16.000
 117542233.66247  91591350.03946  22367540.970    22367541.008    22367547.867
        43.000          41.000
 104543547.094 8  81311662.379 8  19522768.640    19522769.949    19522771.798
        50.000          48.000
 117218063.915 7  91169623.696 5  21928068.963    21928069.867    21928077.230
        44.000          34.000
 126014934.06546  98193458.64345  23979845.725    23979845.112    23979849.508
        39.000          34.000
 125492850.17846  97786645.44645  23880491.988    23880492.283    23880498.833
        38.000          33.000
 108015647.85148  84168048.99846  20554693.046    20554692.618    20554695.993
        48.000          41.000
 121254363.03746  94483904.07546  23073935.320    23073935.530    23073941.679
        41.000          38.000
 106869667.11648  83275061.45147  20336615.869    20336615.884    20336620.282
        50.000          44.000
 109952365.463 8  85518506.866 7  20540021.935    20540021.799    20540026.148
        51.000          46.000
 20  5  1  1 23  0.0000000  0 11G 9G22G26R 8R 1G 7G27G16G 3G 4R 7
 112888953.46447  87965429.41048  21482052.593    21482052.439    21482057.708
        47.000          48.000
 131387660.52146 102379982.08642  25002237.755    25002237.807    25002239.681
        36.000          16.000
 117692067.43047  91708103.59946  22396053.397    22396053.280    22396060.348
        42.000          41.000
 104587262.005 8  81345662.860 8  19530932.144    19530933.472    19530935.317
        50.000          49.000
 117178333.312 7  91138722.124 5  21920636.456    21920637.475    21920645.380
        43.000          34.000
 126006462.90346  98186857.75645  23978233.432    23978233.298    23978237.752
        40.000          34.000
 125468527.87646  97767693.03845  23875863.826    23875863.497    23875870.538
        38.000          32.000
 108104152.79848  84237013.89146  20571535.274    20571534.588    20571537.963
        49.000          41.000
 121422654.48246  94615040.23646  23105959.771    23105960.188    23105966.648
        41.000          39.000
 106933191.68248  83324561.09947  20348704.163    20348704.230    20348708.613
        50.000          44.000
 110113387.111 8  85643745.911 7  20570102.110    20570102.193    20570106.158
        50.000          46.000
 20  5  1  1 23 30.0000000  0 10G 9G26R 8R 1G 7G27G16G 3G 4R 7
 112889708.65047  87966017.86748  21482196.224    21482196.115    21482201.499
        47.000          48.000
 117842224.15047  91825108.81646  22424627.409    22424627.214    22424633.936
        42.000          41.000
 104631697.578 8  81380223.851 8  19539230.287    19539231.577    19539233.215
        50.000          48.000
 117138938.621 7  91108081.819 5  21913266.346    21913268.295    21913275.432
        44.000          34.000
 125998075.22046  98180321.90845  23976637.533    23976637.446    23976641.718
        40.000          34.000
 125444397.66446  97748890.31545  23871271.364    23871271.999    23871278.458
        38.000          33.000
 108193281.71648  84306464.99846  20588495.859    20588495.310    20588498.653
        48.000          40.000
 121591144.02546  94746330.74746  23138022.268    23138022.841    23138029.294
        41.000          39.000
 106997141.12948  83374391.83047  20360873.399    20360873.384    20360877.786
        51.000          44.000
 110274942.123 8  85769399.793 7  20600282.481    20600282.202    20600285.888
        51.000          46.000
 20  5  1  1 24  0.0000000  0 10G 9G26R 8R 1G 7G27G16G 3G 4R 7
 112890761.29347  87966838.11248  21482396.538    21482396.481    21482401.845
        47.000          49.000
 117992708.27247  91942369.14446  22453263.319    22453263.360    22453270.362
        42.000          41.000
 104676863.114 8  81415352.594 8  19547664.876    19547666.091    19547667.885
        50.000          49.000
 117099890.602 7  91077711.157 5  21905964.340    21905962.667    21905969.912
        44.000          34.000
 125989778.28346  98173856.77345  23975059.017    23975058.343    23975062.608
        39.000          34.000
 125420470.02346  97730245.44445  23866718.298    23866718.011    23866725.645
        38.000          33.000
 108283040.20248  84376406.67646  20605576.207    20605575.742    20605578.959
        49.000          40.000
 121759835.78146  94877778.83646  23170123.818    23170123.773    23170130.464
        41.000          39.000
 107061523.52248  83424559.92047  20373124.951    20373125.026    20373129.445
        50.000          44.000
 110437035.173 8  85895472.151 7  20630563.135    20630562.563    20630566.493
        51.000          46.000
 20  5  1  1 24 30.0000000  0 10G 9G26R 8R 1G 7G27G16G 3G 4R 7
 111316690.20947  86740289.22048  21182860.951    21182860.814    21182866.267
        46.000          49.000
 116568099.04347  90832284.01746  22182169.305    22182169.526    22182176.304
        43.000          41.000
 103117383.746 8  80202424.194 8  19256443.094    19256444.249    19256446.022
        50.000          49.000
 115458626.167 7  89801172.161 5  21598931.572    21598929.834    21598937.485
        43.000          34.000
 124406148.56846  96939859.60445  23673703.787    23673703.492    23673707.843
        39.000          34.000
 123821324.40146  96484157.96445  23562410.748    23562411.141    23562418.383
        38.000          34.000
 106798006.89448  83219237.86546  20322983.731    20322983.479    20322986.612
        48.000          40.000
 120353309.19046  93781784.05646  22902470.298    22902470.732    22902477.220
        41.000          39.000
 105550918.74948  82247465.29047  20085666.369    20085666.521    20085670.866
        49.000          44.000
 108994852.560 8  84773774.545 7  20361150.894    20361150.927    20361154.503
        51.000          46.000
 20  5  1  1 25  0.0000000  0 10G 9G26R 8R 1G 7G27G16G 3G 4R 7
 111318342.70248  86741576.87648  21183175.326    21183175.309    21183180.767
        48.000          49.000
 116719229.08847  90950047.66946  22210928.583    22210928.647    22210935.567
        43.000          41.000
 103164013.350 8  80238691.650 8  19265150.765    19265152.124    19265153.771
        50.000          48.000
 115420282.337 7  89771349.192 5  21591758.152    21591756.785    21591764.554
        43.000          34.000
 124398032.29546  96933535.25345  23672159.638    23672159.145    23672163.718
        40.000          35.000
 123797811.02146  96465835.87245  23557936.942    23557936.793    23557943.535
        38.000          34.000
 106889019.30948  83290156.62946  20340302.951    20340302.524    20340305.550
        48.000          40.000
 120522395.34546  93913539.46246  22934646.239    22934646.858    22934653.434
        41.000          38.000
 105616168.67248  82298309.37847  20098083.166    20098083.234    20098087.492
        49.000          45.000
 109158011.564 8  84900675.965 7  20391630.439    20391630.648    20391634.034
        51.000          46.000
 20  5  1  1 25 30.0000000  0 10G 9G26R 8R 1G 7G27G16G 3G 4R 7
 111320299.84947  86743101.92948  21183547.855    21183547.683    21183553.186
        47.000          48.000
 116870679.85547  91068061.22446  22239748.555    22239748.538    22239755.923
        42.000          41.000
 103211379.573 8  80275532.038 8  19273996.033    19273997.327    19273999.199
        49.000          49.000
 115382298.136 7  89741805.927 5  21584653.443    21584651.300    21584658.664
        43.000          34.000
 124390007.89746  96927282.49145  23670632.528    23670632.083    23670636.696
        39.000          35.000
 123774511.60046  96447680.50245  23553502.980    23553502.856    23553509.764
        38.000          33.000
 106980657.73748  83361563.20046  20357741.004    20357740.720    20357743.967
        49.000          40.000
 120691675.86146  94045446.32846  22966859.662    22966859.913    22966866.358
        41.000          38.000
 105681855.44148  82349493.86147  20110582.965    20110582.966    20110587.273
        51.000          44.000
 109321700.923 8  85027989.887 7  20422209.446    20422208.952    20422212.336
        51.000          46.000
 20  5  1  1 26  0.0000000  0 10G 9G26R 8R 1G 7G27G16G 3G 4R 7
 111322570.46047  86744871.23848  21183979.824    21183979.739    21183985.272
        47.000          49.000
 117022455.52847  91186327.96246  22268631.146    22268630.813    22268637.647
        42.000          41.000
 103259491.127 8  80312952.129 8  19282980.210    19282981.465    19282983.676
        50.000          49.000
 115344684.383 7  89712550.797 5  21577615.921    21577615.562    21577623.089
        43.000          34.000
 124382082.84746  96921107.13045  23669124.227    23669123.933    23669128.278
        39.000          35.000
 123751436.23946  96429699.73045  23549111.598    23549111.599    23549119.084
        38.000          34.000
 107072928.04648  83433462.13946  20375299.539    20375299.176    20375302.355
        48.000          40.000
 120861154.59446  94177507.64846  22999110.415    22999110.831    22999116.902
        41.000          37.000
 105747986.74448  82401024.73747  20123167.266    20123167.395    20123171.715
        50.000          44.000
 109485925.049 8  85155719.741 7  20452887.518    20452887.358    20452890.859
        50.000          46.000
 20  5  1  1 26 30.0000000  0 10G 9G26R 8R 1G 7G27G16G 3G 4R 7
 111325138.68048  86746872.45548  21184468.436    21184468.282    21184474.068
        48.000          49.000
 117174535.51047  91304831.82446  22297569.896    22297570.326    22297577.359
        42.000          40.000
 103308331.254 8  80350938.881 8  19292100.767    19292102.297    19292104.268
        50.000          49.000
 115307426.581 7  89683572.515 5  21570644.866    21570645.924    21570653.209
        44.000          35.000
 124374239.30246  96914995.28545  23667632.318    23667631.509    23667635.888
        40.000          35.000
 123728570.44746  96411882.24945  23544760.832    23544760.316    23544767.718
        38.000          34.000
 107165810.94548  83505838.42546  20392974.696    20392974.198    20392977.395
        48.000          40.000
 121030810.62846  94309707.12646  23031394.795    23031395.343    23031401.612
        41.000          37.000
 105814545.53648  82452888.72447  20135833.158    20135833.158    20135837.422
        50.000          45.000
 109650663.208 8  85283849.392 7  20483661.783    20483662.029    20483665.309
        51.000          46.000
 20  5  1  1 27  0.0000000  0 10G 9G26R 8R 1G 7G27G16G 3G 4R 7
 111328024.91447  86749121.47148  21185017.501    21185017.396    21185023.290
        47.000          49.000
 117326935.61247  91423585.12646  22326571.040    22326571.270    22326578.352
        42.000          40.000
 103357920.933 8  80389508.618 8  19301361.670    19301362.733    19301364.801
        50.000          49.000
 115270547.494 7  89654888.799 5  21563745.778    21563746.893    21563753.366
        44.000          30.000
 124366495.69846  96908961.31245  23666158.489    23666157.836    23666162.321
        39.000          35.000
 123705936.04846  96394245.07445  23540453.584    23540453.258    23540460.287
        39.000          34.000
 107259322.86748  83578704.86046  20410769.204    20410768.913    20410772.138
        48.000          40.000
 121200659.34446  94442056.74046  23063715.621    23063716.609    23063722.592
        41.000          37.000
 105881551.12648  82505100.85547  20148583.881    20148583.938    20148588.200
        50.000          44.000
 109815930.603 8  85412390.679 7  20514534.952    20514535.185    20514538.895
        51.000          45.000
 20  5  1  1 27 30.0000000  0 10G 9G26R 8R 1G 7G27G16G 3G 4R 7
 111331223.16948  86751613.62648  21185625.982    21185626.081    21185631.799
        48.000          49.000
 117479645.19147  91542579.57846  22355631.551    22355631.243    22355638.098
        42.000          41.000
 103408253.368 8  80428656.058 8  19310760.518    19310761.872    19310763.994
        50.000          49.000
 115234042.927 7  89626496.369 5  21556915.118    21556917.852    21556924.574
        44.000          35.000
 124358844.02746  96902998.97245  23664701.544    23664702.044    23664706.233
        40.000          35.000
 123683528.35146  96376784.53045  23536189.887    23536189.178    23536196.464
        39.000          34.000
 107353454.45148  83652054.14546  20428682.057    20428681.630    20428684.789
        48.000          40.000
 121370689.78446  94574547.96546  23096071.392    23096072.006    23096078.475
        41.000          37.000
 105948996.32048  82557655.54147  20161418.108    20161418.333    20161422.632
        50.000          44.000
 109981716.373 8  85541335.144 7  20545505.128    20545505.077    20545509.022
        50.000          46.000
 20  5  1  1 28  0.0000000  0 10G 9G26R 8R 1G 7G27G16G 3G 4R 7
 111334741.04747  86754354.84448  21186295.634    21186295.604    21186301.237
        47.000          49.000
 117632667.14947  91661817.44846  22384750.023    22384749.979    22384756.972
        42.000          39.000
 103459336.064 8  80468387.034 8  19320300.197    19320301.238    19320303.435
        49.000          49.000
 115197922.227 7  89598402.503 5  21550158.989    21550160.749    21550167.631
        44.000          35.000
 124351290.19146  96897112.86045  23663264.461    23663264.614    23663268.627
        40.000          35.000
 123661356.37646  96359507.68845  23531970.661    23531970.374    23531977.068
        39.000          35.000
 107448209.82848  83725889.50946  20446713.264    20446713.037    20446716.272
        49.000          40.000
 121540904.44246  94707182.73246  23128462.589    23128462.979    23128469.447
        41.000          38.000
 106016887.52848  82610557.77047  20174337.496    20174337.549    20174341.902
        49.000          44.000
 110148023.549 8  85670685.146 7  20576573.051    20576572.813    20576576.789
        50.000          46.000
 20  5  1  1 28 30.0000000  0 10G 9G26R 8R 1G 7G27G16G 3G 4R 7
 111338582.37448  86757348.09048  21187026.283    21187026.587    21187032.038
        48.000          49.000
 117786000.71547  91781298.12946  22413928.504    22413928.371    22413935.472
        42.000          40.000
 103511172.257 8  80508704.067 8  19329979.864    19329981.458    19329983.407
        50.000          49.000
 115162191.314 7  89570611.783 5  21543476.168    21543475.881    21543483.017
        44.000          35.000
 124343836.13746  96891304.52145  23661846.746    23661846.197    23661850.073
        40.000          35.000
 123639425.26646  96342418.53045  23527797.070    23527796.558    23527803.903
        38.000          34.000
 107543589.02648  83800210.96246  20464863.411    20464862.935    20464866.162
        48.000          40.000
 121711302.18446  94839960.16846  23160888.050    23160888.519    23160895.092
        41.000          38.000
 106085227.42248  82663809.62047  20187341.997    20187342.146    20187346.606
        51.000          44.000
 110314850.811 8  85800439.664 7  20607737.431    20607737.307    20607741.424
        49.000          46.000
 20  5  1  1 29  0.0000000  0 10G 9G26R 8R 1G 7G27G16G 3G 4R 7
 111342737.24948  86760585.66148  21187817.234    21187817.253    21187822.652
        48.000          49.000
 117939631.32247  91901010.25946  22443163.575    22443163.562    22443170.447
        42.000          40.000
 103563751.618 8  80549599.110 8  19339799.296    19339800.331    19339802.171
        49.000          49.000
 115126841.988 7  89543117.864 5  21536863.194    21536862.692    21536871.418
        43.000          35.000
 124336470.05346  96885564.71645  23660444.782    23660444.536    23660447.924
        40.000          35.000
 123617726.51246  96325510.41145  23523667.905    23523667.683    23523675.006
        39.000          35.000
 107639578.52248  83875007.97546  20483129.573    20483129.057    20483132.392
        48.000          40.000
 121881868.01146  94972868.56846  23193345.578    23193346.127    23193352.631
        41.000          37.000
 106154004.88748  82717402.43847  20200430.085    20200429.968    20200434.493
        51.000          44.000
 110482183.287 8  85930587.121 7  20638996.972    20638996.755    20639000.840
        50.000          45.000
 20  5  1  1 29 30.0000000  0 10G 9G26R 8R 1G 7G27G16G 3G 4R 7
 111347200.43447  86764063.47848  21188666.670    21188666.534    21188671.975
        47.000          49.000
 118093549.07947  92020946.15246  22472452.725    22472453.082    22472459.944
        42.000          40.000
 103617068.043 8  80591067.430 8  19349755.343    19349756.688    19349758.711
        49.000          49.000
 115091870.573 7  89515917.897 5  21530319.983    21530321.008    21530328.884
        44.000          35.000
 124329184.81646  96879887.92745  23659058.814    23659058.290    23659061.757
        41.000          35.000
 123596256.18946  96308780.30545  23519582.038    23519581.548    23519589.019
        38.000          35.000
 107736169.77148  83950273.88746  20501510.257    20501509.797    20501513.005
        48.000          40.000
 122052591.80746  95105900.06846  23225832.799    23225833.657    23225840.637
        40.000          38.000
 106223213.53148  82771331.24147  20213599.993    20213600.016    20213604.477
        49.000          44.000
 110650010.485 8  86061119.371 7  20670348.558    20670348.075    20670352.253
        50.000          45.000
 20  5  1  1 30  0.0000000  0 10G 9G26R 8R 1G 7G27G16G 3G 4R 7
 111351988.96047  86767794.79948  21189577.995    21189577.738    21189583.230
        47.000          49.000
 118247766.32246  92141115.42046  22501799.741    22501799.473    22501806.848
        41.000          39.000
 103671138.843 8  80633122.485 8  19359852.637    19359854.189    19359856.067
        50.000          49.000
 115057296.223 7  89489026.750 6  21523853.514    21523852.810    21523861.322
        43.000          36.000
 124321995.51746  96874285.88446  23657690.775    23657690.396    23657693.820
        41.000          36.000
 123575032.71246  96292242.55245  23515543.452    23515543.193    23515550.020
        39.000          35.000
 107833375.80047  84026018.84546  20520007.917    20520007.662    20520010.644
        47.000          40.000
 122223485.42246  95239063.88446  23258353.110    23258353.579    23258360.125
        41.000          37.000
 106292869.08148  82825608.28447  20226855.035    20226855.041    20226859.423
        49.000          44.000
 110818344.911 8  86192046.125 7  20701794.341    20701794.515    20701798.582
        50.000          45.000
 20  5  1  1 30 30.0000000  0 10G 9G26R 8R 1G 7G27G16G 3G 4R 7
 111357111.20648  86771786.16348  21190552.564    21190552.446    21190557.946
        48.000          50.000
 118402286.81847  92261520.97046  22531204.039    22531203.828    22531210.948
        42.000          39.000
 103725971.569 8  80675770.144 8  19370092.388    19370093.807    19370095.782
        50.000          49.000
 115023129.388 7  89462452.540 6  21517460.396    21517461.088    21517469.714
        43.000          36.000
 124314908.63046  96868763.64046  23656341.522    23656341.890    23656345.398
        41.000          36.000
 123554065.79346  96275904.70345  23511553.301    23511553.169    23511560.162
        38.000          35.000
 107931201.13348  84102246.37746  20538623.617    20538623.300    20538626.462
        48.000          40.000
 122394552.29046  95372362.71546  23290905.808    23290906.566    23290913.240
        39.000          37.000
 106362978.69148  82880239.13747  20240196.294    20240196.486    20240200.808
        50.000          44.000
 110987189.825 8  86323369.930 7  20733336.389    20733336.124    20733340.467
        50.000          45.000
 20  5  1  1 31  0.0000000  0 10G 9G26R 8R 1G 7G27G16G 3G 4R 7
 111362572.02348  86776041.34548  21191591.603    21191591.756    21191597.079
        48.000          49.000
 118557110.75546  92382162.98246  22560665.715    22560665.786    22560673.194
        41.000          39.000
 103781570.491 8  80719013.731 8  19380475.368    19380476.729    19380478.393
        50.000          49.000
 114989376.917 7  89436200.639 6  21511148.354    21511147.316    21511155.153
        44.000          36.000
 124307927.35846  96863323.70346  23655013.216    23655013.164    23655016.825
        39.000          36.000
 123533361.67846  96259771.64845  23507613.680    23507613.442    23507620.556
        39.000          35.000
 108029647.09248  84178957.51446  20557357.367    20557356.902    20557360.100
        48.000          40.000
 122565792.21746  95505796.38446  23323491.991    23323492.448    23323498.944
        40.000          37.000
 106433546.05148  82935226.68047  20253624.944    20253625.023    20253629.346
        50.000          44.000
 111156545.183 8  86455090.740 7  20764973.553    20764973.533    20764977.209
        50.000          45.000
 20  5  1  1 31 30.0000000  0 10G 9G26R 8R 1G 7G27G16G 3G 4R 7
 111368361.05748  86780552.28348  21192693.512    21192693.329    21192698.661
        48.000          49.000
 118712223.13147  92503029.75346  22590183.187    22590182.698    22590189.768
        42.000          39.000
 103837924.880 8  80762844.908 8  19390999.238    19391000.256    19391002.250
        49.000          49.000
 114956030.062 7  89410264.202 6  21504910.035    21504909.072    21504917.686
        44.000          36.000
 124301039.14546  96857956.26846  23653702.090    23653702.231    23653706.111
        40.000          36.000
 123512911.32846  96243836.33145  23503722.126    23503722.482    23503728.911
        40.000          35.000
 108128699.68748  84256141.35146  20576206.459    20576206.010    20576209.021
        49.000          40.000
 122737189.88746  95639352.97646  23356108.974    23356108.693    23356115.067
        40.000          37.000
 106504559.47148  82990561.80847  20267138.390    20267138.478    20267142.672
        51.000          44.000
 111326395.160 8  86587196.253 7  20796702.959    20796703.458    20796706.725
        50.000          45.000
 20  5  1  1 32  0.0000000  0 10G 9G26R 8R 1G 7G27G16G 3G 4R 7
 111374486.45547  86785325.32748  21193859.154    21193859.089    21193864.175
        47.000          50.000
 118867627.47646  92624124.03146  22619755.464    22619755.505    22619762.165
        41.000          39.000
 103895041.920 8  80807269.264 8  19401665.531    19401666.562    19401668.560
        50.000          49.000
 114923098.908 7  89384651.098 6  21498748.411    21498749.191    21498756.972
        45.000          36.000
 124294250.42546  96852666.37146  23652410.348    23652409.939    23652414.204
        40.000          36.000
 123492724.26646  96228106.17045  23499880.835    23499880.607    23499887.341
        40.000          35.000
 108228363.30848  84333801.31746  20595171.775    20595171.323    20595174.478
        49.000          40.000
 122908748.35246  95773034.85546  23388754.477    23388755.134    23388761.538
        40.000          37.000
 106576025.86848  83046249.89947  20280738.045    20280738.003    20280742.271
        50.000          44.000
 111496743.224 8  86719689.171 7  20828525.493    20828525.145    20828529.132
        50.000          45.000
 20  5  1  1 32 30.0000000  0 10G 9G26R 8R 1G 7G27G16G 3G 4R 7
 111380941.69848  86790355.38648  21195087.390    21195087.380    21195092.653
        48.000          49.000
 119023312.56247  92745437.07146  22649381.516    22649381.223    22649388.386
        42.000          39.000
 103952914.174 8  80852281.004 8  19412472.187    19412473.444    19412475.713
        50.000          49.000
 114890578.698 7  89359357.589 6  21492665.400    21492665.651    21492673.166
        45.000          36.000
 124287552.36046  96847447.10046  23651136.135    23651135.476    23651139.753
        40.000          36.000
 123472795.29046  96212577.11845  23496087.844    23496088.111    23496095.072
        39.000          35.000
 108328627.43648  84411929.20046  20614251.107    20614250.772    20614254.059
        48.000          40.000
 123080456.15046  95906833.10346  23421429.175    23421430.259    23421436.536
        40.000          36.000
 106647937.39748  83102284.85347  20294422.371    20294422.237    20294426.626
        50.000          44.000
 111667577.747 8  86852560.437 7  20860438.710    20860439.029    20860442.291
        50.000          45.000
 20  5  1  1 33  0.0000000  0 10G 9G26R 8R 1G 7G27G16G 3G 4R 7
 111387741.56848  86795653.98448  21196381.253    21196381.328    21196386.683
        48.000          50.000
 119179288.55246  92866976.78246  22679062.865    22679062.578    22679069.702
        41.000          39.000
 104011556.164 8  80897891.427 8  19423423.427    19423424.582    19423426.767
        50.000          49.000
 114858486.246 7  89334396.808 5  21486661.138    21486662.274    21486669.203
        45.000          30.000
 124280957.94146  96842308.59646  23649880.764    23649880.689    23649884.966
        40.000          36.000
 123453140.50746  96197261.71345  23492347.485    23492347.314    23492354.909
        39.000          35.000
 108429503.19048  84490533.68546  20633447.138    20633446.768    20633449.964
        48.000          40.000
 123252322.96046  96040755.25946  23454135.247    23454135.511    23454141.615
        40.000          36.000
 106720307.57448  83158677.18947  20308193.763    20308193.908    20308198.359
        50.000          44.000
 111838908.311 8  86985817.522 7  20892444.443    20892444.144    20892448.241
        49.000          45.000
 20  5  1  1 33 30.0000000  0 10G 9G26R 8R 1G 7G27G16G 3G 4R 7
 111394873.72648  86801211.50648  21197738.374    21197738.578    21197743.934
        48.000          50.000
 119335538.50246  92988729.96546  22708795.613    22708795.768    22708803.135
        41.000          39.000
 104070954.393 8  80944090.037 8  19434515.818    19434516.715    19434518.967
        50.000          49.000
 114826811.105 7  89309760.581 6  21480736.604    21480736.883    21480743.754
        46.000          36.000
 124274453.51646  96837240.23946  23648643.379    23648643.273    23648647.123
        41.000          36.000
 123433749.07446  96182151.52145  23488657.762    23488657.586    23488664.463
        38.000          35.000
 108530974.17848  84569601.98546  20652756.235    20652755.932    20652759.079
        48.000          40.000
 123424331.47946  96174787.84446  23486867.082    23486867.688    23486873.741
        40.000          36.000
 106793122.80048  83215416.31747  20322050.273    20322050.221    20322054.690
        50.000          44.000
 112010717.367 8  87119446.759 7  20924539.934    20924539.866    20924543.732
        50.000          44.000
 20  5  1  1 34  0.0000000  0 10G 9G26R 8R 1G 7G27G16G 3G 4R 7
 111402349.72447  86807036.96348  21199161.182    21199161.156    21199166.534
        47.000          50.000
 119492069.27146  93110701.97846  22738582.269    22738582.707    22738589.753
        41.000          38.000
 104131120.257 8  80990885.705 8  19445750.706    19445752.165    19445754.525
        49.000          49.000
 114795566.523 7  89285459.233 6  21474892.789    21474891.526    21474898.991
        45.000          36.000
 124268048.74246  96832249.51546  23647424.299    23647424.399    23647428.174
        40.000          36.000
 123414633.70246  96167256.44545  23485019.699    23485019.307    23485026.724
        38.000          34.000
 108633048.21148  84649140.19146  20672180.730    20672180.028    20672183.203
        48.000          40.000
 123596488.23346  96308935.93446  23519627.622    23519628.087    23519634.015
        41.000          36.000
 106866393.23448  83272510.15147  20335993.049    20335993.213    20335997.447
        49.000          44.000
 112183011.650 8  87253453.399 7  20956726.222    20956725.769    20956729.743
        49.000          44.000
 20  5  1  1 34 30.0000000  0 10G 9G26R 8R 1G 7G27G16G 3G 4R 7
 111410173.06948  86813133.07648  21200649.991    21200649.803    21200655.233
        49.000          50.000
 119648879.81946  93232891.96746  22768422.992    22768422.600    22768429.589
        41.000          38.000
 104192055.965 8  81038280.124 8  19457130.421    19457131.666    19457133.876
        49.000          49.000
 114764758.075 7  89261497.119 6  21469128.043    21469128.332    21469135.150
        45.000          36.000
 124261745.09046  96827337.58246  23646224.360    23646225.141    23646228.725
        41.000          36.000
 123395799.31646  96152580.30045  23481435.356    23481436.127    23481442.949
        39.000          35.000
 108735725.14148  84729148.18546  20691719.476    20691718.798    20691722.069
        49.000          40.000
 123768791.77046  96443198.39246  23552415.557    23552416.473    23552422.475
        40.000          36.000
 106940121.13848  83329960.45647  20350023.217    20350023.233    20350027.512
        50.000          44.000
 112355789.279 8  87387835.979 7  20989002.032    20989002.259    20989006.176
        49.000          45.000
 20  5  1  1 35  0.0000000  0 10G 9G26R 8R 1G 7G27G16G 3G 4R 7
 111418346.67648  86819502.11948  21202205.214    21202205.194    21202210.576
        49.000          50.000
 119805968.31546  93355298.59846  22798316.491    22798315.670    22798322.238
        41.000          38.000
 104253763.853 8  81086275.142 8  19468654.324    19468655.069    19468657.404
        50.000          49.000
 114734390.601 7  89237877.967 6  21463446.667    21463446.645    21463454.826
        45.000          36.000
 124255543.37246  96822505.09846  23645044.945    23645044.996    23645048.677
        40.000          37.000
 123377250.16446  96138126.43746  23477906.165    23477906.308    23477912.930
        40.000          36.000
 108839003.81648  84809625.07346  20711372.223    20711372.123    20711375.306
        48.000          39.000
 123941239.86246  96577573.49346  23585231.657    23585232.314    23585238.512
        41.000          36.000
 107014308.04048  83387768.42447  20364140.505    20364140.553    20364144.790
        50.000          44.000
 112529048.309 8  87522592.975 7  21021368.864    21021368.396    21021372.528
        49.000          45.000
 20  5  1  1 35 30.0000000  0 10G 9G26R 8R 1G 7G27G16G 3G 4R 7
 111426878.22048  86826150.06948  21203828.808    21203828.600    21203833.996
        48.000          50.000
 119963337.87846  93477924.20046  22828261.990    22828262.040    22828269.280
        41.000          38.000
 104316250.948 8  81134876.197 8  19480323.428    19480324.230    19480326.459
        50.000          49.000
 114704473.595 7  89214609.196 6  21457849.786    21457850.319    21457857.482
        45.000          36.000
 124249449.10747  96817756.33146  23643885.103    23643885.361    23643888.964
        42.000          37.000
 123358995.27546  96123901.86346  23474433.229    23474433.443    23474439.192
        40.000          37.000
 108942887.88848  84890573.69946  20731140.967    20731140.578    20731143.858
        48.000          39.000
 124113835.33146  96712063.44046  23618075.272    23618076.064    23618082.229
        40.000          36.000
 107088960.35148  83445939.04147  20378346.137    20378346.340    20378350.638
        50.000          44.000
 112702791.163 8  87657726.276 7  21053825.806    21053825.424    21053828.804
        50.000          44.000
 20  5  1  1 36  0.0000000  0 10G 9G26R 8R 1G 7G27G16G 3G 4R 7
 109860337.62848  85605469.08648  20905725.849    20905725.807    20905731.230
        48.000          50.000
 118545558.77646  92373161.23246  22558468.105    22558468.056    22558474.929
        41.000          38.000
 102774132.507 8  79935450.732 8  19192343.328    19192344.520    19192346.545
        50.000          49.000
 113072435.083 7  87945245.919 6  21152544.243    21152543.838    21152551.553
        44.000          36.000
 122668030.46946  95585482.06846  23342951.062    23342951.040    23342954.971
        41.000          37.000
 121765605.02346  94882299.10846  23171219.907    23171220.200    23171226.969
        40.000          36.000
 107471946.83748  83744385.86346  20451230.469    20451229.930    20451233.186
        48.000          39.000
 122711148.51546  95619060.69346  23351152.662    23351153.864    23351159.821
        40.000          36.000
 105588648.75848  82276865.05947  20092846.296    20092846.383    20092850.855
        50.000          44.000
 111272195.631 8  86545040.840 7  20786578.185    20786577.940    20786581.868
        49.000          44.000
 20  5  1  1 36 30.0000000  0 10G 9G26R 8R 1G 7G27G16G 3G 4R 7
 109869569.24548  85612662.55248  20907482.438    20907482.569    20907487.978
        48.000          50.000
 118703460.76646  92496201.72046  22588515.423    22588515.863    22588522.306
        41.000          38.000
 102838158.398 8  79985248.638 8  19204299.765    19204300.928    19204302.999
        49.000          49.000
 113043408.946 7  87922670.036 6  21147112.502    21147114.158    21147121.291
        45.000          36.000
 122662130.81247  95580884.95246  23341828.287    23341828.586    23341832.128
        42.000          37.000
 121747926.81246  94868523.90746  23167855.866    23167855.756    23167863.538
        39.000          36.000
 107577014.32548  83826256.63146  20471223.987    20471223.527    20471226.809
        48.000          40.000
 122884007.81146  95753756.23746  23384047.520    23384047.797    23384054.033
        40.000          36.000
 105664211.85248  82335745.38247  20107225.559    20107225.577    20107230.103
        50.000          44.000
 111446874.830 8  86680902.417 7  20819209.809    20819209.431    20819213.703
        49.000          44.000
 20  5  1  1 37  0.0000000  0 10G 9G26R 8R 1G 7G27G16G 3G 4R 7
 109879158.89648  85620134.99848  20909307.322    20909307.444    20909312.876
        49.000          50.000
 118861630.08146  92619450.51046  22618614.690    22618614.213    22618621.264
        41.000          38.000
 102902960.530 8  80035650.279 8  19216401.465    19216402.204    19216404.442
        50.000          49.000
 113014838.877 7  87900448.875 6  21141770.299    21141769.940    21141777.247
        46.000          37.000
 122656333.27546  95576367.40546  23340725.413    23340725.312    23340729.241
        41.000          37.000
 121730546.98846  94854981.21846  23164548.419    23164549.166    23164555.711
        39.000          36.000
 107682675.51548  83908590.02246  20491330.803    20491330.274    20491333.554
        48.000          40.000
 123056999.56746  95888554.96345  23416965.925    23416966.626    23416973.347
        40.000          35.000
 105740236.28348  82394985.19047  20121692.508    20121692.513    20121697.032
        49.000          44.000
 111622022.488 8  86817128.341 7  20851928.628    20851928.379    20851932.604
        49.000          44.000
 20  5  1  1 37 30.0000000  0 10G 9G26R 8R 1G 7G27G16G 3G 4R 7
 109889109.86548  85627888.99748  20911201.121    20911201.120    20911206.587
        49.000          50.000
 119020065.35646  92742906.54246  22648763.554    22648763.580    22648770.422
        41.000          39.000
 102968540.872 8  80086657.204 8  19228647.766    19228648.968    19228651.287
        50.000          49.000
 112986730.119 7  87878586.505 6  21136512.265    21136511.347    21136518.472
        45.000          36.000
 122650639.13447  95571930.41546  23339641.431    23339641.810    23339645.621
        42.000          37.000
 121713470.12646  94841674.61446  23161299.290    23161299.353    23161306.742
        38.000          36.000
 107788929.68648  83991385.47846  20511549.994    20511549.505    20511552.886
        48.000          39.000
 123230122.00646  96023455.53045  23449910.415    23449910.574    23449917.649
        39.000          35.000
 105816724.00248  82454585.99747  20136247.634    20136247.716    20136252.209
        50.000          44.000
 111797636.578 8  86953717.045 7  20884735.349    20884734.634    20884738.755
        49.000          45.000
 20  5  1  1 38  0.0000000  0 10G 9G26R 8R 1G 7G27G16G 3G 4R 7
 109899420.53048  85635923.27648  20913163.144    20913163.255    20913168.705
        49.000          50.000
 119178760.36646  92866564.96746  22678962.903    22678962.490    22678969.333
        41.000          39.000
 103034896.962 8  80138267.480 8  19241039.958    19241040.424    19241042.692
        50.000          49.000
 112959083.064 7  87857083.244 6  21131339.749    21131339.494    21131346.997
        45.000          36.000
 122645045.49546  95567571.74746  23338577.264    23338577.150    23338581.159
        41.000          37.000
 121696695.94746  94828603.83746  23158106.987    23158107.874    23158114.485
        39.000          36.000
 107895771.64148  84074638.94746  20531881.455    20531880.999    20531884.277
        48.000          39.000
 123403368.56146  96158452.81145  23482877.655    23482878.269    23482885.223
        39.000          35.000
 105893671.92748  82514545.40647  20150890.367    20150890.441    20150894.883
        50.000          44.000
 111973710.036 8  87090663.042 7  20917627.112    20917626.654    20917631.154
        49.000          44.000
 20  5  1  1 38 30.0000000  0 10G 9G26R 8R 1G 7G27G16G 3G 4R 7
 109910091.40648  85644238.24448  20915194.085    20915193.980    20915199.341
        48.000          51.000
 119337711.02246  92990422.58946  22709209.047    22709209.565    22709216.635
        40.000          38.000
 103102027.868 8  80190480.396 8  19253575.430    19253576.708    19253578.893
        50.000          49.000
 112931899.855 7  87835940.759 4  21126253.364    21126253.753    21126261.502
        45.000          29.000
 122639550.86846  95563290.22046  23337531.585    23337531.045    23337535.350
        41.000          37.000
 121680226.23546  94815770.33045  23154972.478    23154972.492    23154980.616
        38.000          35.000
 108003197.19248  84158347.16446  20552323.862    20552323.420    20552326.747
        48.000          39.000
 123576734.72546  96293543.29345  23515868.170    23515868.725    23515876.044
        39.000          35.000
 105971079.18748  82574862.74147  20165620.527    20165620.598    20165625.095
        50.000          44.000
 112150238.204 8  87227962.697 7  20950603.995    20950603.750    20950607.879
        49.000          44.000
 20  5  1  1 39  0.0000000  0 10G 9G26R 8R 1G 7G27G16G 3G 4R 7
 109921132.20648  85652841.45948  20917294.719    20917295.028    20917300.371
        49.000          51.000
 119496922.44746  93114483.41246  22739506.909    22739506.475    22739513.420
        41.000          38.000
 103169942.394 8  80243302.797 8  19266258.241    19266259.622    19266261.325
        50.000          49.000
 112905192.377 7  87815168.288 6  21121258.348    21121257.749    21121265.181
        45.000          37.000
 122634163.13646  95559091.98846  23336505.468    23336505.804    23336510.247
        40.000          37.000
 121664072.07246  94803182.69946  23151898.999    23151899.054    23151906.460
        39.000          36.000
 108111212.12948  84242514.64446  20572878.363    20572877.846    20572881.221
        48.000          39.000
 123750225.27346  96428730.68845  23548882.180    23548882.861    23548890.289
        38.000          34.000
 106048954.04148  82635544.43447  20180439.630    20180439.797    20180444.115
        50.000          44.000
 112327225.851 8  87365619.720 7  20983666.803    20983667.066    20983670.851
        49.000          44.000
 20  5  1  1 39 30.0000000  0 10G 9G26R 8R 1G 7G27G16G 3G 4R 7
 109932544.71948  85661734.32348  20919466.742    20919466.705    20919472.086
        50.000          51.000
 119656391.84546  93238745.25046  22769852.643    22769852.781    22769859.931
        41.000          38.000
 103238640.993 8  80296735.031 8  19279087.545    19279088.485    19279090.342
        50.000          49.000
 112878964.527 7  87794768.856 6  21116351.333    21116351.231    21116358.482
        45.000          37.000
 122628882.03646  95554976.85146  23335501.150    23335501.022    23335504.880
        41.000          37.000
 121648236.55546  94790843.35146  23148885.083    23148886.263    23148893.099
        38.000          36.000
 108219814.33948  84327139.73346  20593544.683    20593544.378    20593547.555
        48.000          39.000
 123923837.03046  96564012.53345  23581919.465    23581920.155    23581927.250
        39.000          34.000
 106127296.89348  82696590.79947  20195347.831    20195347.995    20195352.269
        50.000          44.000
 112504669.242 8  87503631.216 7  21016814.673    21016814.226    21016818.561
        49.000          44.000
 20  5  1  1 40  0.0000000  0 10G 9G26R 8R 1G 7G27G16G 3G 4R 7
 109944326.94948  85670915.27948  20921708.728    20921708.694    20921714.136
        50.000          51.000
 119816112.67046  93363203.00546  22800246.387    22800246.345    22800253.612
        40.000          38.000
 103308120.661 8  80350774.766 8  19292062.023    19292063.350    19292065.193
        50.000          49.000
 112853215.492 7  87774741.843 6  21111534.558    21111534.698    21111541.378
        46.000          36.000
 122623703.87147  95550941.92646  23334515.881    23334515.877    23334519.307
        42.000          37.000
 121632718.98746  94778751.77146  23145932.621    23145932.670    23145940.245
        38.000          36.000
 108328997.82048  84412217.76646  20614321.728    20614321.284    20614324.541
        48.000          39.000
 124097563.04046  96699383.41845  23614977.977    23614978.727    23614986.341
        38.000          34.000
 106206104.27348  82757999.13447  20210344.417    20210344.577    20210348.974
        50.000          44.000
 112682561.276 8  87641991.664 7  21050046.554    21050046.179    21050050.559
        48.000          44.000
 20  5  1  1 40 30.0000000  0 10G 9G26R 8R 1G 7G27G16G 3G 4R 7
 109956481.97148  85680386.72648  20924021.661    20924021.812    20924027.061
        49.000          50.000
 119976083.36846  93487855.47546  22830687.803    22830687.807    22830694.713
        41.000          37.000
 103378383.248 8  80405423.430 8  19305183.173    19305184.414    19305186.179
        51.000          49.000
 112827950.781 7  87755091.528 6  21106807.607    21106807.884    21106815.177
        46.000          36.000
 122618629.65246  95546988.00246  23333550.717    23333550.425    23333553.579
        41.000          37.000
 121617523.81046  94766911.40846  23143041.349    23143041.069    23143048.414
        39.000          37.000
 108438761.52148  84497747.91946  20635208.954    20635208.700    20635212.015
        48.000          39.000
 124271401.32746  96834841.77245  23648058.556    23648059.232    23648066.676
        38.000          34.000
 106285377.82548  82819770.72147  20225429.747    20225429.803    20225434.124
        50.000          44.000
 112860899.861 8  87780699.422 7  21083361.241    21083361.282    21083365.478
        49.000          43.000
 20  5  1  1 41  0.0000000  0 10G 9G26R 8R 1G 7G27G16G 3G 4R 7
 109969013.88748  85690151.85748  20926406.631    20926406.686    20926411.735
        49.000          50.000
 120136303.47946  93612702.28946  22861176.526    22861176.679    22861183.715
        41.000          37.000
 103449431.570 8  80460683.231 8  19318450.609    19318452.105    19318454.035
        51.000          49.000
 112803176.080 7  87735822.322 6  21102173.940    21102173.368    21102180.426
        45.000          37.000
 122613661.78547  95543116.94746  23332605.138    23332605.223    23332608.193
        42.000          37.000
 121602656.36946  94755326.40546  23140212.564    23140212.723    23140219.393
        40.000          38.000
 108549105.59448  84583730.30746  20656206.730    20656206.177    20656209.506
        48.000          39.000
 124445351.12646  96970387.04045  23681160.190    23681160.833    23681168.364
        38.000          34.000
 106365120.16648  82881907.59647  20240604.150    20240604.232    20240608.672
        50.000          44.000
 113039683.269 8  87919753.157 7  21116759.450    21116759.738    21116763.673
        48.000          43.000
 20  5  1  1 41 30.0000000  0 11G 9G26R 8R 1G 7G27G16G 8G 3G 4R 7
 109981918.95548  85700207.75348  20928862.262    20928862.351    20928867.481
        50.000          51.000
 120296764.72646  93737737.01846  22891711.662    22891711.414    22891718.638
        40.000          37.000
 103521260.176 8  80516549.914 8  19331864.206    19331865.308    19331867.433
        50.000          49.000
 112778889.515 7  87716932.782 6  21097629.926    21097629.752    21097637.634
        45.000          37.000
 122608794.85847  95539324.55346  23331679.133    23331679.139    23331682.052
        42.000          38.000
 121588114.28746  94743994.93846  23137445.303    23137445.131    23137451.703
        40.000          37.000
 108660021.98647  84670158.66746  20677313.765    20677313.277    20677316.409
        47.000          39.000
 127519448.89145  99365809.8314   24266139.831    24266141.085    24266147.971
        34.000           1.000
 124619403.72046  97106012.40745  23714281.254    23714281.944    23714289.388
        39.000          34.000
 106445326.10748  82944405.71947  20255866.504    20255866.990    20255871.337
        49.000          44.000
 113218903.329 8  88059146.512 7  21150239.615    21150239.541    21150243.261
        48.000          43.000
 20  5  1  1 42  0.0000000  0 11G 9G26R 8R 1G 7G27G16G 8G 3G 4R 7
 109995205.63848  85710561.01648  20931390.760    20931390.619    20931395.906
        49.000          51.000
 120457471.02846  93862962.66246  22922292.213    22922292.524    22922300.198
        39.000          37.000
 103593876.446 8  80573029.220 8  19345424.706    19345426.029    19345428.045
        50.000          49.000
 112755101.604 7  87698431.097 6  21093179.828    21093179.726    21093187.832
        45.000          37.000
 122604035.15647  95535615.71846  23330774.081    23330773.386    23330776.465
        42.000          38.000
 121573907.31646  94732924.59246  23134741.157    23134740.936    23134748.285
        40.000          37.000
 108771514.93048  84757036.28346  20698530.216    20698529.715    20698532.707
        48.000          39.000
 127483740.48345  99337985.14244  24259344.570    24259344.586    24259353.228
        34.000          28.000
 124793562.60346  97241720.59045  23747423.000    23747423.247    23747430.964
        38.000          34.000
 106526002.61948  83007270.52447  20271219.050    20271219.158    20271223.580
        50.000          44.000
 113398562.393 8  88198881.298 7  21183801.837    21183801.094    21183804.992
        49.000          43.000
 20  5  1  1 42 30.0000000  0 11G 9G26R 8R 1G 7G27G16G 8G 3G 4R 7
 110008877.01448  85721214.03648  20933992.113    20933992.110    20933997.472
        48.000          51.000
 120618420.86146  93988378.08946  22952921.175    22952920.463    22952927.779
        40.000          37.000
 103667282.269 8  80630122.624 8  19359132.784    19359133.968    19359136.205
        50.000          49.000
 112731817.313 7  87680321.098 6  21088822.393    21088823.618    21088831.832
        46.000          37.000
 122599384.18647  95531991.59646  23329888.135    23329888.124    23329890.930
        42.000          38.000
 121560039.84447  94722118.78746  23132102.879    23132103.058    23132109.390
        42.000          38.000
 108883583.64848  84844362.55646  20719856.121    20719855.614    20719858.643
        48.000          39.000
 127448071.21845  99310190.95844  24252556.659    24252556.118    24252565.265
        33.000          24.000
 124967825.94746  97377510.16745  23780583.901    23780584.492    23780592.014
        37.000          33.000
 106607151.29048  83070503.24447  20286661.095    20286661.173    20286665.676
        49.000          44.000
 113578658.899 8  88338956.323 7  21217444.793    21217445.198    21217449.170
        49.000          43.000
 20  5  1  1 43  0.0000000  0 11G 9G26R 8R 1G 7G27G16G 8G 3G 4R 7
 110022936.60648  85732169.55948  20936667.611    20936667.614    20936672.947
        49.000          51.000
 120779613.23046  94113982.51146  22983595.179    22983594.411    22983601.644
        40.000          36.000
 103741479.712 8  80687831.730 8  19372989.008    19372989.946    19372992.060
        50.000          49.000
 112709041.937 7  87662606.923 6  21084562.469    21084563.299    21084571.615
        45.000          38.000
 122594843.23346  95528453.19346  23329024.021    23329023.836    23329027.139
        41.000          37.000
 121546516.71746  94711581.31046  23129528.983    23129529.223    23129535.999
        41.000          38.000
 108996227.32348  84932136.85046  20741291.381    20741291.010    20741294.089
        48.000          39.000
 127412446.02645  99282431.07644  24245778.028    24245777.895    24245785.776
        34.000          25.000
 125142192.27946  97513380.00045  23813764.826    23813765.502    23813772.957
        38.000          33.000
 106688774.16348  83134105.47547  20302193.224    20302193.498    20302198.018
        50.000          43.000
 113759190.686 8  88479369.918 7  21251169.565    21251169.132    21251173.602
        48.000          43.000
 20  5  1  1 43 30.0000000  0 11G 9G26R 8R 1G 7G27G16G 8G 3G 4R 7
 110037385.18748  85743428.19048  20939417.089    20939417.147    20939422.380
        49.000          51.000
 120941044.37946  94239772.98946  23014314.309    23014313.862    23014320.917
        39.000          36.000
 103816467.986 8  80746155.929 8  19386992.253    19386993.469    19386995.589
        50.000          49.000
 112686778.018 7  87645290.542 6  21080398.679    21080398.486    21080406.495
        46.000          38.000
 122590411.62246  95524999.99846  23328180.191    23328180.387    23328184.035
        41.000          38.000
 121533339.98946  94701313.76546  23127021.843    23127021.619    23127027.722
        41.000          38.000
 109109442.58347  85020356.52946  20762835.551    20762835.048    20762838.228
        47.000          39.000
 127376866.64245  99254706.92544  24239008.601    24239008.004    24239014.358
        33.000          24.000
 125316657.57046  97649326.94845  23846965.090    23846964.955    23846972.679
        38.000          33.000
 106770870.46748  83198076.61047  20317815.629    20317815.942    20317820.399
        49.000          44.000
 113940153.455 8  88620118.688 7  21284975.397    21284975.220    21284979.367
        48.000          43.000
 20  5  1  1 44  0.0000000  0 11G 9G26R 8R 1G 7G27G16G 8G 3G 4R 7
 110052223.28148  85754990.33648  20942240.729    20942240.637    20942245.965
        49.000          51.000
 121102710.30546  94365746.42646  23045078.343    23045077.922    23045084.908
        40.000          36.000
 103892246.084 8  80805094.435 8  19401143.467    19401144.546    19401146.420
        50.000          49.000
 112665028.197 7  87628374.031 6  21076330.134    21076329.596    21076337.071
        46.000          37.000
 122586088.33646  95521631.21446  23327357.917    23327357.342    23327361.344
        41.000          37.000
 121520511.48946  94691317.55346  23124580.770    23124581.073    23124587.448
        41.000          38.000
 109223225.64348  85109018.65346  20784487.704    20784487.217    20784490.506
        48.000          39.000
 127341334.43945  99227019.52743  24232245.152    24232246.083    24232253.522
        33.000          23.000
 125491217.32046  97785347.48545  23880183.358    23880182.622    23880190.309
        38.000          33.000
 106853439.18848  83262415.86447  20333528.100    20333528.226    20333532.607
        49.000          43.000
 114121542.133 8  88761198.734 7  21318860.097    21318860.081    21318864.110
        48.000          43.000
 20  5  1  1 44 30.0000000  0 11G 9G26R 8R 1G 7G27G16G 8G 3G 4R 7
 110067453.06148  85766857.69248  20945138.728    20945138.727    20945144.082
        49.000          51.000
 121264608.70846  94491900.98746  23075885.978    23075885.939    23075893.436
        39.000          36.000
 103968814.750 8  80864647.830 8  19415442.084    19415443.207    19415445.181
        50.000          49.000
 112643796.161 7  87611860.239 6  21072357.082    21072357.623    21072365.250
        46.000          37.000
 122581873.43346  95518346.87746  23326555.448    23326555.058    23326559.514
        41.000          38.000
 121508034.67846  94681595.39646  23122205.918    23122205.912    23122212.790
        40.000          38.000
 109337574.46848  85198121.63146  20806247.567    20806247.019    20806250.358
        48.000          39.000
 127305853.36045  99199371.99444  24225495.764    24225494.319    24225500.940
        34.000          24.000
 125665868.84346  97921439.54245  23913417.164    23913417.845    23913425.310
        38.000          33.000
 106936480.98248  83327123.74347  20349330.410    20349330.615    20349334.943
        50.000          44.000
 114303353.551 8  88902607.580 7  21352823.797    21352824.300    21352828.318
        48.000          43.000
 20  5  1  1 45  0.0000000  0 11G 9G26R 8R 1G 7G27G16G 8G 3G 4R 7
 110083080.66548  85779035.05248  20948112.544    20948112.501    20948117.878
        48.000          51.000
 121426741.16446  94618237.92746  23106739.752    23106739.112    23106746.037
        39.000          36.000
 104046178.260 8  80924819.424 8  19429888.808    19429890.309    19429892.382
        50.000          49.000
 112623090.281 7  87595755.683 6  21068483.229    21068484.645    21068491.882
        46.000          37.000
 122577771.25446  95515150.37846  23325775.602    23325774.655    23325778.997
        41.000          38.000
 121495916.99546  94672153.07746  23119900.222    23119900.516    23119906.729
        40.000          38.000
 109452491.35648  85287667.25346  20828115.408    20828115.033    20828118.278
        49.000          39.000
 127270429.69545  99171769.17044  24218753.102    24218754.072    24218760.808
        34.000          25.000
 125840613.31646  98057604.01745  23946670.173    23946670.814    23946678.106
        38.000          33.000
 107020000.45748  83392203.84447  20365223.744    20365223.829    20365228.157
        50.000          44.000
 114485588.517 8  89044345.850 7  21386867.227    21386867.189    21386871.384
        48.000          43.000
 20  5  1  1 45 30.0000000  0 11G 9G26R 8R 1G 7G27G16G 8G 3G 4R 7
 110099101.88648  85791519.12248  20951161.362    20951161.277    20951166.622
        49.000          51.000
 121589098.99246  94744750.47646  23137634.269    23137634.745    23137641.706
        39.000          36.000
 104124330.769 8  80985604.699 8  19444483.469    19444484.615    19444486.810
        50.000          49.000
 112602907.799 7  87580058.199 6  21064707.918    21064708.918    21064716.036
        46.000          37.000
 122573775.43047  95512036.75546  23325014.696    23325014.686    23325018.327
        42.000          38.000
 121484155.51046  94662988.31646  23117662.264    23117661.890    23117669.145
        41.000          37.000
 109567967.46948  85377648.64046  20850089.692    20850089.342    20850092.767
        48.000          39.000
 127235060.94545  99144209.13244  24212022.917    24212022.887    24212029.937
        34.000          25.000
 126015441.72346  98193833.89745  23979939.241    23979939.405    23979946.994
        37.000          32.000
 107103991.85548  83457651.67447  20381206.695    20381206.948    20381211.293
        50.000          43.000
 114668237.600 8  89186406.212 7  21420987.543    21420988.150    21420991.683
        49.000          43.000
 20  5  1  1 46  0.0000000  0 11G 9G26R 8R 1G 7G27G16G 8G 3G 4R 7
 110115527.77648  85804318.51648  20954286.983    20954287.008    20954292.447
        49.000          51.000
 121751688.65746  94871443.69646  23168574.385    23168574.776    23168581.629
        40.000          37.000
 104203282.073 8  81047011.247 8  19459227.221    19459228.381    19459230.466
        50.000          49.000
 112583262.081 7  87564778.210 6  21061033.303    21061033.530    21061040.858
        46.000          37.000
 122569895.93746  95509013.78246  23324276.408    23324276.481    23324280.019
        41.000          38.000
 121472762.53946  94654110.70146  23115493.698    23115493.855    23115501.010
        41.000          37.000
 109684009.50348  85468071.00246  20872171.652    20872171.192    20872174.840
        48.000          39.000
 127199759.30945  99116701.38644  24205305.414    24205305.125    24205311.425
        34.000          25.000
 126190360.06646  98330133.85745  24013225.214    24013225.301    24013232.887
        37.000          33.000
 107188464.62148  83523474.60247  20397281.497    20397281.732    20397286.030
        49.000          43.000
 114851306.425 8  89328793.045 7  21455187.034    21455186.786    21455189.765
        48.000          43.000
 20  5  1  1 46 30.0000000  0 11G 9G26R 8R 1G 7G27G16G 8G 3G 4R 7
 110132341.02648  85817419.75048  20957486.269    20957486.338    20957491.877
        48.000          51.000
 121914488.51046  94998300.68846  23199554.279    23199554.409    23199561.785
        40.000          37.000
 104283012.739 8  81109023.975 8  19474116.073    19474117.432    19474119.561
        50.000          49.000
 112564137.205 7  87549903.310 6  21057456.957    21057456.026    21057463.274
        46.000          37.000
 122566113.36646  95506066.33046  23323557.227    23323556.197    23323560.101
        41.000          38.000
 121461722.15146  94645507.82046  23113392.454    23113393.355    23113400.172
        40.000          37.000
 109800596.11048  85558917.70946  20894357.577    20894357.257    20894360.605
        48.000          39.000
 127164508.77745  99089233.47044  24198596.675    24198597.509    24198604.411
        34.000          26.000
 126365346.35546  98466486.76145  24046524.491    24046524.326    24046531.603
        37.000          32.000
 107273399.95048  83589657.96047  20413444.132    20413444.341    20413448.682
        50.000          44.000
 115034772.073 8  89471488.509 7  21489459.546    21489460.130    21489464.249
        49.000          43.000
 20  5  1  1 47  0.0000000  0 11G 9G26R 8R 1G 7G27G16G 8G 3G 4R 7
 110149558.34848  85830835.84448  20960762.616    20960762.739    20960768.291
        49.000          51.000
 122077510.73646  95125330.98046  23230576.769    23230576.641    23230583.489
        40.000          36.000
 104363537.997 8  81171654.711 8  19489153.610    19489154.720    19489157.095
        49.000          49.000
 112545551.861 7  87535448.052 6  21053979.966    21053978.926    21053986.301
        46.000          38.000
 122562442.45247  95503205.88746  23322857.995    23322858.051    23322861.566
        42.000          38.000
 121451052.28346  94637193.65546  23111362.471    23111361.808    23111369.462
        39.000          37.000
 109917739.91948  85650198.59946  20916649.224    20916648.884    20916652.312
        48.000          39.000
 127129326.70445  99061818.91744  24191903.229    24191903.197    24191909.758
        35.000          27.000
 126540412.28946  98602901.74345  24079838.131    24079838.478    24079845.503
        38.000          32.000
 107358812.92848  83656213.51447  20429697.657    20429697.747    20429702.253
        50.000          44.000
 115218646.362 8  89614501.818 7  21523808.565    21523809.017    21523812.884
        48.000          43.000
 20  5  1  1 47 30.0000000  0 11G 9G26R 8R 1G 7G27G16G 8G 3G 4R 7
 108591760.99448  84616967.77148  20664323.697    20664323.823    20664329.444
        49.000          51.000
 120665337.00746  94024935.82846  22961848.651    22961848.799    22961855.760
        40.000          36.000
 102839484.530 8  79986279.775 8  19204547.636    19204548.603    19204550.917
        49.000          49.000
 110924945.425 7  86274976.368 6  20750812.263    20750811.619    20750819.234
        47.000          37.000
 120983462.36947  94272831.80546  23022388.332    23022388.292    23022391.743
        42.000          38.000
 119865334.51746  93401569.44746  22809610.410    22809610.889    22809617.583
        40.000          37.000
 108460021.08048  84514313.78846  20639254.660    20639254.130    20639257.505
        48.000          38.000
 125518794.02645  97806858.42844  23885429.131    23885428.708    23885435.792
        35.000          27.000
 125140139.54546  97511780.09045  23813375.322    23813375.356    23813382.615
        38.000          32.000
 105869285.50448  82495542.79047  20146249.861    20146250.128    20146254.616
        49.000          43.000
 113798117.795 8  88509646.237 7  21258441.727    21258442.222    21258446.295
        48.000          43.000
 20  5  1  1 48  0.0000000  0 11G 9G26R 8R 1G 7G27G16G 8G 3G 4R 7
 108609794.03248  84631019.48548  20667755.505    20667755.409    20667761.036
        49.000          52.000
 120828798.09246  94152308.08046  22992954.592    22992954.511    22992961.447
        40.000          36.000
 102921601.383 8  80050148.426 8  19219882.014    19219883.584    19219885.666
        49.000          49.000
 110907452.339 7  86261370.649 6  20747538.191    20747539.045    20747546.885
        46.000          38.000
 120980017.50147  94270147.49846  23021732.542    23021732.991    23021736.113
        42.000          39.000
 119855417.04746  93393841.54846  22807722.881    22807722.877    22807730.240
        40.000          37.000
 108578273.74148  84606458.71746  20661757.475    20661756.906    20661760.371
        48.000          39.000
 125483760.47845  97779559.59344  23878761.564    23878761.838    23878769.065
        35.000          27.000
 125315357.82246  97648313.75145  23846718.061    23846718.310    23846725.329
        37.000          31.000
 105955656.57048  82562844.91447  20162685.864    20162685.971    20162690.531
        49.000          43.000
 113982800.209 8  88653288.070 7  21292942.405    21292942.154    21292946.648
        48.000          43.000
 20  5  1  1 48 30.0000000  0 11G 9G26R 8R 1G 7G27G16G 8G 3G 4R 7
 108628229.98748  84645385.16448  20671263.749    20671263.741    20671269.158
        49.000          52.000
 120992467.09646  94279842.33945  23024099.701    23024099.572    23024106.785
        40.000          35.000
 103004506.314 8  80114630.024 8  19235364.347    19235365.546    19235367.523
        49.000          49.000
 110890503.189 7  86248187.984 6  20744368.120    20744367.702    20744375.718
        46.000          38.000
 120976677.81447  94267545.15346  23021097.334    23021097.679    23021100.661
        42.000          39.000
 119845872.78346  93386404.47046  22805906.732    22805906.926    22805913.821
        41.000          37.000
 108697069.38047  84699026.75046  20684363.403    20684362.869    20684366.447
        47.000          39.000
 125448798.17345  97752316.26944  23872108.301    23872107.213    23872115.852
        33.000          26.000
 125490640.05746  97784897.26145  23880072.450    23880073.521    23880080.576
        38.000          32.000
 106042499.34848  82630514.60147  20179211.456    20179211.697    20179216.122
        49.000          43.000
 114167873.541 8  88797233.964 7  21327515.737    21327515.698    21327519.617
        48.000          43.000
 20  5  1  1 49  0.0000000  0 11G 9G26R 8R 1G 7G27G16G 8G 3G 4R 7
 108647082.31348  84660075.28048  20674851.296    20674851.187    20674856.523
        49.000          52.000
 121156353.00146  94407545.59145  23055286.204    23055285.972    23055293.012
        40.000          35.000
 103088211.070 8  80179733.701 8  19250995.915    19250996.821    19250999.020
        50.000          49.000
 110874113.327 7  86235440.308 6  20741301.397    20741302.674    20741309.714
        47.000          38.000
 120973455.24847  94265034.07946  23020484.313    23020484.243    23020487.496
        43.000          39.000
 119836716.42346  93379269.66946  22804164.362    22804164.552    22804171.173
        40.000          37.000
 108816417.48648  84792025.27046  20707074.589    20707074.229    20707077.715
        48.000          39.000
 125413921.60245  97725139.73244  23865471.653    23865470.695    23865479.025
        34.000          26.000
 125665994.88646  97921537.33745  23913441.063    23913442.356    23913449.528
        38.000          32.000
 106129825.66448  82698561.07047  20195829.110    20195829.218    20195833.729
        49.000          43.000
 114353346.177 7  88941490.409 7  21362163.968    21362163.630    21362167.661
        47.000          43.000
 20  5  1  1 49 30.0000000  0 11G 9G26R 8R 1G 7G27G16G 8G 3G 4R 7
 108666346.42348  84675086.27448  20678517.020    20678517.041    20678522.315
        49.000          52.000
 121320446.74346  94535410.80945  23086512.054    23086511.940    23086519.011
        39.000          34.000
 103172708.573 8  80245453.972 8  19266774.961    19266776.114    19266778.237
        49.000          49.000
 110858279.694 7  86223125.270 6  20738339.838    20738340.589    20738347.127
        47.000          38.000
 120970343.68646  94262609.47946  23019892.027    23019891.914    23019895.369
        41.000          39.000
 119827944.64046  93372434.51846  22802495.819    22802495.788    22802502.482
        41.000          39.000
 108936308.67648  84885446.97646  20729888.952    20729888.862    20729891.897
        48.000          38.000
 125379127.70545  97698027.62744  23858848.605    23858849.106    23858858.173
        33.000          26.000
 125841412.84546  98058226.61945  23946822.817    23946823.568    23946830.521
        38.000          32.000
 106217629.28048  82766979.45947  20212537.468    20212537.648    20212542.289
        48.000          43.000
 114539207.909 8  89086049.502 7  21396884.494    21396884.733    21396888.411
        48.000          42.000
 20  5  1  1 50  0.0000000  0 11G 9G26R 8R 1G 7G27G16G 8G 3G 4R 7
 108686027.93848  84690422.51448  20682262.296    20682262.259    20682267.469
        49.000          52.000
 121484749.56346  94663438.95545  23117777.465    23117777.912    23117784.594
        39.000          34.000
 103258002.945 8  80311794.017 8  19282703.223    19282704.175    19282706.334
        50.000          49.000
 110843009.941 7  86211248.800 6  20735483.647    20735483.565    20735490.588
        47.000          38.000
 120967346.45047  94260273.98746  23019321.963    23019321.398    23019325.224
        42.000          39.000
 119819564.30346  93365904.39646  22800900.427    22800900.237    22800907.665
        40.000          38.000
 109056744.52547  84979293.08546  20752807.151    20752806.729    20752810.196
        47.000          38.000
 125344423.14745  97670985.15644  23852247.205    23852246.389    23852254.212
        35.000          27.000
 126016894.79146  98194965.74945  23980215.666    23980216.166    23980224.241
        37.000          32.000
 106305914.20348  82835772.89647  20229337.555    20229337.713    20229342.241
        49.000          43.000
 114725458.991 8  89230911.418 7  21431677.672    21431678.031    21431681.950
        48.000          42.000
 20  5  1  1 50 30.0000000  0 11G 9G26R 8R 1G 7G27G16G 8G 3G 4R 7
 108706126.97148  84706084.09348  20686086.995    20686086.856    20686092.207
        50.000          51.000
 121649257.19146  94791626.67845  23149082.218    23149082.793    23149089.779
        39.000          34.000
 103344092.223 8  80378752.329 8  19298779.784    19298780.909    19298782.985
        50.000          49.000
 110828305.968 7  86199812.377 6  20732732.894    20732732.990    20732739.984
        47.000          38.000
 120964462.28847  94258026.59546  23018772.513    23018772.899    23018776.142
        43.000          39.000
 119811576.84046  93359680.42246  22799381.228    22799381.215    22799387.589
        41.000          39.000
 109177720.58548  85073560.14646  20775828.429    20775827.844    20775831.193
        48.000          38.000
 125309809.20145  97644013.27344  23845658.944    23845658.970    23845666.416
        34.000          27.000
 126192435.98446  98331751.05045  24013620.195    24013620.815    24013628.235
        37.000          32.000
 106394678.89148  82904940.17047  20246229.129    20246229.214    20246233.646
        48.000          43.000
 114912094.546 8  89376072.372 7  21466542.456    21466542.333    21466546.154
        48.000          42.000
 20  5  1  1 51  0.0000000  0 11G 9G26R 8R 1G 7G27G16G 8G 3G 4R 7
 108726648.28648  84722074.72748  20689992.276    20689992.024    20689997.391
        48.000          52.000
 121813969.99446  94919974.28745  23180426.447    23180426.415    23180433.620
        39.000          34.000
 103430979.324 8  80446331.171 8  19315005.269    19315006.324    19315008.581
        49.000          49.000
 110814174.255 7  86188821.051 6  20730089.463    20730089.350    20730095.903
        47.000          38.000
 120961694.20947  94255869.66546  23018245.787    23018246.451    23018249.335
        43.000          39.000
 119803988.22046  93353767.21946  22797936.692    22797936.463    22797943.750
        41.000          39.000
 109299237.35648  85168248.53846  20798951.873    20798951.774    20798954.839
        49.000          38.000
 125275291.94946  97617116.73144  23839090.800    23839090.691    23839099.024
        36.000          28.000
 126368036.43346  98468582.52645  24047036.245    24047036.746    24047044.368
        37.000          32.000
 106483926.47248  82974483.73147  20263212.206    20263212.330    20263216.903
        49.000          43.000
 115099113.671 7  89521531.672 7  21501478.169    21501478.794    21501483.023
        47.000          42.000
 20  5  1  1 51 30.0000000  0 11G 9G26R 8R 1G 7G27G16G 8G 3G 4R 7
 108747591.54648  84738394.14548  20693977.418    20693977.567    20693982.822
        49.000          52.000
 121978883.26746  95048478.12045  23211808.715    23211808.503    23211815.063
        39.000          34.000
 103518661.933 8  80514528.741 8  19331379.302    19331380.520    19331382.663
        49.000          49.000
 110800616.538 8  86178276.164 6  20727553.194    20727553.611    20727560.250
        48.000          38.000
 120959040.26847  94253801.67046  23017741.207    23017741.340    23017744.233
        43.000          39.000
 119796799.37846  93348165.53946  22796568.214    22796568.718    22796575.460
        41.000          38.000
 109421290.42148  85263354.82246  20822178.180    20822177.747    20822180.995
        48.000          38.000
 125240872.13946  97590296.12245  23832541.660    23832541.398    23832549.213
        36.000          30.000
 126543690.92846  98605456.12145  24080462.384    24080462.838    24080470.025
        37.000          32.000
 106573654.93648  83044401.99947  20280286.872    20280287.192    20280291.666
        49.000          43.000
 115286510.292 7  89667284.544 7  21536486.781    21536485.947    21536491.095
        46.000          42.000
 20  5  1  1 52  0.0000000  0 11G 9G26R 8R 1G 7G27G16G 8G 3G 4R 7
 108768971.02048  84755053.47348  20698045.797    20698046.033    20698051.274
        50.000          52.000
 122144006.93546  95177145.87645  23243230.272    23243230.421    23243237.550
        38.000          33.000
 103607152.335 8  80583354.593 8  19347904.301    19347905.268    19347907.609
        49.000          49.000
 110787649.015 7  86168190.309 6  20725127.563    20725127.262    20725134.494
        47.000          38.000
 120956512.59547  94251832.07646  23017260.405    23017260.239    23017263.089
        44.000          39.000
 119790025.81046  93342887.46146  22795279.460    22795279.445    22795286.610
        40.000          38.000
 109543889.99548  85358886.95246  20845507.923    20845507.714    20845511.107
        48.000          38.000
 125206565.39446  97563563.64145  23826012.963    23826012.909    23826020.093
        38.000          30.000
 126719409.03446  98742379.26045  24113899.958    24113901.010    24113908.334
        37.000          32.000
 106663876.88548  83114704.80547  20297455.752    20297455.910    20297460.311
        49.000          43.000
 115474293.736 7  89813338.317 7  21571565.998    21571565.922    21571570.485
        46.000          42.000
 20  5  1  1 52 30.0000000  0 11G 9G26R 8R 1G 7G27G16G 8G 3G 4R 7
 108790782.69748  84772049.58048  20702196.564    20702196.525    20702201.965
        50.000          52.000
 122309332.55146  95305971.00945  23274691.187    23274691.099    23274697.879
        39.000          34.000
 103696444.320 8  80652803.898 8  19364579.122    19364579.898    19364582.383
        49.000          49.000
 110775269.333 7  86158561.657 6  20722811.794    20722811.264    20722818.398
        47.000          38.000
 120954105.93347  94249956.76746  23016802.013    23016802.230    23016805.231
        43.000          39.000
 119783664.78746  93337930.82146  22794068.741    22794069.364    22794076.414
        41.000          38.000
 109667026.84148  85454837.74246  20868940.330    20868940.010    20868943.080
        48.000          39.000
 125172369.03346  97536917.12745  23819505.447    23819505.182    23819513.003
        37.000          30.000
 126895181.96346  98879345.12345  24147349.190    24147349.477    24147356.700
        37.000          31.000
 106754586.61548  83185387.69247  20314717.071    20314717.321    20314721.861
        49.000          43.000
 115662454.585 7  89959685.603 7  21606716.304    21606716.551    21606720.170
        47.000          42.000
 20  5  1  1 53  0.0000000  0 11G 9G26R 8R 1G 7G27G16G 8G 3G 4R 7
 108813024.83948  84789381.11348  20706428.953    20706429.055    20706434.506
        50.000          51.000
 122474854.10846  95434948.79445  23306188.620    23306188.446    23306195.966
        38.000          33.000
 103786533.772 8  80722873.461 8  19381402.547    19381403.688    19381406.052
        49.000          49.000
 110763476.980 7  86149389.834 6  20720605.121    20720605.360    20720612.613
        47.000          38.000
 120951816.80347  94248173.04246  23016365.988    23016366.270    23016369.717
        43.000          39.000
 119777715.77746  93333295.25746  22792937.387    22792936.765    22792944.136
        41.000          38.000
 109790695.14148  85551202.64746  20892473.358    20892473.015    20892476.486
        48.000          38.000
 125138282.70846  97510356.38245  23813018.989    23813019.290    23813026.927
        38.000          31.000
 127071003.19146  99016348.63945  24180806.831    24180807.346    24180814.065
        37.000          31.000
 106845780.71648  83256448.01847  20332070.703    20332070.882    20332075.549
        49.000          42.000
 115850985.573 8  90106320.771 6  21641935.952    21641936.033    21641938.974
        48.000          41.000
 20  5  1  1 53 30.0000000  0 11G 9G26R 8R 1G 7G27G16G 8G 3G 4R 7
 108835697.40248  84807048.04748  20710743.681    20710743.572    20710748.854
        49.000          52.000
 122640567.20846  95564075.85745  23337722.699    23337722.707    23337729.999
        38.000          33.000
 103877418.916 8  80793561.887 8  19398374.739    19398375.977    19398378.140
        49.000          49.000
 110752274.198 7  86140676.560 6  20718509.846    20718509.639    20718516.971
        47.000          38.000
 120949643.30847  94246479.42246  23015952.748    23015952.519    23015956.191
        43.000          40.000
 119772180.01746  93328981.69646  22791883.795    22791883.756    22791890.639
        41.000          39.000
 109914890.59148  85647978.31946  20916107.266    20916106.640    20916110.017
        48.000          38.000
 125104307.40546  97483882.15545  23806553.941    23806553.856    23806561.009
        38.000          31.000
 127246867.97546  99153386.06945  24214272.419    24214273.381    24214280.231
        37.000          31.000
 106937457.43448  83327884.40547  20349516.171    20349516.577    20349521.103
        48.000          43.000
 116039881.032 8  90253239.421 7  21677223.945    21677223.326    21677226.987
        48.000          42.000
 20  5  1  1 54  0.0000000  0 11G 9G26R 8R 1G 7G27G16G 8G 3G 4R 7
 108858800.33748  84825050.33048  20715139.834    20715139.909    20715145.143
        51.000          52.000
 122806467.52046  95693348.80345  23369292.711    23369292.202    23369299.564
        38.000          33.000
 103969097.110 8  80864867.138 8  19415494.855    19415496.066    19415498.484
        49.000          49.000
 110741662.505 7  86132423.012 6  20716524.880    20716524.404    20716531.755
        47.000          38.000
 120947583.70247  94244874.55046  23015560.507    23015560.313    23015564.506
        43.000          39.000
 119767058.67046  93324991.03846  22790909.697    22790909.177    22790916.071
        41.000          39.000
 110039608.74148  85745161.28646  20939839.910    20939839.747    20939843.194
        48.000          38.000
 125070444.70846  97457495.64245  23800109.351    23800109.760    23800117.454
        38.000          32.000
 127422771.44746  99290453.68445  24247747.115    24247746.546    24247753.525
        37.000          31.000
 107029615.01248  83399695.48647  20367053.268    20367053.623    20367058.095
        49.000          43.000
 116229135.462 8  90400437.265 6  21712577.000    21712577.557    21712581.105
        48.000          41.000
 20  5  1  1 54 30.0000000  0 11G 9G26R 8R 1G 7G27G16G 8G 3G 4R 7
 108882336.74248  84843390.38348  20719618.612    20719618.670    20719623.961
        50.000          52.000
 122972553.82746  95822766.66745  23400897.248    23400897.404    23400904.607
        38.000          32.000
 104061569.106 8  80936789.782 8  19432763.452    19432764.969    19432767.046
        50.000          49.000
 110731646.854 7  86124633.072 6  20714651.743    20714651.149    20714658.035
        47.000          38.000
 120945639.61347  94243359.68946  23015190.686    23015190.466    23015194.743
        42.000          40.000
 119762356.03847  93321326.65646  22790013.971    22790014.166    22790021.200
        42.000          39.000
 110164848.27048  85842750.52346  20963672.546    20963672.103    20963675.328
        48.000          37.000
 125036699.01946  97431200.33545  23793687.418    23793688.079    23793695.483
        38.000          31.000
 127598712.05946  99427550.21445  24281226.570    24281227.234    24281233.965
        37.000          31.000
 107122254.87948  83471882.37547  20384682.304    20384682.429    20384686.804
        49.000          42.000
 116418746.700 7  90547912.637 6  21747997.746    21747997.836    21748002.317
        47.000          41.000
 20  5  1  1 55  0.0000000  0 11G 9G26R 8R 1G 7G27G16G 8G 3G 4R 7
 108906310.59348  84862071.30848  20724180.707    20724180.705    20724186.135
        50.000          52.000
 123138825.81046  95952329.22445  23432538.423    23432538.396    23432545.360
        37.000          33.000
 104154836.836 8  81009331.334 8  19450180.990    19450182.173    19450184.131
        49.000          49.000
 110722232.856 7  86117311.078 6  20712888.868    20712889.774    20712896.818
        47.000          38.000
 120943813.20447  94241936.51746  23014843.299    23014842.884    23014847.143
        42.000          40.000
 119758077.36346  93317992.64546  22789200.268    22789200.339    22789206.996
        41.000          38.000
 110290609.00347  85940745.89746  20987603.994    20987603.324    20987607.157
        47.000          37.000
 125003075.49446  97405000.20745  23787289.059    23787289.183    23787297.547
        38.000          31.000
 127774689.04046  99564675.08145  24314712.973    24314714.557    24314721.277
        36.000          30.000
 107215379.22448  83544446.78747  20402403.196    20402403.392    20402407.861
        49.000          42.000
 116608713.446 7  90695664.514 6  21783484.668    21783484.896    21783489.743
        47.000          41.000
 20  5  1  1 55 30.0000000  0 11G 9G26R 8R 1G 7G27G16G 8G 3G 4R 7
 108930721.16548  84881092.52448  20728825.909    20728825.967    20728831.350
        50.000          53.000
 123305278.45446  96082032.55745  23464213.510    23464213.497    23464220.564
        38.000          33.000
 104248896.758 8  81082489.033 8  19467746.025    19467747.003    19467749.025
        50.000          49.000
 110713421.527 7  86110457.830 6  20711240.158    20711240.964    20711248.495
        46.000          38.000
 120942102.18447  94240603.26046  23014517.323    23014517.221    23014521.448
        42.000          39.000
 119754223.14146  93314989.36746  22788466.491    22788466.380    22788473.591
        41.000          38.000
 110416885.45447  86039143.12846  21011633.550    21011632.927    21011636.431
        47.000          38.000
 124969574.74646  97378895.73845  23780913.501    23780913.806    23780922.657
        37.000          31.000
 127950696.96246  99701824.07045  24348207.084    24348208.133    24348214.338
        37.000          31.000
 107308985.65148  83617386.84147  20420215.921    20420216.176    20420220.612
        49.000          43.000
 116799029.322 7  90843687.940 6  21819038.169    21819037.851    21819042.010
        46.000          41.000
 20  5  1  1 56  0.0000000  0 11G 9G26R 8R 1G 7G27G16G 8G 3G 4R 7
 108955574.03548  84900458.40148  20733555.123    20733555.335    20733560.694
        50.000          52.000
 123471913.13746  96211877.70845  23495923.109    23495922.610    23495930.684
        39.000          33.000
 104343752.685 8  81156265.854 8  19485459.704    19485460.578    19485462.759
        49.000          49.000
 110705220.198 7  86104079.020 6  20709707.512    20709706.668    20709714.229
        46.000          38.000
 120940510.30747  94239362.84546  23014214.444    23014214.357    23014218.367
        43.000          40.000
 119750800.11146  93312322.07846  22787815.386    22787815.190    22787821.800
        40.000          38.000
 110543679.05248  86137943.33746  21035761.513    21035761.227    21035764.521
        48.000          37.000
 124936203.45646  97352892.17245  23774563.908    23774563.630    23774572.251
        37.000          31.000
 128126736.75746  99838997.87845  24381706.297    24381707.055    24381713.695
        36.000          30.000
 107403077.98548  83690705.52547  20438120.961    20438121.329    20438125.779
        49.000          42.000
 116989694.808 7  90991983.266 6  21854655.988    21854654.480    21854660.398
        46.000          41.000
 20  5  1  1 56 30.0000000  0 11G 9G26R 8R 1G 7G27G16G 8G 3G 4R 7
 108980875.71448  84920173.99948  20738370.209    20738370.156    20738375.418
        51.000          52.000
 123638732.06646  96341866.44145  23527667.019    23527667.438    23527674.945
        38.000          33.000
 104439408.934 8  81230665.143 8  19503322.359    19503323.743    19503325.805
        49.000          49.000
 110697637.189 7  86098181.139 6  20708289.594    20708288.555    20708295.832
        47.000          38.000
 120939042.83147  94238219.36546  23013935.587    23013935.159    23013938.999
        43.000          39.000
 119747816.06846  93309996.87846  22787247.134    22787247.250    22787254.218
        41.000          38.000
 110670992.01348  86237148.23146  21059988.353    21059987.863    21059991.389
        48.000          38.000
 124902969.75446  97326995.79545  23768239.717    23768240.019    23768248.182
        37.000          32.000
 128302810.19946  99976197.91145  24415212.002    24415212.983    24415219.301
        37.000          30.000
 107497660.99448  83764406.54947  20456119.575    20456119.876    20456124.354
        48.000          43.000
 117180710.720 7  91140551.165 6  21890339.155    21890338.221    21890343.610
        46.000          41.000
 20  5  1  1 57  0.0000000  0 11G 9G26R 8R 1G 7G27G16G 8G 3G 4R 7
 109006617.22548  84940232.31548  20743268.680    20743268.564    20743273.887
        50.000          52.000
 123805722.02746  96471988.46345  23559444.863    23559444.627    23559451.821
        38.000          33.000
 104535853.519 8  81305677.580 8  19521333.052    19521334.049    19521336.050
        49.000          49.000
 110690665.098 7  86092758.402 6  20706984.627    20706984.381    20706991.452
        47.000          39.000
 120937689.16347  94237164.56246  23013677.384    23013677.678    23013681.429
        43.000          40.000
 119745263.20446  93308007.65346  22786761.427    22786761.776    22786768.598
        40.000          38.000
 110798810.90647  86336747.37146  21084311.739    21084311.197    21084314.627
        47.000          37.000
 124869866.27946  97301200.89145  23761940.563    23761940.269    23761948.606
        37.000          32.000
 128478903.66646 100113413.54744  24448721.819    24448722.556    24448729.001
        37.000          29.000
 107592723.93148  83838481.55047  20474209.648    20474209.767    20474214.183
        48.000          42.000
 117372062.602 7  91289380.375 6  21926085.925    21926085.325    21926090.118
        46.000          41.000
 20  5  1  1 57 30.0000000  0 11G 9G26R 8R 1G 7G27G16G 8G 3G 4R 7
 109032807.91448  84960640.64948  20748252.512    20748252.435    20748257.847
        50.000          52.000
 123972888.18146  96602247.75645  23591255.102    23591255.205    23591262.866
        38.000          33.000
 104633093.708 8  81381308.827 8  19539491.260    19539492.739    19539495.010
        49.000          49.000
 110684315.122 7  86087819.544 6  20705796.219    20705796.639    20705803.370
        47.000          38.000
 120936456.68647  94236204.19546  23013443.352    23013443.346    23013446.671
        43.000          40.000
 119743152.13646  93306362.67646  22786360.050    22786359.638    22786366.423
        40.000          38.000
 110927140.52347  86436744.47346  21108731.975    21108731.408    21108734.993
        47.000          37.000
 124836903.39346  97275515.56445  23755668.387    23755667.920    23755676.143
        38.000          33.000
 128655021.92146 100250648.49144  24482236.159    24482236.505    24482243.383
        38.000          29.000
 107688274.43148  83912936.46947  20492392.104    20492392.449    20492397.032
        48.000          42.000
 117563754.645 7  91438474.149 6  21961895.238    21961895.881    21961899.796
        46.000          41.000
 20  5  1  1 58  0.0000000  0 11G 9G26R 8R 1G 7G27G16G 8G 3G 4R 7
 109059453.60448  84981403.52148  20753322.918    20753322.857    20753328.317
        50.000          52.000
 124140232.23046  96732645.68145  23623100.161    23623099.767    23623107.319
        38.000          33.000
 104731133.188 8  81457561.734 8  19557799.752    19557801.003    19557803.344
        49.000          49.000
 110678594.904 7  86083370.485 6  20704725.508    20704725.905    20704733.890
        47.000          38.000
 120935349.82247  94235341.71046  23013232.831    23013232.745    23013236.299
        43.000          40.000
 119741489.87546  93305067.40646  22786043.331    22786043.660    22786050.405
        40.000          39.000
 111055982.51647  86537140.82946  21133249.786    21133249.457    21133252.578
        47.000          37.000
 124804088.65446  97249945.67745  23749424.162    23749423.672    23749431.203
        39.000          33.000
 128831166.09446 100387903.63044  24515754.809    24515755.371    24515762.327
        36.000          29.000
 107784316.54948  83987774.46347  20510668.552    20510668.678    20510673.176
        49.000          42.000
 117755787.333 7  91587832.859 6  21997768.755    21997768.475    21997773.044
        47.000          41.000
 20  5  1  1 58 30.0000000  0 11G 9G26R 8R 1G 7G27G16G 8G 3G 4R 7
 109086550.88548  85002518.28748  20758479.325    20758479.281    20758484.762
        50.000          52.000
 124307746.43746  96863176.17345  23654976.473    23654976.653    23654984.320
        37.000          32.000
 104829965.419 8  81534431.232 8  19576256.376    19576257.432    19576259.631
        49.000          49.000
 110673502.628 7  86079409.819 6  20703772.759    20703773.470    20703781.364
        47.000          39.000
 120934363.51647  94234573.17746  23013045.410    23013045.241    23013048.323
        44.000          40.000
 119740274.10346  93304120.06046  22785811.984    22785812.115    22785819.179
        41.000          39.000
 111185328.64947  86637930.01846  21157863.441    21157863.178    21157866.495
        47.000          38.000
 124771419.71746  97224489.39845  23743207.520    23743207.243    23743213.957
        38.000          33.000
 129007328.16146 100525172.72744  24549277.991    24549278.114    24549284.982
        36.000          29.000
 107880845.03348  84062991.44647  20529037.335    20529037.361    20529042.071
        48.000          42.000
 117948151.871 7  91737449.680 6  22033703.662    22033704.423    22033708.496
        47.000          41.000
 20  5  1  1 59  0.0000000  0 11G 9G26R 8R 1G 7G27G16G 8G 3G 4R 7
 109114100.93948  85023985.85848  20763721.781    20763721.792    20763727.346
        50.000          52.000
 124475427.87446  96993837.01145  23686885.416    23686885.465    23686892.740
        37.000          31.000
 104929589.315 8  81611916.463 8  19594860.293    19594861.566    19594863.709
        50.000          49.000
 110669040.923 7  86075939.608 6  20702939.753    20702939.048    20702946.269
        47.000          38.000
 120933497.36747  94233898.26246  23012880.063    23012880.440    23012883.528
        44.000          40.000
 119739507.26746  93303522.54646  22785666.108    22785666.188    22785672.736
        41.000          39.000
 111315175.68947  86739109.53246  21182572.433    21182572.182    21182575.359
        47.000          37.000
 124738899.46046  97199148.98745  23737018.275    23737018.667    23737025.661
        39.000          33.000
 129183504.66146 100662453.06444  24582802.688    24582803.084    24582809.987
        36.000          29.000
 107977859.30648  84138586.96747  20547498.238    20547498.565    20547503.143
        48.000          42.000
 118140843.654 7  91887321.030 6  22069701.381    22069701.228    22069705.241
        46.000          41.000
 20  5  1  1 59 30.0000000  0 11G 9G26R 8R 1G 7G27G16G 8G 3G 4R 7
 107566692.40648  83818212.97348  20469259.833    20469259.805    20469265.258
        49.000          52.000
 123067865.63746  95897035.24045  23419035.319    23419035.351    23419042.694
        37.000          31.000
 103424638.036 8  80441398.786 8  19313820.949    19313822.397    19313824.726
        49.000          49.000
 109062657.148 8  84826530.008 6  20402431.747    20402431.907    20402439.006
        48.000          39.000
 119357337.58247  93005721.82546  22712947.718    22712947.247    22712950.244
        43.000          40.000
 118163778.27746  92075681.79646  22485814.779    22485815.033    22485821.559
        41.000          39.000
 109870111.56047  85613085.53646  20907586.140    20907585.445    20907588.963
        47.000          37.000
 123131115.62346  95946330.45745  23431067.463    23431067.622    23431075.010
        38.000          33.000
 127784284.58646  99572151.62744  24316539.641    24316540.328    24316546.895
        36.000          28.000
 106499948.56548  82986968.19347  20266261.335    20266261.659    20266266.147
        48.000          42.000
 116729059.502 7  90789266.642 6  21805967.866    21805967.713    21805971.730
        47.000          41.000
 20  5  1  2  0  0.0000000  0 11G 9G26R 8R 1G 7G27G16G 8G 3G 4R 7
 107595167.01248  83840400.97648  20474678.369    20474678.362    20474683.763
        50.000          53.000
 123235888.07046  96027961.77745  23451009.383    23451008.850    23451016.184
        37.000          31.000
 103525856.424 8  80520124.181 8  19332722.843    19332724.277    19332726.633
        49.000          49.000
 109059481.355 8  84824059.954 6  20401837.441    20401837.761    20401844.927
        48.000          39.000
 119356726.44347  93005245.62146  22712830.666    22712830.527    22712833.772
        44.000          41.000
 118163931.90347  92075801.51246  22485843.918    22485844.334    22485850.903
        42.000          39.000
 110000966.87847  85715050.71546  20932486.908    20932486.511    20932489.897
        47.000          37.000
 123098915.55946  95921239.54145  23424940.848    23424940.449    23424947.739
        38.000          34.000
 127960495.24246  99709458.56544  24350071.804    24350072.168    24350079.564
        36.000          29.000
 106597948.11948  83063331.46747  20284910.087    20284910.368    20284914.945
        48.000          42.000
 116922409.437 7  90939649.895 6  21842086.468    21842087.021    21842090.694
        46.000          40.000
 20  5  1  2  0 30.0000000  0 11G 9G26R 8R 1G 7G27G16G 8G 3G 4R 7
 107624104.04848  83862949.31148  20480184.946    20480184.854    20480190.317
        51.000          52.000
 123404074.92146  96159016.42645  23483014.241    23483013.677    23483021.305
        37.000          31.000
 103627868.539 8  80599466.929    19351773.185    19351774.249    19351778.396
        49.000           1.000
 109056950.925 7  84822091.812 4  20401365.324    20401364.412    20401369.231
        47.000          24.000
 119356240.54547  93004867.01746  22712738.350    22712737.744    22712741.491
        43.000          40.000
 118164547.66847  92076281.35246  22485961.014    22485961.259    22485967.966
        42.000          39.000
 110132319.72647  85817403.58846  20957482.419    20957482.321    20957485.659
        47.000          37.000
 123066877.97546  95896275.22345  23418843.091    23418842.952    23418850.983
        37.000          33.000
 128136716.25946  99846773.59144  24383605.275    24383606.077    24383613.183
        37.000          28.000
 106696437.78248  83140076.64447  20303652.292    20303652.312    20303656.828
        48.000          42.000
 117116080.134 7  91090282.592    21878266.868    21878265.756    21878274.747
        45.000           1.000
 20  5  1  2  1  0.0000000  0 11G 9G26R 8R 1G 7G27G16G 8G 3G 4R 7
 107653506.27248  83885860.12848  20485779.881    20485779.890    20485785.438
        51.000          52.000
 123572424.92546  96290198.21445  23515050.083    23515049.896    23515056.895
        38.000          31.000
 103730674.264 8  80679426.906    19370971.295    19370972.300    19370974.617
        49.000           5.000
 109055070.420 7                  20401012.139
        47.000
 119355881.10747  93004586.94446  22712669.890    22712669.168    22712673.054
        43.000          40.000
 118165629.49846  92077124.36146  22486167.418    22486167.109    22486174.082
        40.000          39.000
 110264168.48247  85920142.87746  20982572.770    20982572.247    20982575.506
        47.000          37.000
 123035007.49346  95871441.11945  23412777.853    23412778.209    23412785.464
        38.000          33.000
 128312945.86146  99984095.31244  24417141.623    24417141.437    24417148.772
        36.000          28.000
 106795418.46248  83217204.43647  20322487.343    20322487.627    20322492.319
        48.000          42.000
 117310069.344 7                  21914504.353
        46.000
 20  5  1  2  1 30.0000000  0 11G 9G26R 8R 1G 7G27G16G 8G 3G 4R 7
 107683374.87348  83909134.36048  20491463.862    20491463.654    20491469.246
        50.000          52.000
 123740935.09846  96421504.81545  23547115.456    23547116.012    23547123.781
        37.000          32.000
 103834272.054 8  80760002.961    19390317.429    19390318.542    19390321.895
        49.000           4.000
 109053842.769 7                  20400783.598
        47.000
 119355647.80747  93004405.16246  22712625.058    22712624.809    22712628.647
        43.000          40.000
 118167179.84347  92078332.43946  22486461.749    22486462.272    22486469.037
        42.000          39.000
 110396509.97447  86023266.12046  21007756.376    21007755.831    21007758.933
        47.000          37.000
 123003306.10146  95846738.78545  23406746.108    23406745.571    23406753.454
        37.000          32.000
 128489180.73446 100121421.12244  24450677.669    24450678.295    24450685.281
        37.000          28.000
 106894889.56948  83294714.37247  20341416.237    20341416.469    20341420.970
        49.000          42.000
 117504372.889 7                  21950802.287
        46.000
 20  5  1  2  2  0.0000000  0 11G 9G26R 8R 1G 7G27G16G 8G 3G 4R 7
 107713715.86348  83932776.67948  20497237.302    20497237.341    20497242.917
        50.000          52.000
 123909607.42946  96552937.74445  23579214.439    23579213.892    23579221.140
        38.000          32.000
 103938665.232 8                  19409812.301
        49.000
 109053275.628 7                  20400676.982
        47.000
 119355545.02447  93004325.08046  22712605.421    22712605.348    22712608.976
        43.000          41.000
 118169205.74846  92079911.09146  22486847.644    22486847.342    22486854.515
        41.000          40.000
 110529345.78247  86126774.54146  21033034.206    21033033.592    21033036.988
        47.000          37.000
 122971781.31446  95822174.04545  23400745.911    23400746.134    23400754.409
        36.000          32.000
 128665422.34746 100258752.17644  24484215.570    24484215.494    24484222.996
        36.000          28.000
 106994855.30148  83372609.73247  20360439.172    20360439.406    20360443.824
        48.000          42.000
 117698991.398 7  91543669.906 6  21987158.604    21987157.331    21987165.891
        46.000          40.000
 20  5  1  2  2 30.0000000  0 11G 9G26R 8R 1G 7G27G16G 8G 3G 4R 7
 107744526.95548  83956785.31948  20503100.562    20503100.532    20503106.038
        50.000          52.000
 124078435.55246  96684492.08445  23611340.887    23611340.571    23611348.015
        38.000          32.000
 104043848.778 8  80923013.031 8  19429454.607    19429455.526    19429457.926
        49.000          49.000
 109053367.925 7                  20400694.328
        47.000
 119355569.40247  93004344.08846  22712609.897    22712610.075    22712613.730
        43.000          40.000
 118171706.17847  92081859.49246  22487323.434    22487323.567    22487330.272
        42.000          40.000
 110662668.97547  86230662.73746  21058404.501    21058404.269    21058407.472
        47.000          36.000
 122940433.12046  95797746.90445  23394781.184    23394781.803    23394787.983
        37.000          32.000
 128841663.83346 100396083.14144  24517752.977    24517753.341    24517760.413
        37.000          28.000
 107095311.52848  83450887.29847  20379555.347    20379555.516    20379559.913
        48.000          42.000
 117893917.341 7  91695278.925 6  22023572.662    22023572.940    22023576.612
        46.000          40.000
 20  5  1  2  3  0.0000000  0 11G 9G26R 8R 1G 7G27G16G 8G 3G 4R 7
 107775805.17948  83981157.95748  20509052.731    20509052.701    20509058.105
        50.000          53.000
 124247412.39146  96816162.30645  23643496.062    23643495.920    23643503.684
        38.000          32.000
 104149816.858 8  81005432.632 8  19449243.366    19449244.585    19449246.803
        49.000          49.000
 109054118.518 7  84819883.879 6  20400833.802    20400834.294    20400841.644
        47.000          39.000
 119355715.77947  93004458.15646  22712637.856    22712637.896    22712641.662
        42.000          41.000
 118174679.28547  92084176.22146  22487889.016    22487889.148    22487895.975
        42.000          40.000
 110796472.27348  86334925.05646  21083866.658    21083866.342    21083869.587
        48.000          37.000
 122909259.43346  95773455.76445  23388849.360    23388848.958    23388856.862
        37.000          33.000
 129017897.81745 100533408.25844  24551289.402    24551289.639    24551297.039
        35.000          28.000
 107196253.44448  83529543.31847  20398763.659    20398764.080    20398768.680
        48.000          42.000
 118089141.842 7  91847120.162 6  22060042.410    22060042.809    22060045.883
        45.000          40.000
 20  5  1  2  3 30.0000000  0 11G 9G26R 8R 1G 7G27G16G 8G 3G 4R 7
 107807561.64748  84005903.25548  20515095.959    20515095.943    20515101.149
        50.000          53.000
 124416545.14846  96947954.02845  23675681.450    23675680.777    23675688.038
        37.000          31.000
 104256577.837 8  81088468.929 8  19469180.393    19469181.081    19469183.514
        49.000          49.000
 109055540.181 7  84820989.637 6  20401098.518    20401100.603    20401107.726
        47.000          39.000
 119355994.53347  93004675.38946  22712690.859    22712691.061    22712694.749
        44.000          41.000
 118178137.32347  92086870.81546  22488547.168    22488547.357    22488554.145
        42.000          41.000
 110930762.56647  86439566.84446  21109421.202    21109420.948    21109423.765
        47.000          37.000
 122878272.82546  95749310.36445  23382952.713    23382952.278    23382960.389
        37.000          33.000
 129194130.90245 100670732.67944  24584826.048    24584825.886    24584832.642
        35.000          28.000
 107297690.35247  83608585.04746  20418066.763    20418066.861    20418071.548
        47.000          41.000
 118284671.078 7  91999198.402 6  22096568.961    22096568.697    22096572.868
        46.000          39.000
